station no.,station name,latitude,longitude,altitude,meanSpeed-10m,meanSpeed-100m,scaleFactor,startTime,meanRes,Observations,meanDuration,highWindFrac,closestZone,distanceToZone,distanceToCentroid,inZone
018012,CEDUNA AMO                              ,-32.1297,133.6976,15.3,5.349614267277117,7.64024,1.4281852505044466,1992-04-14 09:30:00,29.97859156666667,460343.0,21.45833333333333,0.0184540124129035,19,40.772089426910625,136.64317443516234,False
018083,WUDINNA AERO                            ,-33.043,135.4519,86.4,4.557625698890402,7.041612,1.5450176503084183,1999-07-13 17:30:00,29.99992793333333,303511.0,21.26086956521739,0.019616784420575,19,33.43271118544003,81.63869449769744,False
018191,COULTA (COLES POINT)                    ,-34.3749,135.3741,28.0,5.201333205232566,7.9129443,1.52133001379407,1992-04-06 10:30:00,29.9999319,349439.0,24.0,0.0194112492448522,19,29.22198182604306,123.37705835709525,False
018195,MINNIPA PIRSA                           ,-32.8427,135.1515,165.0,5.044643283134899,7.5427666,1.4952031586181076,1996-07-19 04:30:00,29.96374408333333,328996.0,12.77777777777778,0.0114852165634848,19,17.450262727413516,52.42869425809194,False
018200,THEVENARD WIND                          ,-32.1803,133.6343,8.5,6.268353097237214,8.405201,1.3408946222184832,2002-07-12 12:00:00,29.999893633333333,269258.0,16.333333333333332,0.0183902992125244,19,43.55664469396604,140.4765406704714,False
