station no.,station name,latitude,longitude,altitude,meanSpeed-10m,meanSpeed-100m,scaleFactor,startTime,meanRes,Observations,meanDuration,highWindFrac,closestZone,distanceToZone,distanceToCentroid,inZone
091219,SCOTTSDALE (WEST MINSTONE ROAD)         ,-41.1708,147.4883,197.5,3.5448662607117667,5.9942064,1.690954182097766,2003-01-22 13:30:00,29.992384183333336,316994.0,38.91666666666666,0.0102055268661876,22,19.62934675654306,86.89548504957223,False
092045,LARAPUNA (EDDYSTONE POINT)              ,-40.9928,148.3467,19.7,6.816842310115612,8.358269,1.2261202999209784,1994-06-27 17:30:00,29.99994055,340619.0,23.48837209302325,0.0201317784204323,22,0.0,56.19429254037292,True
092120,ST HELENS AERODROME                     ,-41.3381,148.2792,48.0,3.4751338728041152,6.887335,1.9818905042788888,2001-01-10 12:30:00,29.99976925,333742.0,54.73170731707317,0.0325090267063685,22,2.83084617371552,81.79223111897683,False
092123,SWAN ISLAND                             ,-40.7292,148.125,15.0,6.636718630635044,9.807541,1.4777695785207996,2003-12-09 10:30:00,28.86042545,318158.0,42.22077922077922,0.0683128388018839,22,0.0,21.927678449386004,True
099005,FLINDERS ISLAND AIRPORT                 ,-40.0911,148.0024,9.0,6.562911716451893,8.648583,1.317796701499147,1993-06-07 16:00:00,29.968839666666668,355979.0,31.79245283018868,0.0398083933885591,22,0.0,40.55754384617775,True
