station no.,station name,latitude,longitude,altitude,meanSpeed-100m,meanDuration,highWindFrac,scaleFactor,meanSpeed-10m,startTime,meanRes,Observations,closestZone,distanceToZone,distanceToCentroid,inZone
018012,CEDUNA AMO                              ,-32.1297,133.6976,15.3,7.64024,8.677685950413224,0.018454012412903564,1.4281852505044466,5.349614267277117,1992-04-14 09:30:00,29.97859156666667,460343,19,40.772089426910625,136.64317443516234,False
018083,WUDINNA AERO                            ,-33.043,135.4519,86.4,7.041612,8.464705882352941,0.019616784420575017,1.5450176503084183,4.557625698890402,1999-07-13 17:30:00,29.999927933333332,303511,19,33.43271118544003,81.63869449769743,False
018191,COULTA (COLES POINT)                    ,-34.3749,135.3741,28.0,7.9129443,8.447154471544716,0.01941124924485227,1.52133001379407,5.201333205232566,1992-04-06 10:30:00,29.9999319,349439,19,29.22198182604306,123.37705835709525,False
018195,MINNIPA PIRSA                           ,-32.8427,135.1515,165.0,7.5427666,7.919354838709677,0.01148521656348489,1.4952031586181076,5.044643283134899,1996-07-19 04:30:00,29.96374408333333,328996,19,17.450262727413516,52.42869425809194,False
018200,THEVENARD WIND                          ,-32.1803,133.6343,8.5,8.405201,7.7407407407407405,0.01839029921252444,1.3408946222184832,6.268353097237214,2002-07-12 12:00:00,29.999893633333333,269258,19,43.55664469396604,140.4765406704714,False
