,station no.,station name,latitude,longitude,meanSpeed-100m,meanDuration,highWindFrac,scaleFactor,meanSpeed-10m,startTime,meanRes,Observations,closestZone,distanceToZone,distanceToCentroid,inZone
529,018012,CEDUNA AMO                              ,-32.1297,133.6976,7.64024,21.458333333333332,0.018454012412903564,1.4281852505044466,5.349614267277117,1992-04-14 09:30:00,29.97859156666667,460343,19,40.772089426910625,136.64317443516234,False
530,018083,WUDINNA AERO                            ,-33.043,135.4519,7.041612,21.26086956521739,0.019616784420575017,1.5450176503084183,4.557625698890402,1999-07-13 17:30:00,29.999927933333332,303511,19,33.43271118544003,81.63869449769743,False
535,018191,COULTA (COLES POINT)                    ,-34.3749,135.3741,7.9129443,24.0,0.01941124924485227,1.52133001379407,5.201333205232566,1992-04-06 10:30:00,29.9999319,349439,19,29.22198182604306,123.37705835709525,False
537,018195,MINNIPA PIRSA                           ,-32.8427,135.1515,7.5427666,12.777777777777779,0.01148521656348489,1.4952031586181076,5.044643283134899,1996-07-19 04:30:00,29.96374408333333,328996,19,17.450262727413516,52.42869425809194,False
538,018200,THEVENARD WIND                          ,-32.1803,133.6343,8.405201,16.333333333333332,0.01839029921252444,1.3408946222184832,6.268353097237214,2002-07-12 12:00:00,29.999893633333333,269258,19,43.55664469396604,140.4765406704714,False
540,018207,CEDUNA (THEVENARD NTC AWS)              ,-32.149,133.6416,8.236557,8.782608695652174,0.044829847683738766,1.7267910444609875,4.769863170912467,2021-06-04 14:00:00,29.99907555,32425,19,44.53450938013751,141.04681009420113,False
