,station no.,station name,latitude,longitude,meanSpeed-100m,meanDuration,highWindFrac,scaleFactor,meanSpeed-10m,startTime,meanRes,Observations,closestZone,distanceToZone,distanceToCentroid,inZone
532,018115,NEPTUNE ISLAND                          ,-35.3365,136.1174,8.759283,16.928571428571427,0.01278397539614995,1.077553118642657,8.128864289149435,1995-08-15 13:00:00,29.999938116666666,362358,13,29.516244247020122,124.61894140520258,False
533,018116,CLEVE AERODROME                         ,-33.7081,136.5026,7.49255,18.375,0.01505443450896815,1.3874085132151588,5.400392043780326,1996-07-16 17:30:00,29.971289416666664,323614,13,0.0,20.607509210781885,True
536,018192,NORTH SHIELDS (PORT LINCOLN AWS)        ,-34.5993,135.8784,6.7399406,23.8,0.010488062324511938,1.3068510119918522,5.157390231528985,1992-04-06 10:30:00,29.999944816666666,463102,13,0.0,80.79364418587852,True
541,018217,CUMMINS AERO                            ,-34.2524,135.7135,6.980287,25.333333333333332,0.02323104317257285,1.5766915929439487,4.4271733966750935,2007-05-25 08:30:00,29.999892233333334,235504,13,5.6885947437206585,77.39337746580242,False
543,018230,COFFIN BAY (POINT AVOID)                ,-34.675,135.3362,8.706226,15.464285714285714,0.028790952054042918,1.5834438882047457,5.498285359986942,2017-06-13 08:30:00,29.999706333333332,100264,13,27.89589910588641,130.47859142418767,False
