station no.,station name,latitude,longitude,altitude,meanSpeed-100m,meanDuration,highWindFrac,scaleFactor,meanSpeed-10m,startTime,meanRes,Observations,closestZone,distanceToZone,distanceToCentroid,inZone
091219,SCOTTSDALE (WEST MINSTONE ROAD)         ,-41.1708,147.4883,197.5,5.9942064,7.619246861924686,0.010205526866187697,1.690954182097766,3.5448662607117667,2003-01-22 13:30:00,29.992384183333336,316994,22,19.62934675654306,86.89548504957223,False
092045,LARAPUNA (EDDYSTONE POINT)              ,-40.9928,148.3467,19.7,8.358269,10.646310432569974,0.020131778420432345,1.2261202999209784,6.816842310115612,1994-06-27 17:30:00,29.99994055,340619,22,0.0,56.19429254037292,True
092120,ST HELENS AERODROME                     ,-41.3381,148.2792,48.0,6.887335,8.618257261410788,0.03250902670636857,1.9818905042788895,3.4751338728041152,2001-01-10 12:30:00,29.99976925,333742,22,2.83084617371552,81.79223111897683,False
092123,SWAN ISLAND                             ,-40.7292,148.125,15.0,9.807541,13.61311475409836,0.06831283880188399,1.4777695785207996,6.636718630635044,2003-12-09 10:30:00,28.860425449999997,318158,22,0.0,21.927678449386004,True
099005,FLINDERS ISLAND AIRPORT                 ,-40.0911,148.0024,9.0,8.648583,12.3734375,0.03980839338855913,1.317796701499147,6.562911716451893,1993-06-07 16:00:00,29.968839666666668,355979,22,0.0,40.55754384617775,True
