,station no.,station name,latitude,longitude,altitude,meanSpeed-100m,scaleFactor,meanSpeed-10m,startTime,meanRes,Observations,1-in-5-year duration,1-in-10-year duration,1-in-20-year duration,1-in-25-year duration,1-in-50-year duration,1-in-100-year duration
0,046012,WILCANNIA AERODROME AWS                 ,-31.5194,143.385,94.3,6.71817,1.5512884315260933,4.330703452359641,2000-01-19 14:00:00,36.2477782,337003,5.565062165260315,6.4226421266794205,7.280222088098526,7.556301176548004,8.41388115286827,9.271461144089699
1,046126,TIBOOBURRA AIRPORT                      ,-29.4448,142.0567,176.4,6.8355446,1.4416467639483683,4.741483667927445,1997-09-21 16:00:00,43.21282156666667,311007,5.733816087245941,6.671173393726349,7.608530640602112,7.910292327404022,8.847649574279785,9.785006880760193
2,046128,FOWLERS GAP AWS                         ,-31.0863,141.7008,181.0,7.20423,1.6668822861902048,4.32197875721711,2004-10-26 18:00:00,39.30806173333334,246944,20.500234611060687,28.69124308556118,39.90747611061841,44.33573257134119,61.330020132737914,84.60088964494392
3,046129,WHITE CLIFFS AWS                        ,-30.8522,143.0743,158.0,7.044349,1.4688800282994157,4.795728077076886,2005-07-05 18:00:00,37.82954051666666,247003,5.821995407342911,6.759669557213783,7.697343736886978,7.999207392334938,8.936881586909294,9.87455578148365
4,047048,BROKEN HILL AIRPORT AWS                 ,-32.0012,141.4694,281.3,7.2803807,1.510156694768192,4.820943913358692,1989-01-01 13:30:00,43.69179196666666,412572,10.341970801353455,11.791226983070374,13.240483224391937,13.707039475440979,15.156295716762543,16.605551958084106
5,048027,COBAR MO                                ,-31.484,145.8294,260.0,7.035547,2.0090982234223187,3.5018431142944046,1989-01-18 16:30:00,46.356241,388277,7.166390061378479,7.9804909229278564,8.794591784477234,9.056673735380173,9.87077459692955,10.68487548828125
6,048237,COBAR AIRPORT AWS                       ,-31.5388,145.7964,218.0,6.9146757,1.9467355847360601,3.5519336918695847,1993-09-19 07:30:00,42.73096078333333,363763,7.406668797135353,8.289412185549736,9.17215558886528,9.456335499882698,10.339078918099403,11.22182235121727
7,048244,COBAR COMPARISON                        ,-31.4861,145.8281,260.0,7.022478,1.206666550299402,5.819733796296297,2000-01-15 00:30:00,2291.5625,192,0,0,0,0,0,0
8,048245,BOURKE AIRPORT AWS                      ,-30.0362,145.9521,107.3,6.5867133,1.7820478896100285,3.6961483204010803,1999-02-04 14:00:00,38.014048083333336,334564,15.917137739783408,27.145278017613094,46.21815349006396,54.84250643389489,93.26653153347662,158.53616904608123
9,049000,IVANHOE AERODROME AWS                   ,-32.8833,144.3092,100.0,6.7661037,1.672739947071493,4.04492267692442,2000-07-24 13:00:00,41.10345373333334,290642,14.61095497821594,23.649969008310727,38.18026109780738,44.52839148714168,71.74250317147583,115.48941963968183
10,050017,WEST WYALONG AIRPORT AWS                ,-33.9382,147.1962,257.0,6.160394,1.696716906617786,3.630773152382854,1999-04-30 18:00:00,41.4427525,303926,12.830027786276501,16.733094820284016,21.5922935931164,23.39714566208844,29.88883254323985,37.970783647758026
11,050137,CONDOBOLIN AIRPORT AWS                  ,-33.0682,147.2133,192.6,6.2185802,1.6705240033520772,3.7225327103911483,1993-06-15 00:00:00,40.80438598333333,384341,14.263312549801032,19.549052936842838,26.578479171103194,29.302422295460186,39.54933763588331,53.17655544075542
12,051049,TRANGIE RESEARCH STATION AWS            ,-31.9861,147.9489,215.0,6.804929,1.9720005302805932,3.4507743152755577,1997-10-10 10:00:00,41.305167266666665,324717,35.94777098368603,54.23156186321056,81.5469589103523,92.94393605358542,139.38200409410632,208.75898805699546
13,051161,COONAMBLE AIRPORT AWS                   ,-30.9776,148.3798,181.3,6.300622,1.554780878475935,4.052417979673964,1997-09-17 10:00:00,41.897991033333334,320913,4.05503237247467,4.744307219982147,5.433582097291946,5.655479043722153,6.344753921031952,7.034028798341751
14,052088,WALGETT AIRPORT AWS                     ,-30.0372,148.1223,133.0,6.490273,1.7253827255897296,3.7616425054861162,1997-05-23 10:00:00,37.90757895,359139,4.905544430017471,5.613400340080261,6.321256250143051,6.549134969711304,7.256990894675255,7.964846819639206
15,053000,MOREE AUTOSONDE                         ,-29.4917,149.8461,213.0,5.68134,1.870091479738585,3.0380012310330997,2000-06-30 11:00:00,43.10469313333333,16066,4.9538596868515015,5.627752810716629,6.301645934581757,6.518591076135635,7.192484214901924,7.866377368569374
16,053115,MOREE AERO                              ,-29.4898,149.8471,213.0,5.6745696,1.355206585984666,4.187235854272341,1989-01-06 12:30:00,38.92014833333334,462839,2.081483855843544,2.498308852314949,2.915133848786354,3.0493215322494507,3.4661465287208557,3.8829715251922607
17,054038,NARRABRI AIRPORT AWS                    ,-30.3154,149.8302,229.0,5.81251,1.4672360909929882,3.9615369668602978,2001-07-13 15:00:00,36.697000116666665,311647,12.092133324544902,20.918473057550926,36.10891835018018,43.03375755848022,74.17011126869535,127.75688584958877
18,055024,GUNNEDAH RESOURCE CENTRE                ,-31.0261,150.2687,307.3,4.7722683,,,,,,,,,,,
19,055202,GUNNEDAH AIRPORT AWS                    ,-30.9537,150.2494,262.6,4.8859096,1.375874598691903,3.551129995413646,2001-09-14 09:00:00,39.56758396666667,286599,2.4965241104364395,3.092953100800514,3.6893820762634277,3.881389334797859,4.477818325161934,5.074247315526009
20,055325,TAMWORTH AIRPORT AWS                    ,-31.0742,150.8362,394.9,4.44476,1.2600101979512623,3.5275586284624403,1989-01-01 18:00:00,52.07322005,346035,1.2208914458751678,1.6286250799894333,2.0363587141036987,2.1676196306943893,2.575353264808655,2.9830869138240814
21,056018,INVERELL RESEARCH CENTRE                ,-29.7752,151.082,664.0,4.4586205,1.6372325773438365,2.7232664497073054,2002-12-18 10:30:00,36.9749743,288943,2.2171651124954224,2.910312294960022,3.6034594774246216,3.826603025197983,4.519750207662582,5.212897419929504
22,056238,ARMIDALE AIRPORT AWS                    ,-30.5273,151.6158,1079.0,6.852955,1.5273942636037203,4.486696740848792,1993-06-19 11:00:00,36.2931182,431895,33.591383696627005,58.25986627636366,100.87795444800358,120.35235920841832,208.15100336869352,359.8348512128776
23,056243,GLEN INNES AIRPORT AWS                  ,-29.678,151.694,1044.3,6.608227,1.5310068698609485,4.316262001308479,1996-10-16 10:00:00,41.633888266666666,334570,26.509163988732958,44.17276547925865,73.37872000485126,86.36508064529608,143.14177703088964,237.01943916229362
24,058009,BYRON BAY (CAPE BYRON LIGHTHOUSE)       ,-28.6388,153.6361,95.0,7.9893312,1.3178071894896062,6.062594975306421,1994-06-28 03:00:00,198.93374088333334,22228,80973680733.51501,5986355305598.567,442569110363416.6,1768505085335592.8,1.3074494952851046e+17,9.66592743723418e+18
25,058012,YAMBA PILOT STATION                     ,-29.4325,153.3632,27.4,7.1609964,1.8327213583291786,3.9073023318728377,2007-10-10 14:00:00,34.705824750000005,234928,330.7871824943588,739.1809534850097,1651.8599721037344,2139.932204524753,4782.260991754894,10687.341371765038
26,058077,GRAFTON RESEARCH STN                    ,-29.6224,152.9605,25.0,4.9202986,1.8070371438283757,2.7228541445091006,2002-08-30 09:00:00,32.09084881666667,337858,4.347457975149155,4.959662020206451,5.571866050362587,5.76895172894001,6.381155773997307,6.993359819054604
27,058161,GRAFTON AIRPORT AWS                     ,-29.7583,153.0297,25.1,4.696321,2.0148275620390645,2.330879872338447,2006-04-07 12:00:00,31.735029750000002,281926,4.2791829109191895,4.849887952208519,5.4205929934978485,5.604318976402283,6.175024032592773,6.745729073882103
28,058198,BALLINA AIRPORT AWS                     ,-28.8353,153.5585,1.3,5.639257,1.461475424566156,3.858605392469838,1995-07-23 13:30:00,41.361946966666665,352405,4.562015056610107,5.445777714252472,6.329540371894836,6.614048421382904,7.497811108827591,8.381573766469955
29,058208,CASINO AIRPORT AWS                      ,-28.8824,153.0618,20.9,5.3796363,1.8603978564725703,2.8916590443128833,1995-07-20 10:00:00,39.381830550000004,370256,5.965987280011177,6.876374527812004,7.786761775612831,8.079841017723083,8.990228280425072,9.900615572929382
30,058212,EVANS HEAD RAAF BOMBING RANGE AWS       ,-29.183,153.3964,62.5,6.419108,1.4229333509329982,4.511179606382846,1998-03-01 11:00:00,37.949844399999996,348037,15.78806169411834,24.061684478794092,36.41631666223764,41.56956698650744,62.560057357593614,93.90422116999055
31,058214,LISMORE AIRPORT AWS                     ,-28.8305,153.2601,9.2,4.5676584,1.4739286268691774,3.0989685260946196,2002-02-22 10:00:00,38.338484566666665,289898,3.0618354082107544,3.730661630630493,4.399487853050232,4.614801824092865,5.283628046512604,5.9524542689323425
32,058216,BYRON BAY (CAPE BYRON AWS)              ,-28.6399,153.6358,95.0,7.869695,1.2724012562879237,6.184916234344087,2002-11-26 10:00:00,36.07394988333333,297039,33.036185890146214,53.94582867890253,87.71966306780547,102.51937112620794,166.17699468610937,268.99855206151386
33,059007,KEMPSEY AIRPORT AWS                     ,-31.0711,152.7717,13.0,4.549746,1.6420627276375628,2.770750446954767,2001-02-16 10:00:00,35.7961292,325412,3.568894624710083,4.134652614593506,4.700410604476929,4.882543995976448,5.448302000761032,6.014060005545616
34,059040,COFFS HARBOUR MO                        ,-30.3107,153.1187,5.0,6.163791,1.4440269848445626,4.268473681134472,1989-01-10 17:30:00,44.61411978333333,313685,5.376214474439621,6.201689779758453,7.027165085077286,7.292908787727356,8.118384093046188,8.94385939836502
35,059151,COFFS HARBOUR AIRPORT                   ,-30.3189,153.1162,3.5,6.177133,1.4681515847860058,4.207421867983659,2015-02-06 13:30:00,30.222453366666667,142277,4.188978940248489,4.858709007501602,5.528439074754715,5.744043976068497,6.4137740433216095,7.083504110574722
36,060139,PORT MACQUARIE AIRPORT AWS (COMPARISON) ,-31.4335,152.8655,4.2,5.4161415,1.6168107386171522,3.3498920935187235,1995-07-20 10:00:00,40.73268243333334,325848,5.77456164435329,7.730159465682203,10.2008052915077,11.12719049725644,14.49251621837684,18.744171571408145
37,060141,TAREE AIRPORT AWS                       ,-31.8895,152.512,8.0,5.3712063,1.7234102870766117,3.1166149603762734,1997-06-19 10:00:00,42.0034159,323193,5.686208367347717,6.540601313114166,7.394994258880615,7.670047357678413,8.524440333247185,9.378833323717117
38,060168,PORT MAQUARIE (PORT MACQUARIE AIRPORT AW,-31.4343,152.8662,4.5,5.437029,1.8557883377205537,2.9297677835210147,2020-10-15 15:00:00,30.172373999999998,43336,5.254417195916176,5.95386578887701,6.653314404189587,6.878486566245556,7.577935203909874,8.277383849024773
39,061055,NEWCASTLE NOBBYS SIGNAL STATION AWS     ,-32.9184,151.7985,33.0,7.647431,1.3851883462600567,5.52085997359618,2001-10-16 16:00:00,32.938208333333336,343048,38.38405125889451,60.515114701117746,95.12882059199673,109.99357042625525,172.51474101447866,270.29989337930533
40,061078,WILLIAMTOWN RAAF                        ,-32.7939,151.8364,7.5,6.0903215,1.4000771770537346,4.349989872450277,1989-02-20 13:30:00,44.153802633333335,406482,10.563482105731964,11.95318865776062,13.342895239591599,13.790280818939209,15.17998743057251,16.56969404220581
41,061087,GOSFORD (NARARA RESEARCH STATION) AWS   ,-33.3949,151.3289,20.0,5.132375,3.2951370443737846,1.5575603364515413,1999-04-30 18:00:00,50.95956571666667,145347,36.106139800172194,49.83337840371173,68.55805828073152,75.93251204884393,104.15865769380248,142.66061403252536
42,061250,PATERSON (TOCAL AWS)                    ,-32.6296,151.5919,30.0,5.5844955,2.214703761646426,2.5215541875821987,2002-07-18 10:00:00,37.54126298333333,290454,687.6973270064627,1563.0290610857803,3552.5930968877606,4627.421182389912,10517.728849170751,23905.96080441384
43,061260,CESSNOCK AIRPORT AWS                    ,-32.7914,151.3369,66.5,5.59944,1.8544943823003486,3.019389085915262,1994-06-28 00:00:00,40.06596913333333,377840,57.75896866680597,107.72545614266862,200.8281328426991,245.40488755127637,457.36654965397895,852.3152261860382
44,061287,MERRIWA (ROSCOMMON)                     ,-32.1852,150.1737,375.0,6.1609936,1.7090515017914305,3.604919787140318,2007-08-02 16:00:00,30.210638833333334,273169,6.688186794519424,7.546404629945755,8.404622435569763,8.680906891822815,9.539124727249146,10.397342562675476
45,061363,SCONE AIRPORT AWS                       ,-32.0335,150.8264,221.4,4.981134,1.5054648073923536,3.308701680289437,1989-01-01 11:00:00,43.59807285,413401,15.474951368320577,28.95272911784897,54.17212885390955,66.27832612621367,124.01518227375276,232.0514536641947
46,061366,NORAH HEAD AWS                          ,-33.2814,151.5766,18.8,7.2648263,1.3889641363109666,5.230391561480557,1989-10-25 10:00:00,32.708786366666665,537909,76.94551135276971,137.86230944190285,246.68875564648545,297.459117032216,531.8047489434284,950.4577823341707
47,061375,MANGROVE MOUNTAIN AWS                   ,-33.2894,151.2107,305.0,5.8208604,2.436258432938745,2.389262283177956,1994-06-28 00:00:00,39.337928483333336,384833,64.96731602635026,102.83602310238915,162.51016410997002,188.25801176937722,297.11956037558105,468.66540662749185
48,061379,WILLIAMTOWN COMPARISON AWS              ,-32.8081,151.8419,4.9,6.257231,1.5789753737117485,3.9628428281278856,1995-07-20 10:00:00,68.19338583333334,31292,14.875685727098425,18.021094851161365,21.537216188156588,22.75509279346431,26.82915453947683,31.383377811674936
49,061392,MURRURUNDI GAP AWS                      ,-31.7416,150.7937,729.4,7.8514023,1.2842677111841594,6.113524629125384,2003-06-20 11:00:00,33.894088583333335,307389,33.96448526813238,50.436076472864315,74.53690424913692,84.46118928425525,124.32161379801887,182.64440813857345
50,061412,COORANBONG (LAKE MACQUARIE AWS)         ,-33.0887,151.4636,6.0,4.5537534,3.5012550080658933,1.3006060299853996,2008-07-31 09:00:00,30.03800965,257303,11.267021924257278,12.310723185539246,13.354424461722374,13.69042120873928,14.73412249982357,15.777823776006699
51,061425,GOSFORD AWS                             ,-33.4351,151.3614,7.0,5.557721,2.709004334794939,2.051573364655094,2013-06-04 14:30:00,30.02781866666667,172546,11.365504771471024,12.4740669131279,13.582629084587097,13.939506381750107,15.048068553209305,16.156630754470825
52,061428,MAITLAND AIRPORT AWS                    ,-32.7023,151.4881,27.5,5.980704,1.8683441039194029,3.201071910775271,2016-07-11 11:00:00,30.207546200000003,117516,12.943737268447876,14.434957683086395,15.92617803812027,16.4062437415123,17.897464156150818,19.388684570789337
53,061430,SINGLETON DEFENCE AWS                   ,-32.6976,151.1564,125.0,5.506022,1.711031357246499,3.217955038142369,2017-04-03 13:30:00,30.021046233333333,105482,6.48637917637825,7.302792251110077,8.119205325841904,8.382031619548798,9.198444724082947,10.014857798814774
54,062100,NULLO MOUNTAIN AWS                      ,-32.7244,150.229,1130.0,7.790032,2.1100605945458106,3.69185222930502,1989-01-03 10:00:00,40.01174375,450387,86.738061147271,136.26507698816548,213.81006229576408,247.13394060027983,387.39864327318236,607.0126079604814
55,062101,MUDGEE AIRPORT AWS                      ,-32.5628,149.6149,471.0,4.7964463,1.5440259155630025,3.1064545452566668,1989-01-01 11:00:00,44.13489081666667,408372,8.284160069799345,14.584053315315831,25.626618817791805,30.71800352293744,53.90649516460706,94.55169784942872
56,063291,BATHURST AIRPORT AWS                    ,-33.4119,149.654,744.5,4.5955534,1.3483903003444417,3.408177437169643,1989-01-01 11:00:00,42.8830494,420294,2.2008247793146607,3.649359649883925,5.992104816416524,7.019528171300318,11.442747513644578,18.596510909563452
57,063292,MOUNT BOYCE AWS                         ,-33.6185,150.2741,1080.0,7.1276574,1.7638215170714941,4.041030991229118,1989-09-25 00:00:00,40.2407047,438357,282.8431228211565,481.00429651835685,817.2336360564724,969.1625898168429,1645.514663481886,2793.112887599005
58,063303,ORANGE AIRPORT AWS                      ,-33.3768,149.1263,944.7,6.7261634,1.6167724230440303,4.1602412877841415,1996-03-14 14:00:00,38.950355566666666,365534,6.732299745082855,7.645139396190643,8.557978987693787,8.85184770822525,9.764687299728394,10.677526950836182
59,063308,MARRANGAROO (DEFENCE)                   ,-33.4346,150.135,955.0,5.7547545,3.4914237818838454,1.6482543806811636,2017-12-07 12:00:00,30.042342516666668,93523,14.813958585262299,16.144396364688873,17.474834144115448,17.90313947200775,19.233577251434326,20.5640150308609
60,064017,COONABARABRAN AIRPORT AWS               ,-31.333,149.2699,645.0,6.5363307,1.5259125841973034,4.283555144385319,2001-07-02 11:00:00,35.025353216666666,326980,4.089160352945328,4.746017128229141,5.402873903512955,5.6143345683813095,6.271191358566284,6.928048148751259
61,065068,PARKES AIRPORT AWS                      ,-33.1281,148.2428,323.3,6.213931,1.687215321301016,3.682950839308181,1997-09-25 10:00:00,38.0110405,353426,6.674339115619659,7.570973694324493,8.467608273029327,8.756260097026825,9.652894675731659,10.549529254436493
62,065070,DUBBO AIRPORT AWS                       ,-32.2206,148.5753,284.0,6.046174,1.4027621075831547,4.3101920252141035,1989-01-02 09:00:00,49.58289548333333,363465,2.231106236577034,2.6440449953079224,3.0569837391376495,3.189920336008072,3.6028590947389603,4.015797853469849
63,065091,COWRA AIRPORT COMPARISON                ,-33.8451,148.6534,300.0,4.434647,1.58924909047951,2.79040404040404,2004-07-06 09:00:00,67.5,176,0,0,0,0,0,0
64,065103,FORBES AIRPORT AWS                      ,-33.3627,147.9205,230.4,5.9218216,1.7383023621303735,3.4066694743374812,1996-01-10 11:00:00,43.784623466666666,327278,17.753664403336003,24.677359693593573,34.03950621835965,37.706160476110945,51.65691092124455,70.52096607132562
65,065111,COWRA AIRPORT AWS                       ,-33.8382,148.654,300.4,4.4077425,1.5576537504133052,2.8297318958951134,2004-07-14 16:00:00,35.674933216666666,276294,2.951249599456787,3.4729340821504593,3.9946185499429703,4.162563443183899,4.68424791097641,5.205932393670082
66,066022,FORT DENISON                            ,-33.8551,151.2254,5.0,6.0842576,1.4421618706011265,4.218845142643794,1990-08-13 00:00:00,31.726785316666668,541329,4.714499205350876,5.366032719612122,6.01756626367569,6.227313190698624,6.878846734762192,7.5303802490234375
67,066037,SYDNEY AIRPORT AMO                      ,-33.9465,151.1731,6.0,6.1535954,1.0969022781330893,5.6099759934983515,1970-01-02 04:30:00,60.940509633333335,459644,8.516157183954183,13.926114987250205,22.639303412324235,26.4505565768841,42.81096157624331,69.16075886728346
68,066043,KURNELL AWS                             ,-34.0039,151.2111,4.0,6.999187,1.2353385316513221,5.6658048084108525,2000-03-17 13:00:00,30.605981866666664,396398,5.420783370733261,6.215619832277298,7.010456293821335,7.2663364708423615,8.061172932386398,8.856009423732758
69,066051,LITTLE BAY (THE COAST GOLF CLUB)        ,-33.9829,151.2502,22.0,7.291409,1.5517248523726948,4.698905868850685,1999-04-30 18:00:00,30.851812199999998,408259,104.38255689205522,202.77276791241272,393.7124826207387,487.4415719852008,946.1513855596929,1836.3407654737262
70,066059,TERREY HILLS AWS                        ,-33.6908,151.2253,199.0,6.041613,2.075289471907815,2.911214644386534,2004-09-23 10:00:00,33.448395266666665,291640,8.474332630634308,9.461162686347961,10.447992742061615,10.765681087970734,11.75251117348671,12.739341229200363
71,066062,SYDNEY (OBSERVATORY HILL)               ,-33.8607,151.205,39.0,5.9411345,63987.99843502045,9.284763702763764e-05,1993-09-06 00:00:00,79.02380365,32311,1.3171040054269063,1.3171040054269063,1.3171040054269063,1.3171040054269063,1.3171040054269063,1.3171040054269063
72,066137,BANKSTOWN AIRPORT AWS                   ,-33.9176,150.9837,7.2,4.4226813,1.3763691998490313,3.213295772761864,1989-05-31 11:30:00,40.95089845,434794,2.6312277615070343,3.089687317609787,3.548146888613701,3.695737898349762,4.154197469353676,4.61265704035759
73,066161,HOLSWORTHY AERODROME AWS                ,-33.9925,150.9489,68.2,4.692504,1.4903711626017089,3.148547185351185,2012-08-31 10:00:00,30.0612502,185632,2.7001583874225616,3.0947718918323517,3.4893853664398193,3.616422563791275,4.011036038398743,4.405649542808533
74,066193,MARSFIELD (MACQUARIE UNIVERSITY NO:2)   ,-33.7654,151.1176,51.0,4.9263644,,,,,,,,,,,
75,066194,CANTERBURY RACECOURSE AWS               ,-33.9057,151.1134,3.0,4.9800696,1.5717191958791696,3.16854922326815,1996-01-10 11:00:00,32.50860766666667,440757,3.6894627064466476,4.235756695270538,4.782050684094429,4.9579180628061295,5.50421205163002,6.050506055355072
76,066195,SYDNEY OLYMPIC PARK (SYDNEY OLYMPIC PK (,-33.8521,151.0646,28.0,4.6605263,1.5161003404948157,3.0740223131364055,1996-01-10 11:00:00,32.368061983333334,224143,5.381019592346714,6.982983363247822,8.927269582581829,9.637669611440627,12.149233763527947,15.197492193947905
77,066196,SYDNEY HARBOUR (WEDDING CAKE WEST)      ,-33.8405,151.2643,6.0,6.9473424,1.26896787997034,5.474797672534353,1996-02-28 19:30:00,35.73832111666666,398927,5.4448670744895935,6.2730584144592285,7.101249784231186,7.367867887020111,8.196059256792068,9.024250656366348
78,066197,MANLY (NORTH HEAD)                      ,-33.8152,151.2986,90.0,8.081692,1.819504822460519,4.441698445742219,1997-08-28 10:00:00,31.029225166666667,434248,13.188417077064514,14.583394706249237,15.97837233543396,16.427454829216003,17.822432458400726,19.21741008758545
79,066198,SYDNEY HARBOUR (SHARK ISLAND)           ,-33.8614,151.2569,3.0,6.568132,1.3717738370220784,4.788057438049698,1997-08-28 17:00:00,32.21675638333333,58138,3.083976775407791,3.53947351872921,3.9949702471494675,4.141607448458672,4.59710419178009,5.052600920200348
80,066199,MIDDLE HEAD                             ,-33.8283,151.2636,35.0,6.8600187,2.1420202641651667,3.202592825533892,1997-09-08 14:30:00,31.54770605,58829,12.895851790904999,14.14860412478447,15.401356488466263,15.804652661085129,17.057405024766922,18.310157418251038
81,066200,SYDNEY HARBOUR (CLARKE ISLAND)          ,-33.8642,151.2394,2.0,6.2827954,1.5357011616728755,4.09115756765186,1997-08-28 10:00:00,32.260680883333336,58071,9.493047375764153,12.80109944462373,17.102126742171922,18.744848349952527,24.830005795902906,32.74173987387767
82,066201,SOUTH HEAD                              ,-33.8361,151.28,25.0,7.2493324,1.5623815563926737,4.639924478317727,1997-08-28 17:00:00,31.556477299999997,59306,28.366780760922538,44.36976368204239,69.25451717390914,79.90243518986816,124.50807682201687,193.87017024134323
83,066202,SYDNEY HARBOUR (CANNAE POINT)           ,-33.8153,151.2842,20.0,7.2391496,2.030902139553138,3.564499455428181,1997-08-28 14:00:00,38.87421343333333,48152,20.683250606060028,22.6276575922966,24.572064638137817,25.198023855686188,27.142430901527405,29.086837947368622
84,066203,SYDNEY HARBOUR (BOMBORA)                ,-33.8167,151.2722,2.0,6.909982,1.5125932958396002,4.568301488207846,1998-10-30 16:00:00,57.51984576666667,17620,17.084940066724023,24.508746840814315,34.72626904662674,38.773326711997896,54.35887345371914,75.80954893183745
85,066208,WATTAMOLLA AWS                          ,-34.1407,151.1185,44.0,7.072532,1.1598088110056721,6.098015560718866,2007-06-26 09:00:00,31.128312349999998,266840,66.35009772829014,110.13165255623002,182.37690250919903,214.4602935677393,354.5327059463368,585.6703730203758
86,066212,SYDNEY OLYMPIC PARK AWS (ARCHERY CENTRE),-33.8338,151.0718,4.0,4.684545,2.0400046508790144,2.2963403726124345,2011-08-31 15:00:00,30.032161133333332,203351,6.311746746301651,7.05218343436718,7.7926201075315475,8.03098750114441,8.7714242041111,9.511860892176628
87,067033,RICHMOND RAAF                           ,-33.6022,150.7794,19.0,4.3324103,0.5412614160419384,8.004284449503572,1985-01-02 17:00:00,2922.635173583333,1757,0,0,0,0,0,0
88,067105,RICHMOND RAAF                           ,-33.6004,150.7761,19.0,4.3344035,1.5697926590945126,2.761131216757142,1989-01-18 16:30:00,41.69553475,431609,5.139495015144348,5.861456632614136,6.583418279886246,6.815838009119034,7.537799656391144,8.259761303663254
89,067108,BADGERYS CREEK AWS                      ,-33.8969,150.7281,81.2,4.821594,1.6765246212397327,2.875945976096579,1996-01-10 11:00:00,32.27391441666666,442224,4.961206555366516,5.624465778470039,6.287724986672401,6.501246765255928,7.1645060032606125,7.827765241265297
90,067113,PENRITH LAKES AWS                       ,-33.7195,150.6783,24.7,3.816948,1.514507114406367,2.5202575152694653,1996-01-10 11:00:00,31.79847446666667,450627,3.804932400584221,4.39925742149353,4.9935824275016785,5.184912353754044,5.779237374663353,6.3735624104738235
91,067117,HOLSWORTHY CONTROL RANGE                ,-33.9795,150.9254,40.0,4.415331,1.3430872483737524,3.287449041145336,1998-04-30 17:00:00,31.90560775,269662,1.566622942686081,1.8540254458785057,2.1414279490709305,2.2339508943259716,2.521353404968977,2.808755923062563
92,067119,HORSLEY PARK EQUESTRIAN CENTRE AWS      ,-33.851,150.8567,100.0,4.9068336,1.8095311649823538,2.711660204387522,1997-09-04 13:30:00,31.34193691666667,429587,5.141425669193268,5.832581087946892,6.523736476898193,6.746238812804222,7.437394231557846,8.12854965031147
93,068072,NOWRA RAN AIR STATION AWS               ,-34.9469,150.5353,109.0,5.3677278,1.3663950540379755,3.9283864067258705,2000-11-29 10:00:00,30.982478216666667,379642,7.536790430545807,8.488936230540276,9.441082045435905,9.74760453402996,10.699750363826752,11.651896208524704
94,068076,NOWRA RAN AIR STATION                   ,-34.9449,150.545,109.0,5.51312,0.5498059131952945,10.027393380270292,1989-06-10 16:00:00,2193.0752453500004,2746,0,0,0,0,0,0
95,068151,JERVIS BAY (POINT PERPENDICULAR AWS)    ,-35.0936,150.8049,85.0,7.490162,1.6763151175962985,4.468230237338815,2004-10-08 10:00:00,40.42147885,240795,116.65351434060179,203.83084811393104,355.8071807979931,425.64282985256335,742.4922292037875,1294.8561022692131
96,068192,CAMDEN AIRPORT AWS                      ,-34.039,150.689,73.9,4.4065576,1.7381329220235417,2.5352247254122013,1994-09-19 15:00:00,38.34953711666667,391678,5.980200752615929,6.75332647562027,7.526452228426933,7.775343120098114,8.548468872904778,9.321594640612602
97,068228,BELLAMBI AWS                            ,-34.3691,150.9291,10.0,6.8187523,1.3736961642016496,4.963799467825704,1989-01-01 11:00:00,32.986001316666666,546354,54.91486379802206,95.58134839832762,166.15739985977103,198.49805715822902,344.76774705532165,598.6165186637905
98,068239,MOSS VALE AWS                           ,-34.5253,150.4217,678.4,7.361471,1.5477370466333291,4.756280268770649,2001-02-26 16:00:00,34.980666066666664,332576,169.64316361645078,305.07542504467085,548.2877745966421,662.1189449861497,1189.474685762038,2136.5121745495267
99,068241,ALBION PARK (SHELLHARBOUR AIRPORT)      ,-34.5639,150.7924,8.0,4.9378114,1.315078554489503,3.754765339155807,1999-06-04 15:00:00,37.18340791666667,337390,7.32929565012455,8.323923274874687,9.318550914525986,9.63874951004982,10.63337716460228,11.6280048340559
100,068242,KIAMA (BOMBO HEADLAND)                  ,-34.6532,150.8609,15.5,6.930965,1.5128483940997774,4.581400868572231,2001-12-17 16:00:00,38.39180955,291999,52.553262664632726,81.50562488431768,126.07837470328032,145.03097569180963,223.87694282076924,345.2619110111604
101,068253,PORT KEMBLA NTC AWS                     ,-34.4734,150.9118,0.0,6.519816,1.677188800384536,3.8873476380766565,2012-07-11 14:30:00,30.0291607,188267,9.90658974647522,11.036218792200089,12.16584786772728,12.52950718998909,13.659136265516281,14.788765341043472
102,068257,CAMPBELLTOWN (MOUNT ANNAN)              ,-34.0615,150.7735,112.0,4.621676,2.2507637216598515,2.053381225090059,2006-11-14 12:00:00,31.000984416666665,278336,5.841542959213257,6.532196834683418,7.222850739955902,7.4451916217803955,8.13584552705288,8.826499432325363
103,068262,HIGH RANGE AWS (WANGANDERRY)            ,-34.3335,150.267,813.6,7.0253158,1.3149055028630108,5.342829386803526,2014-07-01 12:30:00,30.19680686666667,152891,7.851281434297562,8.75709879398346,9.66291618347168,9.954524248838425,10.860341638326645,11.766159027814865
104,068263,HOLSWORTHY DEFENCE AWS                  ,-34.081,150.9009,165.0,5.021655,2.212338925053957,2.269839863067167,2017-12-13 11:00:00,30.090882716666666,93087,9.751238346099854,10.772044062614441,11.792849719524384,12.121475756168365,13.142281472682953,14.16308718919754
105,068264,JERVIS BAY NSW (JERVIS BAY AIRFIELD AWS),-35.144,150.6974,57.2,6.817914,1.4376342985483386,4.742453637881814,2018-10-12 14:30:00,30.01599471666667,78776,10.176798522472382,11.498110383749008,12.819422274827957,13.244789689779282,14.566101610660553,15.887413531541824
106,069017,MONTAGUE ISLAND LIGHTHOUSE              ,-36.2519,150.2275,52.0,7.69899,1.1639239715512364,6.614684512342437,1998-04-15 10:00:00,40.860694083333335,321659,39.314979979789626,63.37114885243496,101.777066000924,118.4842566613091,189.76570057981846,303.5672474450481
107,069128,NERRIGA AWS                             ,-35.1103,150.0826,622.0,5.4236255,1.5703449110642864,3.453779759461858,2013-06-25 13:00:00,30.2003377,170562,11.616487801074982,12.903505682945251,14.190523594617844,14.604850798845291,15.891868710517883,17.178886651992798
108,069132,BRAIDWOOD RACECOURSE AWS                ,-35.4253,149.7835,665.2,5.866378,1.8626190335904476,3.149531774727515,1989-01-01 11:00:00,42.95744573333333,419563,29.642333180584163,37.54776971862802,47.225733090864416,50.781639631745186,63.426850850241706,78.90732310725579
109,069137,GREEN CAPE AWS                          ,-37.2622,150.0504,19.4,8.582402,1.2383215832068697,6.930673215824371,2000-07-28 14:30:00,42.78965926666667,279052,65.66879254092353,113.92585558844597,197.34009849764266,235.46877671099284,407.43184685846427,704.676817829168
110,069138,ULLADULLA AWS                           ,-35.3635,150.4828,35.7,7.3889804,2.024134696030028,3.6504390755879528,1992-09-22 00:00:00,40.43750706666666,397312,84.43366591068316,125.9361415999392,187.39648844430113,212.89795036509003,316.1768284157514,469.1208531101732
111,069139,BEGA AWS                                ,-36.6722,149.8191,41.0,4.388587,1.6107394690996377,2.7245790409785813,1992-04-03 00:00:00,41.331980599999994,394694,29.74193746455239,50.57756723142301,85.90435049661848,101.85984802619912,172.85339111847392,293.2228514184883
112,069147,MERIMBULA AIRPORT AWS                   ,-36.9077,149.8989,1.5,5.189962,1.912923271966622,2.7131051131560286,1998-04-28 10:00:00,37.75343245,347637,7.128817155957222,7.982048392295837,8.835279643535614,9.109958752989769,9.963190019130707,10.816421300172806
113,069148,MORUYA AIRPORT AWS                      ,-35.9004,150.1437,4.0,5.545583,1.7009356208275417,3.2603131496553788,1999-10-01 11:00:00,40.12513375,308390,5.500751838088036,6.25090129673481,7.001050770282745,7.242544963955879,7.992694437503815,8.742843925952911
114,070014,CANBERRA AIRPORT COMPARISON             ,-35.3049,149.2014,578.4,4.76841,1.280914765514499,3.72266003501471,1985-01-02 16:00:00,61.41043788333333,215465,6.801496105283487,12.333815839885602,22.429518758647113,27.20161796210739,49.561159820906674,90.36416883612733
115,070217,COOMA AIRPORT AWS                       ,-36.2939,148.9725,930.0,5.915596,1.39507321618695,4.240348061780901,1992-04-20 14:00:00,43.240486366666666,376686,6.672918260097504,7.590530216693878,8.508142173290253,8.803547263145447,9.721159219741821,10.638771176338196
116,070328,BOMBALA AWS                             ,-37.0016,149.2336,760.5,6.2685394,1.6211352200856533,3.866759139548974,1989-02-20 21:00:00,42.81933376666667,419222,22.73386368770562,28.823832492921355,36.26259531422685,38.99181759816478,48.6825652660756,60.51960019487623
117,070330,GOULBURN AIRPORT AWS                    ,-34.8085,149.7311,640.0,6.5079293,1.5400127848848397,4.225893050355692,1989-01-03 10:00:00,42.593235033333336,423088,31.37208072873908,41.36667865366915,54.18258897794379,59.03413050440816,76.83727506718887,99.66595771359874
118,070339,TUGGERANONG (ISABELLA PLAINS) AWS       ,-35.4184,149.0937,586.7,4.302654,1.6003172704363555,2.688625480088125,1996-08-09 13:00:00,32.37487131666667,433167,2.420065313577652,2.8025642186403275,3.185063138604164,3.3082002848386765,3.690699189901352,4.073198109865189
119,070349,MOUNT GININI AWS                        ,-35.5293,148.7721,1760.0,9.463778,2.085462581749949,4.537975231458256,2004-06-28 11:30:00,30.977475666666667,318944,4042.0290638079873,9122.700345147448,20589.248323349413,26757.57875106607,60389.33932187521,136292.7337401087
120,070351,CANBERRA AIRPORT                        ,-35.3088,149.2004,577.1,4.7843604,1.3231189952323381,3.6159713722066478,2010-03-01 10:30:00,30.255991783333332,227937,1.9298225343227386,2.2428567484021187,2.5558909699320793,2.6566654816269875,2.9696997106075287,3.2827339321374893
121,071032,THREDBO AWS                             ,-36.4917,148.2859,1957.0,10.605777,1.450117291376383,7.313737205862635,1998-04-27 10:00:00,41.79074586666666,314087,374.0649740408031,595.1212982146393,945.6785524327593,1097.536615115415,1742.4227063406092,2765.100968398035
122,071075,PERISHER VALLEY AWS                     ,-36.4069,148.4055,1738.0,7.636665,2.3242084582255584,3.2857056519067207,2010-05-25 15:00:00,30.262560633333333,223834,24.772112727165222,26.95637798309326,29.1406432390213,29.843819618225098,32.02808499336243,34.212350249290466
123,072150,WAGGA WAGGA AMO                         ,-35.1583,147.4575,212.0,5.133038,1.4895754139704402,3.445973930446258,1989-01-17 17:00:00,40.22466461666667,447427,3.2413026243448257,3.747833251953125,4.2543638944625854,4.417430356144905,4.923960983753204,5.430491641163826
124,072160,ALBURY AIRPORT AWS                      ,-36.069,146.9509,163.5,4.232577,1.6493055150643239,2.5662782355465192,1993-09-02 11:00:00,41.86684125,371852,3.5034832507371902,4.06241811811924,4.621353000402451,4.801289841532707,5.360224723815918,5.91915962100029
125,072161,CABRAMURRA SMHEA AWS                    ,-35.9371,148.3779,1482.4,6.377395,1.2638274782487489,5.046096293049931,1996-12-12 11:00:00,42.43839873333333,326291,135.21859284731988,286.3830076863554,606.5260642850529,772.2635716966445,1635.5466116791708,3463.8477460703707
126,072162,KHANCOBAN AWS                           ,-36.2304,148.1405,339.3,2.0612864,1.2385141716592833,1.6643220534737937,1996-12-21 11:00:00,47.22572121666667,292941,0.5133481767156575,1.031102655534938,16.392207303722223,47.841718544710105,1405.2025387170088,41676.339645178676
127,073138,YOUNG AIRPORT                           ,-34.2493,148.2475,379.6,5.8227196,1.9663237427077487,2.961221210682411,1989-01-01 11:00:00,44.64812663333333,403675,31.854040984532087,48.85377703473017,74.71061694305718,85.62174620491747,130.6352201122198,199.10135306283846
128,073151,TEMORA AIRPORT                          ,-34.4277,147.5117,280.5,6.0901575,1.7160906385070054,3.5488553880513676,2005-01-31 19:00:00,37.73636628333334,253526,7.280462771654129,8.242351427674294,9.204240083694458,9.513899073004723,10.475787743926048,11.437676429748535
129,074023,FINLEY AIRPORT AWS                      ,-35.6613,145.561,108.0,6.8267584,2.3500301500074285,2.9049662978506934,2001-03-15 16:00:00,63.860167866666664,20968,12.79443246126175,14.449709445238113,16.104986429214478,16.637866586446762,18.29314360022545,19.948420643806458
130,074037,YANCO AGRICULTURAL INSTITUTE            ,-34.6222,146.4326,164.0,6.437553,1.7747778326827817,3.6272443853963714,1999-08-05 17:00:00,41.063755433333334,303331,19.77274289535408,28.350970860685056,40.41653591624765,45.262084120490066,64.2025833403598,90.84303011394772
131,074148,NARRANDERA AIRPORT AWS                  ,-34.705,146.514,145.0,6.2357206,1.807697289145705,3.449538079136785,2007-03-13 09:00:00,30.904722566666667,273664,7.209021583199501,8.044309988617897,8.879598408937454,9.148501217365265,9.983789637684822,10.819078087806702
132,074253,FINLEY (CSIRO)                          ,-35.7111,145.6236,110.0,6.868836,2.5943568914786734,2.6476064062801177,1989-05-04 00:00:00,70.24256818333333,88774,12.5588059425354,14.137994587421417,15.717183262109756,16.22556844353676,17.80475714802742,19.38394585251808
133,074258,DENILIQUIN AIRPORT AWS                  ,-35.5575,144.9458,94.0,6.8295126,1.5404647033959262,4.43341063321661,1997-05-23 10:00:00,39.161910733333336,347636,6.62806499004364,7.6005401611328125,8.573015362024307,8.8860824406147,9.858557641506195,10.83103284239769
134,074272,KAPOOKA (DEFENCE)                       ,-35.1327,147.2512,187.0,5.4974,2.1127709878698426,2.601985657006279,2017-10-03 10:30:00,30.01147393333333,96741,6.154382675886154,6.855753660202026,7.557124644517899,7.782915651798248,8.484286665916443,9.185657650232315
135,075019,HAY AIRPORT AWS                         ,-34.5412,144.8345,92.0,6.8656693,1.50978304544869,4.547454199585268,2007-06-26 09:00:00,35.587693433333335,233404,6.1994559317827225,7.046635881066322,7.893815830349922,8.16654685139656,9.013726815581322,9.860906794667244
136,075041,GRIFFITH AIRPORT AWS                    ,-34.2487,146.0695,134.0,6.419528,1.593124933967018,4.029519512648734,2000-06-13 18:00:00,36.1413063,332172,5.5820596516132355,6.351244926452637,7.12043023109436,7.368052572011948,8.137237876653671,8.906423181295395
137,075174,GRIFFITH CSIRO                          ,-34.3229,146.0684,125.0,6.6753535,2.975672484475571,2.2433092223338376,1989-03-01 12:00:00,68.24389636666666,112489,12.095274567604065,13.579727113246918,15.064179688692093,15.54206669330597,17.026519298553467,18.510971903800964
138,075175,HAY CSIRO AWS                           ,-34.5471,144.867,90.0,6.8976617,2.256258826371676,3.057123413910734,1996-09-13 12:00:00,67.02405705,86087,10.716121196746826,12.17556181550026,13.635002464056015,14.104837417602539,15.564278095960617,17.023718774318695
139,200288,NORFOLK ISLAND AERO                     ,-29.0389,167.9408,111.7,,,5.192841617174873,1994-07-25 05:00:00,37.379762516666666,404013,,,,,,
140,200839,LORD HOWE ISLAND AERO                   ,-31.5421,159.0786,5.0,7.7876163,1.4293548141941834,5.4483436691606455,1994-07-23 03:30:00,37.57470223333333,401946,1645.5697068403915,4790.11658359149,13944.471386989077,19669.66817968106,57261.58509678034,166698.57512657114
141,014015,DARWIN AIRPORT                          ,-12.4239,130.8925,30.4,4.5577235,1.2080274409757907,3.772864231051534,1985-01-02 01:30:00,44.14576428333333,455956,2.0441240072250366,3.343774974346161,4.643425941467285,5.0618201196193695,6.361471116542816,7.661122113466263
142,014031,CHARLES POINT                           ,-12.3895,130.6306,14.0,5.0594335,1.8306235861321838,2.763775960586946,2006-01-06 13:00:00,46.92356598333333,193461,10.196375727653503,11.631973505020142,13.06757116317749,13.529730439186096,14.965328097343445,16.400925874710083
143,014041,MIDDLE POINT                            ,-12.605,131.2988,14.1,4.4731894,1.9046458625197482,2.3485674906646805,2001-08-07 15:30:00,38.47512883333333,296306,4.008901953697205,4.833659410476685,5.65841680765152,5.923929393291473,6.748686790466309,7.573444187641144
144,014046,NOONAMAH AWS                            ,-12.6365,131.0714,26.9,4.8307443,2.8570121957465373,1.6908378178090824,2008-11-11 13:30:00,37.3826591,64172,7.301398992538452,8.071676671504974,8.841954350471497,9.089928388595581,9.860206067562103,10.630483746528625
145,014072,DARWIN NTC AWS                          ,-12.4719,130.8458,0.0,5.098608,1.5438584755233802,3.3025099760127334,2012-08-16 10:00:00,31.395857149999998,178428,2.6084125638008118,3.016704738140106,3.424996927380562,3.5564376413822174,3.964729830622673,4.373022019863129
146,014142,PIRLANGIMPI AIRPORT                     ,-11.4021,130.4217,18.3,4.577474,2.7580874960079806,1.6596551501373427,2006-01-11 22:30:00,34.69408753333333,261431,7.62281259894371,8.477522850036621,9.332233101129532,9.607388347387314,10.462098598480225,11.316808879375458
147,014198,JABIRU AIRPORT                          ,-12.6592,132.894,26.5,4.524206,1.8088864654144823,2.501100123197816,1993-07-01 09:30:00,46.93368293333333,333700,1.4874757528305054,1.8802591562271118,2.2730425745248795,2.3994905799627304,2.792273983359337,3.1850574016571045
148,014245,CAPE DON                                ,-11.3081,131.7651,19.0,5.2343674,1.6685201837387853,3.1371315861917877,2005-12-19 09:30:00,65.84504026666667,77091,6.3695334741827585,8.631707494282505,11.342634168272134,12.325042320834598,15.768624303563897,19.89531755001866
149,014254,POINT STUART                            ,-12.2403,131.8785,1.0,5.1842422,1.5271633174949182,3.394687515831068,2003-03-09 16:30:00,59.4777014,177657,2.5530727803707123,3.112922430038452,3.672772079706192,3.8530034124851227,4.4128530621528625,4.972702711820602
150,014272,BATCHELOR AIRPORT                       ,-13.0544,131.0252,104.0,5.300636,2.574898528211799,2.058580466993355,1993-07-07 12:30:00,45.89419641666667,341066,19.070792899190074,25.111400041154894,32.87723149228669,35.821922473467424,46.64672684402147,60.563143564641734
151,014274,MCCLUER ISLAND                          ,-11.0468,132.9791,1.4,6.837427,1.047803374851587,6.525486845516883,2001-01-08 10:30:00,58.11325156666667,201410,1.6378877208923825,70.82662641946983,4340.7981369209,16364.760615590953,1009918.2264357309,62326905.25367837
152,014277,DUM IN MIRRIE AIRSTRIP                  ,-12.635,130.3725,3.5,5.242257,2.3680074359349197,2.213784061094127,2000-10-19 22:30:00,43.59254163333333,271159,8.889905422925949,10.065213173627853,11.24052095413208,11.618885576725006,12.794193387031555,13.969501227140427
153,014299,NGUKURR AIRPORT                         ,-14.7236,134.7456,14.5,5.0035133,2.2608039013713306,2.21315671524924,2012-07-02 09:30:00,30.600703083333332,185183,4.767187923192978,5.338341221213341,5.909494534134865,6.093364834785461,6.6645181477069855,7.2356714606285095
154,014308,CROKER ISLAND AIRPORT                   ,-11.1629,132.4813,9.2,5.761167,1.7554257800682864,3.2819200417484176,2012-09-26 09:00:00,30.519830183333333,181617,4.71980881690979,5.429201632738113,6.138594478368759,6.366967976093292,7.076360791921616,7.785753637552261
155,014309,MURGANELLA AIRSTRIP                     ,-11.5485,132.9266,9.5,4.490924,2.9616666417835615,1.516350225974878,2012-10-10 09:30:00,31.422532233333335,175757,6.943219989538193,7.626594007015228,8.309968024492264,8.529965311288834,9.21333934366703,9.896713376045227
156,014310,OENPELLI AIRPORT                        ,-12.3272,133.0069,7.5,4.7665987,2.495439610871286,1.910123843795517,2012-09-26 09:00:00,30.972608700000002,178962,3.730895906686783,4.140613362193108,4.550330802798271,4.682230368256569,5.091947823762894,5.5016652792692184
157,014314,NOONAMAH AIRSTRIP                       ,-12.6099,131.0474,17.5,4.6809344,2.9780978781857756,1.5717866304717543,2013-06-21 11:30:00,30.126714633333332,171172,7.2435591742396355,7.985057979822159,8.726556777954102,8.965266086161137,9.70676489919424,10.448263734579086
158,014401,WARRUWI AIRPORT                         ,-11.65,133.3797,19.2,6.4756436,1.8961713317432445,3.4151152516596492,2000-08-15 09:30:00,39.5446761,301302,5.867060095071793,6.929060623049736,7.991061165928841,8.332948967814445,9.394949525594711,10.456950068473816
159,014402,MILINGIMBI                              ,-12.1239,134.9078,4.0,6.1092567,1.7958501814922214,3.4018743920544727,2000-12-13 14:00:00,52.62901243333333,26044,41.63309345902627,259.919349255297,1636.0459510614608,2959.1197312497466,18652.423989698542,117586.61195086558
160,014404,MILINGIMBI AIRPORT                      ,-12.0932,134.8919,15.0,6.0165496,1.9303720863231808,3.116782318744362,2003-07-23 11:30:00,39.72380113333334,261080,6.121142566204071,7.337917238473892,8.554691910743713,8.94640588760376,10.163180589675903,11.379955261945724
161,014405,MANINGRIDA AIRPORT                      ,-12.0569,134.2339,28.1,5.8682203,1.6974745323318898,3.4570299686459833,2003-10-24 11:30:00,38.353639333333334,266916,3.8656758069992065,4.86891508102417,5.872154474258423,6.195125341415405,7.198364734649658,8.201604127883911
162,014508,GOVE AIRPORT                            ,-12.2741,136.8201,51.6,5.5537825,1.4354585058633136,3.8689954745390387,1990-08-01 13:00:00,39.11233383333333,439636,2.66664120554924,3.545452803373337,4.424264430999756,4.707178592681885,5.5859901905059814,6.4648018181324005
163,014517,NGAYAWILI                               ,-11.9971,135.5726,8.1,5.8002973,1.3757708466667258,4.2160344321422585,2000-07-27 16:30:00,53.66066935,222544,6.327285647392273,7.628456652164459,8.929627656936646,9.348511219024658,10.649682223796844,11.950853288173676
164,014518,GROOTE EYLANDT AIRPORT                  ,-13.9746,136.463,13.7,5.281167,2.0657396318686447,2.5565501812816502,2000-07-24 12:30:00,41.19412556666667,290003,4.291001886129379,4.92616206407547,5.561322256922722,5.765798166394234,6.400958359241486,7.036118566989899
165,014626,DALY WATERS AIRSTRIP                    ,-16.2637,133.3782,209.8,5.48355,2.691577205018384,2.0372999375579326,2000-09-13 08:30:00,54.60307385,217446,4.752442479133606,5.2392880618572235,5.726133644580841,5.882862910628319,6.369708493351936,6.856554090976715
166,014627,BULMAN                                  ,-13.6715,134.3415,103.4,4.80145,2.2948422774704844,2.092278769148463,2003-07-30 19:30:00,47.60061748333333,217656,4.1201169192790985,4.790824085474014,5.46153125166893,5.677450716495514,6.34815788269043,7.018865078687668
167,014703,CENTRE ISLAND                           ,-15.7426,136.8192,12.2,6.1856475,1.2185502658852572,5.076234982515561,2000-11-06 04:00:00,65.20904853333333,180891,6.417655348777771,7.88096609711647,9.34427684545517,9.815357685089111,11.278668463230133,12.741979271173477
168,014704,MCARTHUR RIVER MINE AIRPORT             ,-16.4423,136.076,40.0,4.563161,1.7635149279500608,2.587537436729024,2003-08-14 16:30:00,37.93191498333333,272571,1.7850468158721924,2.1473737359046936,2.509700655937195,2.6263439059257507,2.988670825958252,3.350997745990753
169,014723,BORROLOOLA AIRPORT                      ,-16.0755,136.3041,16.1,5.0281744,1.8108719395768256,2.7766592934807974,2000-07-24 12:30:00,40.1391684,297625,4.057758212089539,4.921818435192108,5.785878598690033,6.064043879508972,6.928104043006897,7.7921642661094666
170,014808,BRADSHAW - ANGALLARI VALLEY (DEFENCE)   ,-15.4397,130.5731,60.0,4.538152,2.4197669583812886,1.8754501139650253,2017-12-08 10:30:00,30.25663678333333,92816,3.124188184738159,3.488534800708294,3.8528814241290092,3.9701748341321945,4.3345214650034904,4.698868088424206
171,014825,VICTORIA RIVER DOWNS                    ,-16.403,131.0145,88.5,4.3328457,1.96299473368786,2.2072630219063982,2000-07-24 12:30:00,46.43967251666666,257246,1.341155081987381,1.5361027270555496,1.7310503721237183,1.793809488415718,1.988757148385048,2.1837047934532166
172,014829,LAJAMANU AIRPORT                        ,-18.3324,130.6361,315.6,5.987253,1.6773733323853826,3.5694219488827077,2000-07-24 12:30:00,39.65037471666667,301294,1.8452912867069244,2.17362417280674,2.501957058906555,2.607656627893448,2.9359895139932632,3.2643224000930786
173,014850,TIMBER CREEK                            ,-15.6614,130.4808,20.1,5.2642922,2.4359192884979635,2.1611111111111114,2013-02-04 14:00:00,27090.0,5,0,0,0,0,0,0
174,014901,DOUGLAS RIVER RESEARCH FARM             ,-13.8345,131.1872,42.8,4.652643,2.096146145768436,2.2196177557217593,1996-09-30 10:30:00,49.176517849999996,283722,6.425374296375932,8.022750381628867,9.903557680222402,10.577398672262746,12.911491249981754,15.659734695151784
175,014909,CENTRAL ARNHEM PLATEAU                  ,-13.3275,133.0861,416.0,6.7005515,1.8665017250289508,3.5898983751291453,2003-08-27 10:30:00,69.79394758333333,147875,7.65929434003494,9.818168383350258,12.481332631273975,13.464670622941192,16.979619330547596,21.315622980397194
176,014932,TINDAL RAAF                             ,-14.5229,132.3826,133.6,5.403566,1.8570302903226918,2.9097887696261053,1990-06-01 10:30:00,38.249817416666666,451850,1.6020820960402489,1.8177278861403465,2.033373683691025,2.102796122431755,2.3184419199824333,2.5340877175331116
177,014948,PORT KEATS AIRPORT                      ,-14.2494,129.5282,28.0,4.956875,1.8662667369586063,2.6560377191795026,2000-08-30 09:30:00,40.58724161666667,293031,2.6606259495019913,3.1575206220149994,3.6544152945280075,3.814379647374153,4.3112743347883224,4.808169007301331
178,014949,DELAMERE WEAPONS RANGE                  ,-15.7441,131.9181,221.0,5.794693,1.802863699649649,3.2141603351879273,2000-07-24 12:30:00,33.25581523333333,359228,0.7649557814002037,0.8515991792082787,0.9382425770163536,0.9661355167627335,1.0527789145708084,1.1394223123788834
179,014954,BRADSHAW                                ,-14.9408,130.8091,75.0,4.090464,1.456773726991157,2.8078925637898005,2001-11-18 13:30:00,60.641865116666665,185553,0.7396319583058357,0.8551564887166023,0.9706810116767883,1.0078716054558754,1.123396135866642,1.2389206662774086
180,014981,BRADSHAW - KOOLENDONG VALLEY (DEFENCE)  ,-15.1853,130.1169,42.0,4.3801374,3.7866264212172482,1.1567387316054385,2018-10-24 14:30:00,30.30247478333333,77461,8.865147352218628,9.674731135368347,10.484314918518066,10.74494269490242,11.554526507854462,12.364110291004181
181,014982,KANGAROO FLATS (DEFENCE)                ,-12.7934,130.8542,50.0,4.9007206,4.506017173971574,1.0875947443391596,2017-10-03 09:00:00,31.12196115,93292,11.599683612585068,12.626689493656158,13.65369537472725,13.984317421913147,15.01132333278656,16.03832921385765
182,014983,MOUNT BUNDEY NORTH (DEFENCE)            ,-12.9141,131.8663,83.0,4.9871693,3.371155246626892,1.4793650546758794,2017-10-03 09:00:00,30.107012866666665,96437,8.998402327299118,9.870142936706543,10.741883516311646,11.022521287202835,11.89426189661026,12.766002506017685
183,014984,MOUNT BUNDEY SOUTH (DEFENCE)            ,-13.0889,131.8478,55.0,4.622325,3.2882270530778377,1.4057195166057357,2017-10-03 09:00:00,30.097961966666666,96466,7.166289895772934,7.870573818683624,8.574857741594315,8.801586523652077,9.505870461463928,10.210154414176941
184,014988,KNUCKEY LAGOON                          ,-12.4422,130.9556,31.6,4.5741987,2.1415911920151913,2.135887904234016,2021-07-22 13:30:00,30.01891863333333,30129,5.699368208646774,6.438725233078003,7.178082257509232,7.416102051734924,8.155459076166153,8.894816100597382
185,015135,TENNANT CREEK AIRPORT                   ,-19.6423,134.1833,375.7,7.152781,1.5416632401103314,4.639652048239908,1990-06-18 13:00:00,39.97949893333334,431685,2.172920912504196,2.497833661735058,2.8227464184165,2.927344962954521,3.2522577196359634,3.5771704837679863
186,015590,ALICE SPRINGS AIRPORT                   ,-23.7951,133.889,546.0,5.714463,1.5642290312279274,3.6532138963447522,1990-08-08 12:00:00,38.18442996666667,450056,3.6073583364486694,4.218267738819122,4.829177141189575,5.025846034288406,5.6367554515600204,6.247664853930473
187,015602,JERVOIS                                 ,-22.9494,136.1442,328.0,6.6644716,1.8699504885011193,3.56398293284424,2000-08-08 08:00:00,58.37677086666667,204278,4.94662307202816,5.560965046286583,6.175307020545006,6.3730809688568115,6.987422943115234,7.601764932274818
188,015635,YULARA AIRPORT                          ,-25.1896,130.9737,492.0,6.616568,1.6279363563742584,4.064389902359526,1991-07-20 14:30:00,39.875213566666666,418474,5.252287983894348,5.99868705868721,6.74508610367775,6.985372930765152,7.731772005558014,8.478171080350876
189,015643,TERRITORY GRAPE FARM                    ,-22.4518,133.6377,565.6,6.7526736,2.0222022360885394,3.3392672134550976,2000-08-05 09:30:00,53.71027216666666,222105,5.138880401849747,5.735687658190727,6.332494929432869,6.524623945355415,7.121431216597557,7.71823850274086
190,015664,WALUNGURRU AIRPORT                      ,-23.2656,129.3844,454.3,7.4204946,1.4111018497970333,5.258652702846597,2001-10-22 13:00:00,50.095788666666664,225392,3.9129220247268677,4.625323295593262,5.337724566459656,5.567066550254822,6.279467821121216,6.99186909198761
191,015666,RABBIT FLAT                             ,-20.1823,130.0148,340.0,5.4175606,1.6298329582647775,3.323997437848142,2002-02-14 15:00:00,72.9653847,152476,2.4391513019800186,2.8001654595136642,3.161179631948471,3.2774002254009247,3.6384143978357315,3.9994285702705383
192,200731,POINT FAWCETT                           ,-11.7628,130.03,6.5,4.5029764,1.3752961888288764,3.274186647296668,2000-07-24 13:30:00,45.751510833333334,261114,4.376575284304585,8.537840727232988,16.678159734940543,20.69368723725651,40.457577260077635,79.1199437506407
193,200782,NORTH EAST ISLAND                       ,-13.6449,136.9445,17.4,6.2364793,1.54686978337871,4.03167697073847,2010-10-13 12:30:00,30.134529133333334,65562,3.9430069625377655,4.693916410207748,5.444825857877731,5.686564713716507,6.437474191188812,7.188383638858795
194,200786,CAPE WESSEL                             ,-11.0047,136.7586,18.0,7.033756,1.1000707838597445,6.393911994087771,2011-12-06 14:30:00,32.374271666666665,184326,3.1412358587534652,5.817612899644459,10.561552010078666,12.76402035314608,22.87421703903419,40.79477036152092
195,200867,BAYU UNDAN (CUQ RIG)                    ,-11.0681,126.6144,32.5,,,4.917883099600778,2009-07-02 07:30:00,148.32818096666668,48845,,,,,,
196,200868,CP DILI AIRPORT                         ,-8.5478,125.5276,8.8,,,3.3542471042471043,2023-02-07 23:30:00,58.06949806666667,1554,,,,,,
197,027045,WEIPA AERO                              ,-12.6778,141.9208,18.0,6.013942,1.8850768906379516,3.1902898999500717,1995-11-02 13:30:00,34.64245591666667,416592,4.406538113951683,4.975687608122826,5.544837102293968,5.728062316775322,6.297211825847626,6.8663613349199295
198,027054,COCONUT ISLAND                          ,-10.0511,143.0686,3.5,8.057411,3.6074897951031635,2.2335229346413823,2003-07-13 00:00:00,67.97556168333332,152220,23.287158727645874,25.53386950492859,27.780580520629883,28.503859758377075,30.75057077407837,32.997281551361084
199,027058,HORN ISLAND                             ,-10.5844,142.29,4.0,7.685066,1.4306671320337552,5.371666162638319,1995-10-17 21:30:00,40.34994765,358225,1.3369148150086403,1.633977897465229,1.9310409724712372,2.0266739279031754,2.323737010359764,2.6208001002669334
200,027073,COEN AIRPORT                            ,-13.7606,143.1183,159.3,4.6395698,1.55050360547889,2.9922985944530676,2002-04-17 17:00:00,38.93068293333333,283480,1.9532577395439148,3.062293201684952,4.171328693628311,4.528358370065689,5.6373938620090485,6.74642938375473
201,027075,SCHERGER RAAF                           ,-12.6167,142.0869,39.3,5.8297615,2.5741927037859145,2.2646950620880135,2005-12-14 10:00:00,35.386775400000005,257475,6.0596684366464615,6.723541021347046,7.387413635849953,7.60113288462162,8.265005499124527,8.928878083825111
202,028004,PALMERVILLE                             ,-15.9999,144.0754,203.8,4.628964,2.1439503301842504,2.159081711048003,2001-07-16 11:00:00,44.11204315,259168,1.6837460696697235,2.120172068476677,2.5565980821847916,2.6970958709716797,3.1335218846797943,3.569947898387909
203,028008,LOCKHART RIVER AIRPORT                  ,-12.785,143.3047,18.5,5.7626348,1.5180111412124988,3.796174216203744,2001-06-26 11:00:00,41.32123631666666,277368,2.724709153175354,3.53338086605072,4.342052578926086,4.602386832237244,5.41105842590332,6.2197301387786865
204,029038,KOWANYAMA AIRPORT                       ,-15.4818,141.7483,9.6,5.3420243,1.9623270165068116,2.722290566958578,1999-06-23 16:00:00,41.34113838333334,302795,3.6624722480773926,4.52293074131012,5.383389353752136,5.66039514541626,6.520853638648987,7.381312251091003
205,029039,MORNINGTON ISLAND                       ,-16.664,139.1837,8.5,5.4709964,1.7841996138547422,3.0663589081449647,1995-10-12 00:00:00,39.30548016666667,269006,26.371880221898238,49.00155315904102,90.95275874078949,110.97566811117152,205.84124362191565,381.7043801302062
206,029058,JULIA CREEK AIRPORT                     ,-20.6672,141.7214,122.5,6.41938,1.4131395967515277,4.542636978501566,2001-08-31 17:00:00,40.168188683333334,282956,2.853806436061859,3.4800709784030914,4.106335520744324,4.307947665452957,4.9342122077941895,5.560476779937744
207,029063,NORMANTON AIRPORT                       ,-17.6872,141.0733,18.4,5.5416284,1.469311122082329,3.7715826671852963,2001-04-09 19:00:00,39.37262065,293937,1.6391571760177612,2.7173861265182495,3.795615077018738,4.142727255821228,5.220956206321716,6.299185156822205
208,029077,BURKETOWN AIRPORT                       ,-17.7483,139.5356,5.7,6.119577,1.3780883734246263,4.440627356714625,2001-10-10 19:00:00,38.980175716666665,290099,1.2229141741991043,1.5694877654314041,1.9160613715648651,2.0276331454515457,2.3742067366838455,2.7207803279161453
209,029127,MOUNT ISA AERO                          ,-20.6778,139.4875,340.3,6.055494,1.6257461430470244,3.724747469051426,1995-10-16 21:00:00,32.60590955,443334,2.129545748233795,2.4815771877765656,2.833608642220497,2.946937456727028,3.2989688962697983,3.65100035071373
210,029141,CLONCURRY AIRPORT                       ,-20.6664,140.505,186.0,6.374381,1.5225871571676644,4.18654592964409,2001-03-23 11:00:00,39.92904505,290466,2.5551837533712387,3.023629382252693,3.4920750111341476,3.6428808122873306,4.111326441168785,4.579772084951401
211,029167,CENTURY MINE                            ,-18.7569,138.7056,126.8,6.0982304,2.0701847918205356,2.945742035219787,2003-04-07 10:00:00,30.758254083333334,342194,2.070885047316551,2.330153837800026,2.5894226282835007,2.672888532280922,2.932157337665558,3.1914261281490326
212,029181,LAKE JULIUS AWS                         ,-20.1167,139.7256,237.0,5.397233,2.3081528289885904,2.338334334517785,2013-08-19 08:30:00,30.985063683333333,163695,3.375629961490631,3.733520269393921,4.091410547494888,4.2066254913806915,4.564515769481659,4.922406047582626
213,029182,MORNINGTON ISLAND AIRPORT               ,-16.662,139.1655,9.5,5.56237,1.3624737086660292,4.082552043445899,2013-10-24 09:00:00,30.09159833333333,165396,2.6981610655784607,3.3913082480430603,4.08445543050766,4.307598948478699,5.000746130943298,5.693893313407898
214,030022,HUGHENDEN AIRPORT                       ,-20.8192,144.2333,316.4,6.97717,1.7101170437202122,4.0799371108315015,2001-02-23 11:00:00,40.23045918333333,289292,3.1312226057052612,3.6599370539188385,4.188651502132416,4.358859539031982,4.887574017047882,5.416288465261459
215,030024,HUGHENDEN POST OFFICE                   ,-20.8447,144.1986,324.0,6.97508,1.922932077686575,3.627314814814815,2001-02-21 17:00:00,102.5,24,0,0,0,0,0,0
216,030124,GEORGETOWN AIRPORT                      ,-18.3039,143.5306,301.8,5.753821,1.9208331024138994,2.9954819546361886,2004-06-01 18:00:00,37.11525723333333,267237,2.6209040135145187,3.048145607113838,3.4753872007131577,3.61292827129364,4.04016986489296,4.467411458492279
217,030161,RICHMOND AIRPORT                        ,-20.7001,143.1137,206.3,6.192665,1.4399694853565064,4.300553006902422,1998-11-07 19:00:00,41.9743175,306044,2.003767341375351,2.4473815262317657,2.890995740890503,3.0338076055049896,3.4774217903614044,3.9210360050201416
218,031011,CAIRNS AERO                             ,-16.8736,145.7458,2.2,5.5744467,1.2798360842741388,4.355594241057188,1985-01-16 16:30:00,44.89086536666667,447914,2.613242398224776,4.316381577473997,6.6908698256614745,7.639134976818413,11.323397216550523,16.45993420546604
219,031037,LOW ISLES LIGHTHOUSE                    ,-16.3842,145.5592,2.9,6.7347097,1.0171236509977089,6.621328422634653,1998-11-07 19:00:00,40.40902798333333,317900,1.0129658485782813,1.5641556448454463,18.118139287871067,52.196416783571756,1538.7660692317947,46185.18346937941
220,031192,GREEN ISLAND                            ,-16.7614,145.9719,3.0,8.389779,1.0062139957260285,8.337966999582177,1997-03-24 00:00:00,31.11456893333333,223647,2.2898675771099186,4.392740856341903,8.186889176299825,9.967823186384404,18.245835411939492,33.18159330489812
221,031209,COOKTOWN AIRPORT                        ,-15.4461,145.1861,4.8,6.8821993,1.634612863129855,4.210293117501195,2000-07-24 13:00:00,40.31012746666667,296362,3.187440127134323,3.7273917496204376,4.26734334230423,4.441168934106827,4.981120556592941,5.521072179079056
222,031210,MAREEBA AIRPORT                         ,-17.0704,145.4293,471.9,7.0785985,2.049767457047014,3.4533666123745754,2000-07-24 13:00:00,40.03398281666667,298386,4.77253919839859,5.409545972943306,6.046552762389183,6.251623138785362,6.888629928231239,7.525636732578278
223,031213,CAPE FLATTERY                           ,-14.9672,145.3106,18.5,9.06652,1.4364218104541133,6.3118783572196975,2003-06-20 11:00:00,37.90771458333334,274843,12.451207111229042,19.650088766661362,30.83033993088422,35.61047340684659,55.61767739464442,86.68994339149702
224,031222,CAIRNS RACECOURSE                       ,-16.9463,145.7474,4.1,6.042963,2.122376567300056,2.847262413776812,2013-08-02 10:00:00,30.098329866666667,169328,4.29098841547966,4.803407058119774,5.315825700759888,5.480787664651871,5.993206307291985,6.50562496483326
225,032037,SOUTH JOHNSTONE EXP STN                 ,-17.6053,145.9972,18.3,3.976634,1.7349972773928886,2.292011680588491,1999-11-04 16:00:00,40.762031066666665,302363,1.0021189451217651,2.2728887796401978,3.5436586141586304,3.952755093574524,5.2235249280929565,6.494294762611389
226,032040,TOWNSVILLE AERO                         ,-19.2483,146.7661,4.3,4.715243,1.0691774514011019,4.4101592832156475,1995-10-16 13:00:00,32.14391966666667,449737,,1.6706098318099976,4.905296623706818,5.946633219718933,9.181320071220398,12.416006922721863
227,032141,LUCINDA POINT                           ,-18.5203,146.3861,10.0,5.588445,1.0464952010040964,5.340153668409527,1996-10-22 00:00:00,50.384760150000005,276302,2.6515650689193184,5.753912653532635,12.190137730100822,15.480774105776078,32.369781657084275,67.40823268662227
228,032182,CAPE FERGUSON NTC AWS                   ,-19.2774,147.0586,0.0,6.481217,1.4263777189597886,4.543829324695119,2013-05-16 10:00:00,30.641140266666664,169994,17.782555149122935,181.7848927930431,1900.1658739515883,4047.4999305394526,42404.29096675833,444298.4417563343
229,032194,COWLEY BEACH (DEFENCE)                  ,-17.6905,146.1126,4.3,5.4761376,2.9115079299181383,1.880859599185777,2017-04-03 13:30:00,30.012225966666666,105513,5.548377633094788,6.215683788061142,6.882989972829819,7.097814589738846,7.765120774507523,8.432426989078522
230,032195,MOUNT STUART (DEFENCE)                  ,-19.4082,146.762,176.4,4.9605384,1.7549348832506937,2.826622477359445,2017-10-03 09:30:00,30.0310302,96680,2.9704446345567703,3.43791601061821,3.905387371778488,4.055879548192024,4.523350924253464,4.990822300314903
231,032196,TOWNSVILLE- AIR WEAPONS RANGE (DEFENCE) ,-19.3048,146.2438,385.5,4.7159257,1.5648879745830675,3.0135867679400024,2017-10-03 09:30:00,31.26574916666667,92862,0,0,0,0,0,0
232,032197,INNISFAIL AERODROME                     ,-17.5581,146.0119,11.8,4.3555098,1.4474280751721096,3.0091372640244693,2016-06-21 13:30:00,30.088537233333334,118933,1.0541986171030768,2.401777658158564,5.940058097690882,8.022941588606406,20.69930692581899,53.98309522360535
233,033002,AYR DPI RESEARCH STN                    ,-19.6169,147.3758,17.0,6.0373373,2.0507687080309873,2.9439386701771326,2003-08-17 03:00:00,49.53667935,208646,5.87055516242981,6.666994869709015,7.46343457698822,7.719830870628357,8.516270577907562,9.312710344791412
234,033045,MACKAY AERO                             ,-21.1706,149.1794,5.3,6.210302,1.2695788692468393,4.891623534780706,1995-11-14 01:00:00,33.150592616666664,434842,3.799647331237793,5.306488990783691,6.81333065032959,7.298425316810608,8.805267095565796,10.312108755111694
235,033106,HAMILTON ISLAND AIRPORT                 ,-20.3658,148.9536,58.7,7.59709,1.0044092421031035,7.563739409196125,2002-07-19 12:00:00,39.75673615,274229,9.46922738080934,23.927662619987156,60.721321475052825,81.98379458657634,208.46189496638166,530.3219027078529
236,033119,MACKAY M.O                              ,-21.1172,149.2169,30.3,6.8704095,1.5338396423465268,4.4792227942207585,1995-10-15 13:00:00,41.18888011666666,351011,14.664590776803832,21.75769061191842,31.938275494352524,36.07966026360194,52.49431320875116,76.05393756318405
237,033195,WILLIAMSON                              ,-22.4703,150.1786,27.6,5.7563014,2.183619301665712,2.6361286505640535,2005-06-01 18:00:00,40.67840871666667,230908,4.261036455631256,4.860826194286346,5.460615947842598,5.65370512008667,6.2534948736429214,6.853284627199173
238,033208,ROSSLYN BAY NTC AWS                     ,-23.161,150.7901,0.0,7.0841346,2.319173884269447,3.0545939770861024,2012-07-11 11:30:00,31.13465646666667,181588,3273.1288097975976,8193.679345917026,20511.636070583623,27561.069738314178,68995.37279306573,172720.74827691904
239,033210,ST LAWRENCE                             ,-22.3472,149.5242,9.2,4.921065,1.6753931641643056,2.93725971845114,2004-08-09 18:00:00,37.183977033333335,264071,1.3454289510846138,1.9346040561795235,2.5237791687250137,2.713451199233532,3.3026263266801834,3.8918014615774155
240,033247,PROSERPINE AIRPORT                      ,-20.4925,148.555,19.7,6.4205017,1.6858516845965297,3.8084617808600263,1996-03-22 08:00:00,45.0386002,315931,14.857884704178376,22.93170747165801,35.204024465167045,40.38057859682661,61.72653849526068,94.1726788117738
241,033255,HAMILTON ISLAND                         ,-20.3528,148.9511,22.6,7.22885,0.9139429622369912,7.909519725557462,2002-03-14 17:00:00,62.61406516666667,2915,0,0,0,0,0,0
242,033294,YEPPOON THE ESPLANADE                   ,-23.1364,150.7506,5.5,6.531303,1.42144303532595,4.594839727380895,1995-10-15 08:00:00,32.02126621666667,451505,2.8663212060928345,3.802069902420044,4.737818628549576,5.039062410593033,5.974811136722565,6.910559833049774
243,033295,ALVA BEACH                              ,-19.4569,147.4833,7.5,6.9345994,1.3693160793249108,5.064279536530011,1997-03-24 00:00:00,39.928455050000004,343141,7.007261668779851,11.84597885732374,19.14771290417306,22.21358853131012,34.79267118365701,53.77479237442107
244,033298,DOTSWOOD                                ,-19.6264,146.2939,292.5,5.2020316,1.5462180218435266,3.3643584144711727,1996-12-17 02:30:00,95.11329223333334,46560,0,0,0,0,0,0
245,033307,WOOLSHED                                ,-19.4168,146.5362,556.0,5.982709,2.541881448105708,2.3536538005845022,1998-11-07 19:00:00,42.27781653333333,303848,11.424771256500089,14.898914759880531,19.250117339226406,20.87253821303381,26.731801890284185,34.07025615986475
246,033308,SAMUEL HILL AERO                        ,-22.7433,150.6578,31.0,4.478383,1.6268122854784153,2.7528579076061073,2000-11-08 10:00:00,39.81447468333333,296186,2.3847009539604187,3.023696005344391,3.6626910865306854,3.8684015572071075,4.50739660859108,5.146391689777374
247,033317,HAY POINT                               ,-21.2894,149.3008,7.0,7.2941017,1.1715599557456131,6.225973907110646,2005-11-24 14:00:00,30.418649683333335,300465,6.173024892807007,7.848130464553833,9.523236274719238,10.062499761581421,11.737605571746826,13.412711143493652
248,033327,BOWEN AIRPORT AWS                       ,-20.0153,148.2138,5.9,7.54576,1.7126049764976121,4.40601321278167,2015-03-19 12:30:00,30.47228308333333,139175,4.557709574699402,5.282363414764404,6.007017254829407,6.2403037548065186,6.964957594871521,7.689611434936523
249,033328,TOWNSVILLE- FANNING RIVER (DEFENCE)     ,-19.783,146.5,325.8,6.373766,3.2913692653836866,1.9365089212168838,2017-10-03 09:30:00,30.01954153333333,96717,6.552617311477661,7.159355074167252,7.766092866659164,7.961418777704239,8.568156570196152,9.174894332885742
250,033329,OORALEA RACECOURSE (MACKAY TURF CLUB)   ,-21.17,149.1515,10.3,5.663748,1.9247752294980052,2.9425502264764343,2016-06-27 10:00:00,30.29505108333333,117844,5.421512424945831,6.191335141658783,6.961157858371735,7.208985447883606,7.978808224201202,8.748630940914154
251,034035,MORANBAH AIRPORT                        ,-22.0644,148.0758,232.2,5.8115926,1.432854536612899,4.055954341761632,2012-02-27 09:00:00,30.03898545,194688,5.138331174850464,7.044485807418823,8.950640559196472,9.564285397529602,11.470440149307251,13.3765949010849
252,035124,CLERMONT AIRPORT                        ,-22.7756,147.6217,270.3,5.030926,2.42361006018973,2.0757985412784343,2010-04-15 11:00:00,30.2635356,225738,3.8233604580163956,4.2909907549619675,4.758621051907539,4.909164384007454,5.376794680953026,5.844424977898598
253,035129,ROLLESTON AIRPORT                       ,-24.4617,148.6264,219.5,5.2263927,2.1503697990007438,2.4304623085761037,2010-07-12 15:00:00,30.39412305,220591,2.4971438348293304,2.8128346353769302,3.12852543592453,3.2301551699638367,3.5458459705114365,3.8615367710590363
254,035134,BLACKWATER AIRPORT                      ,-23.6015,148.8074,193.0,6.0975394,1.5293439176250196,3.9870295717168425,2013-05-29 11:00:00,30.1910928,171906,2.817989468574524,3.4071645736694336,3.9963396787643433,4.1860116720199585,4.775186836719513,5.364361941814423
255,035139,LOCHINGTON                              ,-23.9424,147.525,267.2,5.0824065,2.2648542727731256,2.24403246687502,2010-10-29 10:00:00,30.2877984,216193,3.8994805812835693,4.392726957798004,4.885973274707794,5.044763147830963,5.538009524345398,6.031255900859833
256,035264,EMERALD AIRPORT                         ,-23.5694,148.1756,189.4,5.6529646,1.4636552960927875,3.8622239861192114,1998-11-07 19:00:00,41.61870666666667,308660,1.7411929816007614,2.275493934750557,2.8097949028015137,2.981801390647888,3.516102358698845,4.050403326749802
257,036031,LONGREACH AERO                          ,-23.4397,144.2828,192.2,6.8744073,1.536911032495806,4.472872629620552,1995-12-11 16:00:00,33.88336035,424264,3.045951187610626,3.6224629878997803,4.198974847793579,4.3845701813697815,4.96108204126358,5.537593901157379
258,036034,BLACKALL AIRPORT                        ,-24.4303,145.4306,281.3,6.916158,1.8980710935569378,3.6437824814820794,2001-03-13 11:00:00,37.49755395,309685,4.047176077961922,4.632315754890442,5.217455431818962,5.405828341841698,5.990968033671379,6.5761077255010605
259,037010,CAMOOWEAL TOWNSHIP                      ,-19.9225,138.1214,231.2,6.5459895,1.6781892175937498,3.9006266068036717,1999-06-24 09:30:00,56.029078016666666,223399,4.802515089511871,5.597595691680908,6.392676293849945,6.64863508939743,7.443715691566467,8.238796293735504
260,037034,THE MONUMENT AIRPORT                    ,-21.8125,139.9267,288.4,6.7238216,1.7293397308073442,3.8880860251071807,2000-12-14 14:00:00,40.6826758,288585,4.799371957778931,5.5770072638988495,6.354642570018768,6.604985222220421,7.382620543241501,8.160255879163742
261,037036,TREPELL AIRPORT                         ,-21.84,140.8925,266.2,6.4832687,1.5760861735790939,4.113524277083327,2001-08-19 17:00:00,40.32031368333333,282317,3.373662620782852,3.964542180299759,4.555421769618988,4.7456424832344055,5.336522072553635,5.927401632070541
262,037039,WINTON AIRPORT                          ,-22.3617,143.0836,192.2,6.6207323,1.5706084242904954,4.215393350143861,2002-10-17 14:00:00,39.17926243333333,274960,7.818427426297672,12.923108294711199,21.253512113864844,24.927420242295273,40.84352541190351,66.8172516268707
263,037053,CARTERS BORE                            ,-20.9358,139.2964,396.0,7.2164125,2.1906498219512693,3.2941880860824395,2014-07-29 14:00:00,30.202542166666667,151524,6.254156306385994,6.965738281607628,7.677320279181004,7.906398519873619,8.617980532348156,9.329562537372112
264,037058,URANDANGI AERODROME                     ,-21.5979,138.3665,178.6,6.712587,1.808246166032625,3.7122085509286316,2012-09-11 11:30:00,30.674413716666667,181402,4.72684520483017,5.327913835644722,5.928982436656952,6.122483313083649,6.72355192899704,7.324620559811592
265,037059,NEW MAY DOWNS                           ,-20.59,139.3411,392.0,6.8670926,2.260490396765353,3.037877364678027,2013-08-19 08:30:00,30.09023331666667,168563,5.498432844877243,6.099160403013229,6.699887990951538,6.893279075622559,7.494006633758545,8.094734221696854
266,038026,BIRDSVILLE AIRPORT                      ,-25.8975,139.3472,46.6,7.1079936,1.5304618151316818,4.6443456037098905,2000-07-24 13:00:00,40.391902933333334,295762,11.901794249706494,16.25047901497967,21.94850070937544,24.13562763137548,32.28030223211317,42.952157074156354
267,038076,WINDORAH AIRPORT                        ,-25.4117,142.6647,132.2,6.504609,1.6293199558915166,3.9922233103761737,2016-08-18 18:30:00,30.25688136666667,115384,3.197825863957405,3.673717960715294,4.149610087275505,4.302813097834587,4.778705224394798,5.254597321152687
268,039039,GAYNDAH POST OFFICE                     ,-25.6258,151.6094,105.7,5.5911803,1.3726742452773268,4.073202614379084,2003-01-24 15:00:00,63.52941175,85,0,0,0,0,0,0
269,039059,LADY ELLIOT ISLAND                      ,-24.1116,152.7161,3.6,7.827855,1.3122340596634885,5.965288777960729,1998-12-22 02:30:00,66.6032014,191916,8.000226033770993,13.236873370499687,21.66802247354568,25.355112716939548,41.178727744765155,66.65519180089618
270,039066,GAYNDAH AIRPORT                         ,-25.6167,151.6156,110.9,5.511694,2.2604141971672336,2.438355749744921,2003-01-28 10:00:00,37.46720408333333,283572,5.579224571585655,6.24735663831234,6.915488705039024,7.130579188466072,7.798711270093918,8.466843366622925
271,039083,ROCKHAMPTON AERO                        ,-23.3753,150.4775,10.4,4.8656754,1.4683661280257327,3.313666364609895,1995-10-31 20:00:00,32.32271456666667,446568,1.1159494519233704,1.8861129879951477,2.656276524066925,2.904213786125183,3.674377351999283,4.44454088807106
272,039089,THANGOOL AIRPORT                        ,-24.4935,150.5709,193.1,5.087457,1.8944111713858265,2.685508434951608,2009-10-01 14:30:00,31.879949266666664,223139,2.6783577501773834,3.152897000312805,3.6274362206459045,3.780203729867935,4.2547429502010345,4.729282200336456
273,039122,HERON ISLAND RES STN                    ,-23.4417,151.9125,3.3,7.675639,1.2699357759365844,6.044116008044605,1999-02-16 14:00:00,57.12989618333334,222316,12.194700886600726,16.12207249413484,20.785193245793188,22.464958432939213,28.31634792183685,35.263929785333026
274,039123,GLADSTONE RADAR                         ,-23.8553,151.2628,74.5,6.699093,1.4479017531760239,4.626759274443543,1994-08-10 15:00:00,31.701080016666666,475638,5.369188189506531,6.27514374256134,7.18109929561615,7.472751796245575,8.378707349300385,9.284662902355194
275,039128,BUNDABERG AERO                          ,-24.9069,152.323,30.8,6.6078773,1.5931986210233806,4.147553963009055,1998-11-07 19:00:00,36.75071878333333,349545,6.836682702051989,10.273490814626703,15.271638846787779,17.321875870674027,25.52210111987743,37.447683913581685
276,039304,HERON ISLAND                            ,-23.4483,151.9178,8.0,7.637577,1.2157887372440221,6.2819935922402115,1995-10-11 22:00:00,73.52779168333333,23964,14.032035071034883,22.09881775747568,34.32687740133456,39.47586770401724,60.66793695879471,92.79200635510858
277,039322,RUNDLE ISLAND                           ,-23.5322,151.2771,19.8,7.608096,1.041075531013508,7.307919450700243,1996-01-20 04:00:00,34.823724250000005,411174,2.3492029160261154,3.2073851376771927,4.065567389130592,4.341840356588364,5.200022608041763,6.058204874396324
278,039326,GLADSTONE AIRPORT                       ,-23.8697,151.2214,16.6,5.8156376,1.4861767396465972,3.913153418000537,1996-01-09 08:30:00,31.907905866666667,449236,2.390524208545685,3.0392388999462128,3.6879535615444183,3.8967930376529694,4.545507729053497,5.194222390651703
279,040004,AMBERLEY AMO                            ,-27.6297,152.7111,24.2,4.7296977,1.5675023050510641,3.0173465704480145,1995-10-14 14:00:00,40.774853416666666,354609,2.680657207965851,3.210956573486328,3.7412559390068054,3.9119741916656494,4.442273572087288,4.972572937607765
280,040043,CAPE MORETON LIGHTHOUSE                 ,-27.0314,153.4661,99.9,8.288787,1.061552651491874,7.808173128740951,1996-03-22 06:00:00,36.13290435,393802,24.690750315504264,39.976128356106,64.32201940582878,74.89727375623458,119.94291402712742,191.6896675184106
281,040068,DOUBLE ISLAND POINT LIGHTHOUSE          ,-25.9319,153.1906,95.6,7.680221,1.0271228836996995,7.477412101963741,1995-10-11 22:00:00,36.53298406666667,395888,10.459455027650417,15.26637924731653,21.959245780363197,24.62982886865652,34.99633888620893,49.43003178220251
282,040082,UNIVERSITY OF QUEENSLAND GATTON         ,-27.5436,152.3375,89.0,5.0312443,1.644844678968021,3.058795971611566,2002-07-16 12:00:00,36.77464056666667,296584,20.55288518816365,38.83019482071427,73.27761569632551,89.88690403188447,169.50468554848578,319.5610824812375
283,040093,GYMPIE                                  ,-26.1831,152.6414,64.5,4.9575768,2.933995993773109,1.6897012682466404,2000-07-24 13:00:00,40.46372913333333,295237,108.32423753433555,176.30853338273494,286.72479773353734,335.27602815155507,544.9108494758398,885.3879193586447
284,040126,MARYBOROUGH                             ,-25.5132,152.7152,9.0,5.6644917,1.6981339293246192,3.335715490765361,2007-12-19 13:30:00,30.11522365,267393,2.8974386155605316,3.327094942331314,3.756751239299774,3.8950696885585785,4.324725985527039,4.754382282495499
285,040211,ARCHERFIELD AIRPORT                     ,-27.5716,153.0071,12.5,4.8365245,1.3614898696292181,3.5523764035489336,1994-09-21 12:30:00,35.3203729,425192,2.2447766214609146,2.7915927320718765,3.3384088575839996,3.5144443213939667,4.06126044690609,4.608076572418213
286,040223,BRISBANE AERO                           ,-27.4178,153.1142,4.0,5.7996655,1.4641519716701106,3.9611089308129093,1985-01-06 16:30:00,222.68367203333335,35673,5.804217115044594,6.493334427475929,7.1824517250061035,7.404297947883606,8.093415260314941,8.782532587647438
287,040282,NAMBOUR DPI                             ,-26.6431,152.9392,32.5,4.5757565,2.574281720564626,1.777488653740504,1997-07-14 14:00:00,86.36916196666667,63506,6.11715218733913,7.097351263878281,8.090419354365835,8.412881942577414,9.423221608869284,10.44682600430562
288,040284,BEERBURRUM FOREST STATION               ,-26.9586,152.9619,48.0,4.767545,3.5031418345841563,1.36093411239286,1999-06-23 16:00:00,37.3424239,335219,7.798547580838203,8.58307109773159,9.367594599723816,9.620154738426208,10.404678270220757,11.189201787114143
289,040405,HERVEY BAY AIRPORT                      ,-25.322,152.8817,13.0,5.8742266,1.5584731578496855,3.7692189567348087,1999-06-23 16:00:00,37.79453456666667,331208,1.6316052824258804,2.0306900292634964,2.4297747761011124,2.558251366019249,2.957336112856865,3.356420874595642
290,040555,TOOLARA (KELLY)                         ,-25.9713,152.8609,143.0,5.1647787,1.510898965922738,3.4183481661577426,1998-11-07 20:00:00,61.5093601,132851,2.383716329932213,2.984443888068199,3.5851714462041855,3.778562530875206,4.3792901039123535,4.980017691850662
291,040651,JIMNA FORESTRY                          ,-26.6644,152.4606,523.0,5.4292564,2.3506270019664224,2.3097056379711147,2000-07-24 13:00:00,54.26036055,107113,7.896831551033587,10.829736052005812,14.687212737971635,16.171450187522197,21.712854975561452,29.001138576434904
292,040717,COOLANGATTA                             ,-28.1681,153.5053,4.0,6.196159,1.4584957925489885,4.248321399081233,1994-07-17 00:00:00,35.509998366666665,425619,4.183227062225342,5.044188857078552,5.905150651931763,6.182318449020386,7.043280124664307,7.904241919517517
293,040764,GOLD COAST SEAWAY                       ,-27.939,153.4283,3.0,7.0408583,1.3759580162262985,5.117058940539513,1994-07-17 00:00:00,32.94402423333334,458594,20.360150138762574,35.95408954944772,63.389658697589006,76.06862211590885,133.96611812120537,235.82945831535568
294,040842,BRISBANE AERO                           ,-27.3917,153.1292,4.5,6.2941155,1.4975589577663895,4.202916693679398,1995-10-11 22:00:00,30.575293633333334,473028,4.349030435085297,5.144372373819351,5.939714342355728,6.195757269859314,6.991099238395691,7.78644123673439
295,040861,SUNSHINE COAST AIRPORT                  ,-26.599,153.0912,3.4,6.060612,1.3088200417332412,4.630592448496388,1995-12-23 15:00:00,32.783010133333335,437979,2.4297786170616,3.727535455600024,5.527019637651212,6.243167359005869,9.015223038791007,12.85898652314026
296,040908,TEWANTIN RSL PARK                       ,-26.3911,153.0403,6.4,5.5303464,1.9077447366774778,2.898892229794243,1996-03-21 00:00:00,44.71265595,318277,6.494070631705059,8.475105534302187,10.899257673489513,11.789694839648313,14.955253226393722,18.828882673755416
297,040913,BRISBANE                                ,-27.4808,153.0389,8.1,4.860663,2.4518566698712667,1.9824417132097338,1999-12-10 14:30:00,30.872740166666667,397541,6.563897788524628,7.334926709532738,8.105955630540848,8.354171499609947,9.125200435519218,9.89622938632965
298,040922,KINGAROY AIRPORT                        ,-26.5737,151.8398,433.7,6.441113,2.1602612309961717,2.981636157113037,2001-01-19 12:00:00,40.15200386666667,291111,7.5887532234191895,8.514990597963333,9.441227942705154,9.739409774541855,10.665647119283676,11.59188449382782
299,040925,BANANA BANK NORTH BEACON                ,-27.5327,153.3333,7.0,7.2326503,1.3615727163666727,5.311982381153282,2002-08-23 12:00:00,31.074932266666668,349222,5.654323607683182,6.718153864145279,7.7819841504096985,8.124460995197296,9.188291281461716,10.252121567726135
300,040926,INNER RECIPROCAL MARKER                 ,-27.2633,153.2419,10.0,7.549843,1.2238076221335275,6.169141863416917,2002-03-20 09:00:00,31.461051683333334,352082,6.060763559043539,8.697710364744957,12.265438429583824,13.663247087068406,18.98369481720509,26.182137593250403
301,040927,SPITFIRE CHANNEL BEACON                 ,-27.0481,153.2664,7.0,7.3743234,1.2257160782095826,6.016338937842985,2002-07-23 10:00:00,30.339635616666666,314013,6.171786000149178,10.488393229945746,17.385028394749703,20.386573035890898,33.19933145341617,53.6702512189393
302,040958,REDCLIFFE                               ,-27.2169,153.0922,12.6,6.241101,1.154757626433685,5.404684624072381,2004-02-27 12:00:00,30.475048933333333,329966,2.2497403586633364,3.759020398618336,6.072078235827545,7.052803831513832,11.119989413236317,17.3531835429804
303,040959,REDCLIFFE JETTY                         ,-27.2261,153.1172,3.6,7.0661044,1.1597489725926107,6.0927878179384205,2004-11-04 10:30:00,30.27108433333333,332,0,0,0,0,0,0
304,040983,BEAUDESERT DRUMLEY STREET               ,-27.9707,152.9898,47.8,4.631388,2.923623947136006,1.584125821634952,2007-08-13 10:00:00,31.83444186666667,258749,8.543521165847778,9.425981730222702,10.308442264795303,10.592531114816666,11.474991649389267,12.35745221376419
305,040988,NAMBOUR DAFF - HILLSIDE                 ,-26.6442,152.9383,53.2,4.614295,3.6426475147966535,1.2667421118993247,2007-12-19 08:00:00,32.62527801666667,246831,9.186461687088013,10.045414984226227,10.904368251562119,11.180889457464218,12.039842754602432,12.898796051740646
306,041097,INGLEWOOD FOREST                        ,-28.3661,150.9539,379.0,5.4786572,1.5548534859766727,3.523584244463135,2000-07-24 13:00:00,52.14789945,145058,2.8536925371475115,19.736582789785285,156.7809807216177,307.1883303238605,2490.1285939423715,20209.827630783435
307,041175,APPLETHORPE                             ,-28.6217,151.9533,871.6,7.269514,3.14054458262395,2.3147304209859576,1997-03-24 00:00:00,40.32258443333333,339787,327.45334647615505,554.2419801668491,937.6285021899103,1110.469181386569,1877.9314118193727,3175.3274520062278
308,041359,OAKEY AERO                              ,-27.4034,151.7413,405.7,5.9872656,1.352256566574585,4.4276106582491455,1995-11-06 15:00:00,38.416543716666666,375513,2.5407038927078247,3.188645824790001,3.8365877717733383,4.0451785027980804,4.693120449781418,5.341062411665916
309,041522,DALBY AIRPORT                           ,-27.1605,151.2633,345.9,6.016582,1.3950321399132881,4.31286265028309,2006-07-06 15:00:00,35.768355449999994,246507,1.6765429303050041,2.060249410569668,2.4439558908343315,2.5674817860126495,2.951188273727894,3.3348947539925575
310,041525,WARWICK                                 ,-28.2061,152.1003,475.4,5.808574,2.164506700935776,2.6835556559678504,1998-11-13 00:30:00,43.617628466666666,294342,7.4836825132369995,8.364948987960815,9.246215492486954,9.529919922351837,10.411186426877975,11.292452961206436
311,041529,TOOWOOMBA AIRPORT                       ,-27.5425,151.9134,640.9,7.552426,1.3554594995861566,5.571856528110591,1996-06-25 15:00:00,38.328849983333335,367657,5.002126038074493,5.927072465419769,6.852018862962723,7.149785101413727,8.074731528759003,8.999677956104279
312,041560,GOONDIWINDI AIRPORT                     ,-28.5226,150.3223,216.5,5.778338,1.9280334793674632,2.997011212362647,2021-09-29 11:30:00,30.071706,26776,5.1634958535432816,5.86819551885128,6.572895184159279,6.799757808446884,7.504457503557205,8.209157183766365
313,042112,MILES CONSTANCE STREET                  ,-26.6569,150.1819,304.8,5.759771,2.487790398062103,2.3152154919061467,1998-11-10 13:00:00,47.07866073333333,272779,5.006964311003685,5.581150323152542,6.15533635020256,6.340182974934578,6.914369001984596,7.488555043935776
314,043091,ROMA AIRPORT                            ,-26.5477,148.771,307.4,6.437793,1.793609187780103,3.589295160771897,1997-03-24 00:00:00,39.994658066666666,342573,4.685662433505058,5.407586514949799,6.1295106112957,6.36191825568676,7.083842352032661,7.805766463279724
315,043109,ST GEORGE AIRPORT                       ,-28.0478,148.5957,198.5,6.4078445,1.8280458165113778,3.505297561789611,1998-11-09 07:00:00,43.24957655,296971,5.009851321578026,5.728966593742371,6.448081865906715,6.67958527803421,7.398700565099716,8.117815852165222
316,044021,CHARLEVILLE AERO                        ,-26.4139,146.2558,301.6,5.9635735,1.7634357810057932,3.3817922489976717,1995-10-13 21:00:00,33.13925906666667,436345,3.7478044629096985,4.334313631057739,4.92082279920578,5.109636589884758,5.696145758032799,6.282654955983162
317,045009,BALLERA GAS FIELD                       ,-27.4008,141.8114,114.5,7.179987,1.3934392001009306,5.152709176844806,2002-08-15 17:00:00,45.626354516666666,238092,6.378508129635973,8.865125984339933,12.103184490650994,13.341153739269773,17.931840357058796,23.909804290849518
318,045025,THARGOMINDAH AIRPORT                    ,-27.9867,143.815,130.9,6.581221,1.6770308740351532,3.9243291256963824,1999-09-14 09:00:00,41.981979833333334,295336,4.639001339673996,5.382826745510101,6.126652166247368,6.36611045897007,7.109935879707336,7.853761315345764
319,140007,REDLAND (ALEXANDRA HILLS)               ,-27.5433,153.2394,50.5,5.814766,2.2568334921651125,2.5765152592614777,2015-08-19 15:30:00,30.09544055,133591,7.596928536891937,8.446660190820694,9.296391874551773,9.569944381713867,10.419676065444946,11.269407749176025
320,140008,CANUNGRA (DEFENCE)                      ,-28.0437,153.1871,108.1,4.423792,4.979587324250149,0.8883852410484905,2018-03-21 10:00:00,30.030820983333335,88576,12.109925508499146,13.154920935630798,14.199916362762451,14.536329746246338,15.58132517337799,16.626320600509644
321,140009,GREENBANK (DEFENCE)                     ,-27.6932,152.9935,41.5,4.908845,4.074607603621586,1.2047405358621208,2018-03-21 10:00:00,30.029464883333333,88580,13.417438805103302,14.61474597454071,15.812053173780441,16.197499990463257,17.39480721950531,18.59211441874504
322,140010,TIN CAN BAY (DEFENCE)                   ,-25.9351,152.9647,31.3,5.0545983,2.5170254619583043,2.0081633689628315,2018-03-21 10:00:00,30.023702833333335,88597,6.529786705970764,7.266550302505493,8.003313928842545,8.240498811006546,8.977262437343597,9.714026063680649
323,200001,MIDDLE PERCY ISLAND                     ,-21.6628,150.2711,208.7,8.471742,1.4534425720169846,5.828741939610372,2004-07-19 15:00:00,36.462420083333335,270131,133.09618454220623,251.6200122609913,475.3389764409648,583.3076606146562,1101.414075002859,2079.3628351195503
324,200283,WILLIS ISLAND                           ,-16.2878,149.9652,9.3,8.290417,1.040761841449712,7.965719329199558,1996-02-25 14:00:00,36.16495341666667,394474,3.1659843866913864,6.388793560184642,12.597351956040075,15.631364651532296,30.402638977200773,58.85865802616844
325,200601,CATO ISLAND                             ,-23.2503,155.542,6.3,7.3083787,0.950709216268996,7.68729130987387,2011-08-19 08:30:00,49.47765533333334,123788,3.69552481174469,4.6092188358306885,5.522912874817848,5.81705667078495,6.730750724673271,7.644444793462753
326,200701,FREDERICK REEF                          ,-20.9375,154.4019,4.9,7.7917237,1.0224229878430835,7.6208416876633915,2008-10-16 14:30:00,50.6870808,150288,8.929516315460205,11.8911452293396,14.852774024009705,15.80620563030243,18.767834544181824,21.72946345806122
327,200704,MARION REEF                             ,-19.0964,152.3892,2.0,,,7.76277146026492,2009-03-06 14:00:00,43.98323633333334,168579,,,,,,
328,200732,HOLMES REEF                             ,-16.4683,147.8734,1.9,7.975161,1.031560998777314,7.731158007180205,2004-03-04 08:00:00,63.81355931666667,156232,,3.0,3.0,3.0,3.0,3.0
329,200736,CREAL REEF                              ,-20.5303,150.3773,1.7,7.5786285,0.9909511594758218,7.647832557204827,2008-04-10 15:00:00,49.206623416666666,160340,11.552574157714844,14.758379936218262,17.96418571472168,18.996224641799927,22.202030420303345,25.407836198806763
330,200783,FLINDERS REEF                           ,-17.7195,148.4478,2.6,7.5321856,0.9885226550805489,7.619638776908599,2006-03-18 00:00:00,53.84922253333333,166696,11.241608705036954,40.670434190147965,152.5780523948995,234.15328709429983,888.3262474058948,3375.9191661059385
331,200831,GANNET CAY                              ,-21.9769,152.4707,2.3,7.768302,1.0328936491363119,7.520911732105115,2004-03-04 09:00:00,62.25460065,161390,1.471101775765419,2.048724427819252,2.626347094774246,2.8123000636696815,3.389922745525837,3.967545434832573
332,200840,BOUGAINVILLE REEF                       ,-15.4877,147.1183,0.0,8.515772,1.0708423677827597,7.952404688168175,2009-02-01 11:00:00,45.73303016666667,163172,12.660901464416952,25.988192290358302,52.91042047823431,66.45372794337207,134.65414460215828,272.4246190201231
333,200869,WILLIS ISLAND COMPARISON                ,-16.2878,149.965,8.1,8.290417,2.0165878502098287,4.111111111111112,2005-10-25 15:00:00,0.0,0,0,0,0,0,0,0
334,200879,ARLINGTON REEF                          ,-16.7226,146.1124,0.0,7.972325,1.113210896493483,7.161558401276142,2010-05-04 11:00:00,30.15007975,225680,5.829516530036926,7.631699204444885,9.433881938457489,10.014055132865906,11.81623786687851,13.618420600891113
335,200880,LIHOU REEF LIGHTHOUSE                   ,-17.133,152.145,10.3,,,6.855522268173284,2013-09-30 09:30:00,32.6390309,153545,,,,,,
336,200892,TORRES STRAIT NTC AWS                   ,-10.5865,142.2219,3.0,7.4860168,1.365436397139744,5.482508570898704,2016-12-01 16:30:00,38.22459501666666,87473,2.7121217846870422,3.162667468190193,3.613213136792183,3.7582564502954483,4.208802133798599,4.659347832202911
337,200897,HOPE BANKS BEACON                       ,-27.4344,153.2904,7.0,7.476102,1.5033449291600596,4.972978409873097,2021-04-16 14:00:00,30.366460166666666,34383,19.523262886051103,44.292699998116184,100.97929050325628,131.72957879543011,301.08470755436775,688.6657733035845
338,016001,WOOMERA AERODROME                       ,-31.1558,136.8054,166.6,7.554833,1.4695788719283713,5.140814882170871,1992-04-07 16:00:00,36.5276577,446494,108.77018659957606,225.19411566913152,466.10650274089363,589.0839628436449,1219.0923572349793,2522.7489798984343
339,016090,COOBER PEDY AIRPORT                     ,-29.0347,134.7222,225.0,7.636268,1.3562760277309724,5.630320069625391,1994-10-07 09:30:00,39.8284421,376491,12.354330342011478,17.466898787311617,24.450400895974052,27.203191902795783,37.74966998743234,52.155609532499334
340,016092,PORT AUGUSTA ARID LANDS                 ,-32.4783,137.7386,18.5,6.2530103,1.348337470088707,4.637570646589204,1994-10-31 13:00:00,104.01381313333333,33736,828.761631140381,51465.70437667947,3197857.054562874,12083346.260940416,750814179.388333,46652801492.253395
341,016096,ROXBY DOWNS (OLYMPIC DAM AERODROME)     ,-30.4869,136.8739,99.2,7.5228577,1.751505269825423,4.295081376926401,1998-09-06 09:30:00,41.40333188333333,312435,33.83401332960339,48.971319758954735,70.58708642408472,79.35182427374284,113.96983089221682,163.40364244711373
342,016097,ERNABELLA (PUKATJA)                     ,-26.2635,132.1771,703.2,6.9297357,1.6323172843245468,4.24533620215907,1997-08-11 10:30:00,45.26391146666666,298225,5.67900937795639,6.446893334388733,7.21477735042572,7.461980760097504,8.229864776134491,8.997748732566833
343,016098,TARCOOLA AERO                           ,-30.7051,134.5786,123.0,7.225655,1.6455302386649222,4.391080096316172,1997-09-29 09:30:00,43.88586946666667,305983,25.12383588351452,36.42028077170844,52.520249717448245,59.0404528303581,84.75907098342996,121.41387324113701
344,017043,OODNADATTA AIRPORT                      ,-27.5553,135.4456,116.5,6.5099835,1.3120063313808288,4.961853753197843,1995-03-05 10:30:00,43.708133966666665,338162,4.818751254441938,6.704733150242219,9.162393279804709,10.102430208231945,13.589999191795668,18.134718978920738
345,017110,LEIGH CREEK AIRPORT                     ,-30.5963,138.4219,258.8,7.4333596,1.6466827062096459,4.514142035332064,1992-07-29 09:30:00,47.97146141666666,336597,73.88619836743943,119.08041702844716,191.44283456381032,222.97880848473932,357.7990413213115,573.6655452631207
346,017123,MOOMBA AIRPORT                          ,-28.0997,140.1956,37.8,7.9937577,1.71224951189325,4.668570596304736,1995-10-19 11:30:00,41.4756046,348446,22.481038335824444,31.640222033786642,44.242100625536516,49.232549726964855,68.44691898561167,94.88346143298774
347,017126,MARREE AERO                             ,-29.6587,138.0684,50.0,6.9300995,1.382128573677916,5.014077285779088,1998-10-10 09:30:00,43.516355483333335,296139,9.750664812537222,12.23724216774198,15.093113866907663,16.099894449395826,19.529428430700875,23.468300076111277
348,018012,CEDUNA AMO                              ,-32.1297,133.6976,15.3,7.64024,1.4099227424851364,5.418906981347508,1992-04-14 09:30:00,35.41178386666666,460290,42.95975261941261,84.2379602556005,165.10915389117238,205.03890475094917,401.7792307449607,787.2277739476585
349,018083,WUDINNA AERO                            ,-33.043,135.4519,86.4,7.041612,1.534067820588156,4.59015700204518,1999-07-13 17:30:00,41.152801849999996,303478,19.56321519071624,25.992561857095552,34.23489950008769,37.35462284793198,48.800911859704414,63.47490343145259
350,018106,NULLARBOR                               ,-31.4492,130.8976,64.0,8.068025,1.4032624980865533,5.749476413939842,1992-04-06 10:00:00,44.46797778333334,366808,29.74399538603973,47.0401299629689,74.0115693890475,85.5727800935398,134.09904351804852,209.7704699114489
351,018115,NEPTUNE ISLAND                          ,-35.3365,136.1174,32.0,8.759283,1.0764266443852888,8.137371098611213,1995-08-15 13:00:00,40.146253949999995,362314,29.30097901975255,46.333441836583866,72.95058608983565,84.37526109214369,132.39968641492823,207.44890685022602
352,018116,CLEVE AERODROME                         ,-33.7081,136.5026,175.0,7.49255,1.384112515994506,5.413252036707957,1996-07-16 17:30:00,43.45663291666666,323575,19.823314875963234,26.533386191739957,35.18267660174444,38.4679241523981,50.56631112262525,66.16114722400151
353,018120,WHYALLA AERO                            ,-33.0539,137.5206,9.3,6.8054705,1.3974593545902072,4.869887946479427,1992-04-06 10:30:00,34.55202128333334,472076,9.77119368314743,11.211939096450806,12.652684569358826,13.116501033306122,14.557246446609497,15.997991919517517
354,018191,COULTA (COLES POINT)                    ,-34.3749,135.3741,28.0,7.9129443,1.5169313099305037,5.21641571049551,1992-04-06 10:30:00,37.826146683333334,349397,42.420430932188914,68.74632236764432,111.06089542292698,129.5464473718283,208.78717138084858,336.1537000036065
355,018192,NORTH SHIELDS (PORT LINCOLN AWS)        ,-34.5993,135.8784,8.5,6.7399406,1.2969900822094667,5.1966015282312945,1992-04-06 10:30:00,35.22567853333333,463048,19.86804807518031,31.34444705535095,49.23120452601772,56.89575981580727,89.05468358013054,139.17657903566197
356,018195,MINNIPA PIRSA                           ,-32.8427,135.1515,165.0,7.5427666,1.493868637339216,5.049149826506579,1996-07-19 04:30:00,42.7346265,328959,11.425797834827542,15.61445085762977,21.111551069358452,23.223715091227,31.097789557459635,41.431559430462585
357,018200,THEVENARD WIND                          ,-32.1803,133.6343,8.5,8.405201,1.340730996158099,6.269118102242198,2002-07-12 12:00:00,31.427733049999997,269230,21.956490320553492,38.91031691848948,68.88052856127906,82.77163450784867,146.41659179107427,258.92528289723435
358,018201,PORT AUGUSTA AERO                       ,-32.5073,137.7169,14.0,6.0209565,1.168011238782022,5.1548789226929,2001-07-02 17:30:00,37.97463316666666,301575,2.7472708970308304,3.40961155295372,4.07195220887661,4.2851782739162445,4.947518944740295,5.609859615564346
359,018207,CEDUNA (THEVENARD NTC AWS)              ,-32.149,133.6416,5.0,8.236557,1.7264081948489427,4.770920939445969,2021-06-04 14:00:00,30.027759783333334,32421,191.7543141388352,338.45168810205337,597.019787919179,716.6487821194869,1263.6282030160412,2227.7315518306514
360,018217,CUMMINS AERO                            ,-34.2524,135.7135,60.1,6.980287,1.576538852040701,4.4276023175751815,2007-05-25 08:30:00,35.470366399999996,235476,15.774462961429352,20.57119021366208,26.6024895802099,28.857054348387425,37.02095293641045,47.28605949621907
361,018229,CULTANA (DEFENCE)                       ,-32.6845,137.3689,171.0,7.730015,1.3638009662638504,5.667993345247336,2017-12-06 14:30:00,30.020505366666665,93634,7.627860128879547,8.589506685733795,9.55115321278572,9.86073425412178,10.822380810976028,11.784027367830276
362,018230,COFFIN BAY (POINT AVOID)                ,-34.675,135.3362,35.0,8.706226,1.5833697407210847,5.498542838713109,2017-06-13 08:30:00,30.570362683333332,100252,10.706900596618652,11.898697555065155,13.090494513511658,13.474167466163635,14.665964424610138,15.857761442661285
363,020062,YUNTA AIRSTRIP                          ,-32.5707,139.5645,300.0,6.627433,1.6220279988416535,4.085892985764754,1998-07-05 09:30:00,41.9709252,310372,19.426412970692958,24.686811524866936,31.061040174294224,33.38762435065435,41.604152034788214,51.56043683405377
364,021131,CLARE HIGH SCHOOL                       ,-33.8226,138.5933,395.0,7.7164545,2.561943282543884,3.0119536831659866,1993-10-02 21:30:00,45.43586021666667,341738,306.1188516774844,525.2361923366133,900.7726452987354,1071.5242811361154,1837.0339678672954,3149.010425770677
365,021133,SNOWTOWN (RAYVILLE PARK)                ,-33.7676,138.2182,109.1,5.9311748,1.2432397469543641,4.770740936835695,1998-10-10 09:30:00,36.88141606666667,349415,4.982119917869568,5.832630276679993,6.68314066529274,6.956943839788437,7.807454243302345,8.657964631915092
366,021139,PORT PIRIE AERODROME AWS                ,-33.2371,137.9971,12.0,5.8863773,1.1522652141986136,5.108526459065789,2015-01-22 11:00:00,30.40866585,142121,1.5777146618347615,1.924288748530671,2.270863064331934,2.3824351222719997,2.72900974098593,3.0755845888052136
367,022031,MINLATON AERO                           ,-34.748,137.5276,32.0,7.4820786,1.220844676884311,6.128608080874735,2001-03-29 14:30:00,34.760692133333336,333399,5.601873874664307,6.503592550754547,7.405311226844788,7.695599809288979,8.59731850028038,9.499037206172943
368,022046,EDITHBURGH                              ,-35.1121,137.7395,6.0,7.637971,1.4026918671035902,5.445223647121474,1993-01-20 10:30:00,35.79894956666667,444008,22.59006405782674,34.297251172448824,51.82256067927198,59.14402577251937,89.0174402732483,133.7370496913651
369,022049,STENHOUSE BAY                           ,-35.2795,136.9392,42.0,7.8783484,1.3589176025150411,5.79751732992781,1996-06-25 19:30:00,41.56115343333333,339057,21.5981664450415,32.28175355757543,47.99095728086102,54.47991971420094,80.63125971529995,119.08433014817558
370,022050,KADINA AWS                              ,-33.9703,137.6628,41.1,6.9595814,1.2916520498532478,5.3881239734128,2005-07-19 18:30:00,31.526231783333333,295748,5.121285170316696,5.94617086648941,6.771056577563286,7.036610469222069,7.861496180295944,8.68638189136982
