,station no.,station name,latitude,longitude,altitude,meanSpeed-100m,scaleFactor,meanSpeed-10m,startTime,meanRes,Observations,1-in-5-year duration,1-in-10-year duration,1-in-20-year duration,1-in-25-year duration,1-in-50-year duration,1-in-100-year duration
0,046012,WILCANNIA AERODROME AWS                 ,-31.5194,143.385,94.3,6.71817,1.5532303593202021,4.32528898608185,2000-01-19 14:00:00,29.999778966666668,337043,7.0,8.0,8.0,8.0,9.0,9.0
1,046126,TIBOOBURRA AIRPORT                      ,-29.4448,142.0567,176.4,6.8355446,1.4524444277091573,4.706234851933636,1997-09-21 16:00:00,29.999933016666667,311044,6.0,7.0,8.0,8.0,8.0,9.0
2,046128,FOWLERS GAP AWS                         ,-31.0863,141.7008,181.0,7.20423,1.67380824628288,4.304095076418935,2004-10-26 18:00:00,29.999907266666664,246974,9.0,9.0,10.0,10.0,11.0,11.0
3,046129,WHITE CLIFFS AWS                        ,-30.8522,143.0743,158.0,7.044349,1.4696491699341039,4.7932182303677635,2005-07-05 18:00:00,29.99990366666667,247031,7.0,8.0,8.0,8.0,9.0,9.0
4,047048,BROKEN HILL AIRPORT AWS                 ,-32.0012,141.4694,281.3,7.2803807,1.54452248936156,4.713677383143833,1989-01-01 13:30:00,29.99960056666667,412621,11.0,12.0,12.0,13.0,13.0,14.0
5,048027,COBAR MO                                ,-31.484,145.8294,260.0,7.035547,2.142834558977437,3.2832897668917282,1989-01-18 16:30:00,29.95861035,388321,9.0,9.0,10.0,10.0,11.0,11.0
6,048237,COBAR AIRPORT AWS                       ,-31.5388,145.7964,218.0,6.9146757,1.9921020996073386,3.4710448394931137,1993-09-19 07:30:00,29.815431349999997,363804,8.0,9.0,9.0,10.0,10.0,11.0
7,048244,COBAR COMPARISON                        ,-31.4861,145.8281,260.0,7.022478,2.2774671651168816,3.0834596481558036,2000-01-15 00:30:00,29.8514146,192,5.0,5.0,6.0,6.0,6.0,7.0
8,048245,BOURKE AIRPORT AWS                      ,-30.0362,145.9521,107.3,6.5867133,1.7964952174921043,3.6664240738984017,1999-02-04 14:00:00,29.999787700000002,334603,7.0,7.0,8.0,8.0,9.0,9.0
9,049000,IVANHOE AERODROME AWS                   ,-32.8833,144.3092,100.0,6.7661037,1.6756585424009818,4.037877391662365,2000-07-24 13:00:00,29.99992465,290675,6.0,7.0,7.0,7.0,8.0,9.0
10,050017,WEST WYALONG AIRPORT AWS                ,-33.9382,147.1962,257.0,6.160394,1.7269384336578046,3.5672344026148615,1999-04-30 18:00:00,29.999928533333332,303957,8.0,8.0,9.0,9.0,10.0,10.0
11,050137,CONDOBOLIN AIRPORT AWS                  ,-33.0682,147.2133,192.6,6.2185802,1.7069164935611674,3.64316606549261,1993-06-15 00:00:00,29.999942616666665,384385,8.0,9.0,9.0,10.0,10.0,11.0
12,051049,TRANGIE RESEARCH STATION AWS            ,-31.9861,147.9489,215.0,6.804929,1.992024359019688,3.416087132062422,1997-10-10 10:00:00,29.999932883333333,324756,9.0,10.0,10.0,11.0,11.0,12.0
13,051161,COONAMBLE AIRPORT AWS                   ,-30.9776,148.3798,181.3,6.300622,1.5701081906739833,4.012858492053698,1997-09-17 10:00:00,29.99993305,320949,6.0,6.0,7.0,7.0,8.0,8.0
14,052088,WALGETT AIRPORT AWS                     ,-30.0372,148.1223,133.0,6.490273,1.7436664019790453,3.7221988055991755,1997-05-23 10:00:00,29.99993388333333,359181,7.0,8.0,8.0,9.0,9.0,10.0
15,053000,MOREE AUTOSONDE                         ,-29.4917,149.8461,213.0,5.68134,1.8875748678680468,3.009862185761785,2000-06-30 11:00:00,29.144011433333333,16068,5.0,6.0,6.0,6.0,7.0,7.0
16,053115,MOREE AERO                              ,-29.4898,149.8471,213.0,5.6745696,1.4232009736444662,3.987187833528412,1989-01-06 12:30:00,29.987767833333333,462894,5.0,6.0,6.0,6.0,7.0,7.0
17,054038,NARRABRI AIRPORT AWS                    ,-30.3154,149.8302,229.0,5.81251,1.4783943792424543,3.9316369807620055,2001-07-13 15:00:00,29.9999213,311683,7.0,7.0,8.0,8.0,9.0,9.0
18,055024,GUNNEDAH RESOURCE CENTRE                ,-31.0261,150.2687,307.3,4.7722683,,,,,,,,,,,
19,055202,GUNNEDAH AIRPORT AWS                    ,-30.9537,150.2494,262.6,4.8859096,1.3852932624159988,3.5269857220133565,2001-09-14 09:00:00,29.99936508333333,286633,4.0,4.0,5.0,5.0,6.0,6.0
20,055325,TAMWORTH AIRPORT AWS                    ,-31.0742,150.8362,394.9,4.44476,1.301401571902856,3.415363821356614,1989-01-01 18:00:00,29.999151233333336,346076,2.0,3.0,3.0,4.0,4.0,5.0
21,056018,INVERELL RESEARCH CENTRE                ,-29.7752,151.082,664.0,4.4586205,1.647498050672714,2.7062979203087534,2002-12-18 10:30:00,29.999747266666667,288975,4.0,5.0,6.0,6.0,7.0,8.0
22,056238,ARMIDALE AIRPORT AWS                    ,-30.5273,151.6158,1079.0,6.852955,1.5396769977955087,4.450904231416026,1993-06-19 11:00:00,29.86184198333333,431938,8.0,9.0,9.0,10.0,10.0,11.0
23,056243,GLEN INNES AIRPORT AWS                  ,-29.678,151.694,1044.3,6.608227,1.540035480874394,4.290957486493142,1996-10-16 10:00:00,29.99993538333333,334607,8.0,8.0,9.0,9.0,10.0,10.0
24,058009,BYRON BAY (CAPE BYRON LIGHTHOUSE)       ,-28.6388,153.6361,95.0,7.9893312,1.3220079541442098,6.043330692812803,1994-06-28 03:00:00,30.000203366666664,22229,2.0,2.0,3.0,3.0,4.0,4.0
25,058012,YAMBA PILOT STATION                     ,-29.4325,153.3632,27.4,7.1609964,1.8328044611174739,3.9071251674642062,2007-10-10 14:00:00,29.9998896,234956,11.0,12.0,13.0,13.0,13.0,14.0
26,058077,GRAFTON RESEARCH STN                    ,-29.6224,152.9605,25.0,4.9202986,1.8536765321890587,2.6543458316022708,2002-08-30 09:00:00,29.999916983333332,337899,7.0,7.0,8.0,8.0,9.0,9.0
27,058161,GRAFTON AIRPORT AWS                     ,-29.7583,153.0297,25.1,4.696321,2.0171881456882015,2.3281521957325215,2006-04-07 12:00:00,29.9998994,281959,7.0,7.0,8.0,8.0,9.0,9.0
28,058198,BALLINA AIRPORT AWS                     ,-28.8353,153.5585,1.3,5.639257,1.495902808394174,3.7698017027234276,1995-07-23 13:30:00,29.990619366666667,352445,6.0,7.0,8.0,8.0,9.0,9.0
29,058208,CASINO AIRPORT AWS                      ,-28.8824,153.0618,20.9,5.3796363,1.8863823972369105,2.8518270185138825,1995-07-20 10:00:00,29.999938283333332,370295,6.0,7.0,7.0,8.0,8.0,9.0
30,058212,EVANS HEAD RAAF BOMBING RANGE AWS       ,-29.183,153.3964,62.5,6.419108,1.4242780609745558,4.506920446123211,1998-03-01 11:00:00,29.999795566666666,348079,8.0,9.0,10.0,10.0,11.0,11.0
31,058214,LISMORE AIRPORT AWS                     ,-28.8305,153.2601,9.2,4.5676584,1.4948142921348153,3.055669489120385,2002-02-22 10:00:00,29.999757066666668,289928,4.0,5.0,6.0,6.0,6.0,7.0
32,058216,BYRON BAY (CAPE BYRON AWS)              ,-28.6399,153.6358,95.0,7.869695,1.272936868823769,6.182313812535589,2002-11-26 10:00:00,29.99974801666667,297073,10.0,11.0,12.0,12.0,12.0,13.0
33,059007,KEMPSEY AIRPORT AWS                     ,-31.0711,152.7717,13.0,4.549746,1.6665573682638677,2.7300266544494827,2001-02-16 10:00:00,29.999768200000002,325449,6.0,6.0,7.0,7.0,8.0,8.0
34,059040,COFFS HARBOUR MO                        ,-30.3107,153.1187,5.0,6.163791,1.5172709852411919,4.062419462056186,1989-01-10 17:30:00,29.962056766666667,313721,7.0,8.0,9.0,9.0,9.0,10.0
35,059151,COFFS HARBOUR AIRPORT                   ,-30.3189,153.1162,3.5,6.177133,1.4694295705113938,4.203762607821842,2015-02-06 13:30:00,25.361313600000003,142295,7.0,7.0,8.0,8.0,9.0,9.0
36,060139,PORT MACQUARIE AIRPORT AWS (COMPARISON) ,-31.4335,152.8655,4.2,5.4161415,1.6517227684284623,3.2790863052417527,1995-07-20 10:00:00,30.000067783333336,325884,6.0,7.0,8.0,8.0,8.0,9.0
37,060141,TAREE AIRPORT AWS                       ,-31.8895,152.512,8.0,5.3712063,1.7574059665951238,3.056326418406186,1997-06-19 10:00:00,29.9999337,323232,7.0,8.0,8.0,8.0,9.0,9.0
38,060168,PORT MAQUARIE (PORT MACQUARIE AIRPORT AW,-31.4343,152.8662,4.5,5.437029,1.8559679078884548,2.9294843201644762,2020-10-15 15:00:00,29.997935199999997,43341,8.0,8.0,9.0,9.0,10.0,10.0
39,061055,NEWCASTLE NOBBYS SIGNAL STATION AWS     ,-32.9184,151.7985,33.0,7.647431,1.3864069844669058,5.516007191567622,2001-10-16 16:00:00,29.99992035,343087,10.0,11.0,11.0,11.0,12.0,12.0
40,061078,WILLIAMTOWN RAAF                        ,-32.7939,151.8364,7.5,6.0903215,1.4656620348935916,4.155338267511775,1989-02-20 13:30:00,29.87982525,406527,10.0,10.0,11.0,11.0,12.0,12.0
41,061087,GOSFORD (NARARA RESEARCH STATION) AWS   ,-33.3949,151.3289,20.0,5.132375,3.7400750243948013,1.3722651898725649,1999-04-30 18:00:00,29.999878483333337,145362,11.0,11.0,12.0,12.0,12.0,13.0
42,061250,PATERSON (TOCAL AWS)                    ,-32.6296,151.5919,30.0,5.5844955,2.2581798422371984,2.473007437220317,2002-07-18 10:00:00,29.99991745,290485,12.0,12.0,13.0,13.0,14.0,14.0
43,061260,CESSNOCK AIRPORT AWS                    ,-32.7914,151.3369,66.5,5.59944,1.9023789693460336,2.94338835113054,1994-06-28 00:00:00,29.99994055,377881,8.0,9.0,9.0,9.0,10.0,10.0
44,061287,MERRIWA (ROSCOMMON)                     ,-32.1852,150.1737,375.0,6.1609936,1.709198837206918,3.604609037833055,2007-08-02 16:00:00,29.999890933333333,273201,9.0,9.0,10.0,10.0,11.0,11.0
45,061363,SCONE AIRPORT AWS                       ,-32.0335,150.8264,221.4,4.981134,1.5431526204169874,3.2278945529637255,1989-01-01 11:00:00,29.99985021666667,413450,6.0,7.0,7.0,7.0,8.0,8.0
46,061366,NORAH HEAD AWS                          ,-33.2814,151.5766,18.8,7.2648263,1.3914269878390986,5.2211336715858625,1989-10-25 10:00:00,29.99994885,537971,10.0,11.0,12.0,12.0,13.0,13.0
47,061375,MANGROVE MOUNTAIN AWS                   ,-33.2894,151.2107,305.0,5.8208604,2.4710906980182394,2.3555834638376396,1994-06-28 00:00:00,29.99994055,384876,9.0,10.0,10.0,10.0,11.0,11.0
48,061379,WILLIAMTOWN COMPARISON AWS              ,-32.8081,151.8419,4.9,6.257231,1.6171600943142685,3.8692713587874126,1995-07-20 10:00:00,29.999579116666666,31295,3.0,4.0,4.0,5.0,5.0,5.0
49,061392,MURRURUNDI GAP AWS                      ,-31.7416,150.7937,729.4,7.8514023,1.2853191967269537,6.1085233167825725,2003-06-20 11:00:00,29.999913616666667,307424,11.0,12.0,13.0,13.0,13.0,14.0
50,061412,COORANBONG (LAKE MACQUARIE AWS)         ,-33.0887,151.4636,6.0,4.5537534,3.5015470005462097,1.300497573014652,2008-07-31 09:00:00,29.99988355,257333,12.0,12.0,13.0,13.0,13.0,14.0
51,061425,GOSFORD AWS                             ,-33.4351,151.3614,7.0,5.557721,2.7091803595192916,2.0514400669088833,2013-06-04 14:30:00,29.999826283333334,172566,12.0,12.0,13.0,13.0,14.0,14.0
52,061428,MAITLAND AIRPORT AWS                    ,-32.7023,151.4881,27.5,5.980704,1.8685466648583606,3.200724896625658,2016-07-11 11:00:00,29.999746466666668,117530,13.0,13.0,14.0,14.0,15.0,15.0
53,061430,SINGLETON DEFENCE AWS                   ,-32.6976,151.1564,125.0,5.506022,1.7111914693142536,3.217653941833547,2017-04-03 13:30:00,29.999715783333333,105494,9.0,9.0,10.0,10.0,11.0,11.0
54,062100,NULLO MOUNTAIN AWS                      ,-32.7244,150.229,1130.0,7.790032,2.1173627836043893,3.6791200687308034,1989-01-03 10:00:00,29.999850183333333,450439,9.0,10.0,10.0,10.0,11.0,11.0
55,062101,MUDGEE AIRPORT AWS                      ,-32.5628,149.6149,471.0,4.7964463,1.5703694057953173,3.0543426952243786,1989-01-01 11:00:00,29.99985021666667,408420,5.0,5.0,6.0,6.0,7.0,7.0
56,063291,BATHURST AIRPORT AWS                    ,-33.4119,149.654,744.5,4.5955534,1.3808369884047522,3.328092625503505,1989-01-01 11:00:00,29.99985021666667,420341,3.0,4.0,5.0,5.0,6.0,6.0
57,063292,MOUNT BOYCE AWS                         ,-33.6185,150.2741,1080.0,7.1276574,1.767092025187641,4.0335519100799555,1989-09-25 00:00:00,29.999948983333336,438406,13.0,14.0,15.0,15.0,15.0,16.0
58,063303,ORANGE AIRPORT AWS                      ,-33.3768,149.1263,944.7,6.7261634,1.633677570631025,4.117191487608252,1996-03-14 14:00:00,29.999810383333333,365576,8.0,9.0,9.0,10.0,10.0,11.0
59,063308,MARRANGAROO (DEFENCE)                   ,-33.4346,150.135,955.0,5.7547545,3.4916842656493436,1.6481314189598526,2017-12-07 12:00:00,29.99903905,93535,13.0,14.0,15.0,15.0,15.0,16.0
60,064017,COONABARABRAN AIRPORT AWS               ,-31.333,149.2699,645.0,6.5363307,1.5274490461892414,4.279246313471359,2001-07-02 11:00:00,29.9999214,327018,6.0,7.0,7.0,7.0,8.0,9.0
61,065068,PARKES AIRPORT AWS                      ,-33.1281,148.2428,323.3,6.213931,1.6982072354851687,3.6591123591013983,1997-09-25 10:00:00,29.999933,353467,7.0,8.0,9.0,9.0,9.0,10.0
62,065070,DUBBO AIRPORT AWS                       ,-32.2206,148.5753,284.0,6.046174,1.4167291200929955,4.267699423712393,1989-01-02 09:00:00,29.997653416666665,363506,4.0,5.0,5.0,6.0,6.0,7.0
63,065091,COWRA AIRPORT COMPARISON                ,-33.8451,148.6534,300.0,4.434647,1.796935051167173,2.4678950307091014,2004-07-06 09:00:00,29.924433233333332,176,0,0,0,0,0,0
64,065103,FORBES AIRPORT AWS                      ,-33.3627,147.9205,230.4,5.9218216,1.7745651062735546,3.3370551315942616,1996-01-10 11:00:00,29.999811616666666,327317,8.0,8.0,9.0,9.0,10.0,10.0
65,065111,COWRA AIRPORT AWS                       ,-33.8382,148.654,300.4,4.4077425,1.5671230908409872,2.8126332424466973,2004-07-14 16:00:00,29.999908683333334,276327,5.0,6.0,6.0,6.0,7.0,7.0
66,066022,FORT DENISON                            ,-33.8551,151.2254,5.0,6.0842576,1.444707131553219,4.21141245156754,1990-08-13 00:00:00,29.9999476,541385,6.0,6.0,7.0,7.0,8.0,8.0
67,066037,SYDNEY AIRPORT AMO                      ,-33.9465,151.1731,6.0,6.1535954,1.3760145844821732,4.472042314766617,1970-01-02 04:30:00,21.451575966666667,459692,9.0,10.0,10.0,10.0,11.0,11.0
68,066043,KURNELL AWS                             ,-34.0039,151.2111,4.0,6.999187,1.2396651809722026,5.646030154009955,2000-03-17 13:00:00,29.99977745,396437,7.0,8.0,8.0,8.0,9.0,9.0
69,066051,LITTLE BAY (THE COAST GOLF CLUB)        ,-33.9829,151.2502,22.0,7.291409,1.5551270682306013,4.6886258779815115,1999-04-30 18:00:00,29.999928533333332,408302,9.0,9.0,10.0,10.0,11.0,11.0
70,066059,TERREY HILLS AWS                        ,-33.6908,151.2253,199.0,6.041613,2.0766294708141015,2.9093361077991124,2004-09-23 10:00:00,29.999907733333334,291675,9.0,9.0,10.0,10.0,11.0,11.0
71,066062,SYDNEY (OBSERVATORY HILL)               ,-33.8607,151.205,39.0,5.9411345,208034.76399993896,2.8558373315055975e-05,1993-09-06 00:00:00,5.417133433333333,32315,0,0,0,0,0,0
72,066137,BANKSTOWN AIRPORT AWS                   ,-33.9176,150.9837,7.2,4.4226813,1.4577809483232922,3.033844924864324,1989-05-31 11:30:00,29.640423766666668,434839,5.0,6.0,6.0,7.0,7.0,8.0
73,066161,HOLSWORTHY AERODROME AWS                ,-33.9925,150.9489,68.2,4.692504,1.4904968860862957,3.148281605243488,2012-08-31 10:00:00,29.999838716666666,185654,6.0,6.0,7.0,7.0,7.0,8.0
74,066193,MARSFIELD (MACQUARIE UNIVERSITY NO:2)   ,-33.7654,151.1176,51.0,4.9263644,,,,,,,,,,,
75,066194,CANTERBURY RACECOURSE AWS               ,-33.9057,151.1134,3.0,4.9800696,1.652325584822803,3.013975988172241,1996-01-10 11:00:00,29.999811616666666,440802,7.0,7.0,8.0,8.0,9.0,9.0
76,066195,SYDNEY OLYMPIC PARK (SYDNEY OLYMPIC PK (,-33.8521,151.0646,28.0,4.6605263,1.5691740361762039,2.970050592343239,1996-01-10 11:00:00,26.47612343333333,224169,6.0,6.0,7.0,7.0,7.0,8.0
77,066196,SYDNEY HARBOUR (WEDDING CAKE WEST)      ,-33.8405,151.2643,6.0,6.9473424,1.2752691855497083,5.447745836333213,1996-02-28 19:30:00,29.99981066666667,398969,7.0,8.0,8.0,9.0,9.0,10.0
78,066197,MANLY (NORTH HEAD)                      ,-33.8152,151.2986,90.0,8.081692,1.8266993357221442,4.424204675559509,1997-08-28 10:00:00,29.999933199999997,434293,10.0,10.0,11.0,11.0,12.0,12.0
79,066198,SYDNEY HARBOUR (SHARK ISLAND)           ,-33.8614,151.2569,3.0,6.568132,1.3983498414466913,4.697059154295997,1997-08-28 17:00:00,30.0004805,58143,4.0,5.0,5.0,5.0,6.0,6.0
80,066199,MIDDLE HEAD                             ,-33.8283,151.2636,35.0,6.8600187,2.163946959416716,3.170141809766293,1997-09-08 14:30:00,30.000484933333333,58834,9.0,9.0,10.0,10.0,11.0,11.0
81,066200,SYDNEY HARBOUR (CLARKE ISLAND)          ,-33.8642,151.2394,2.0,6.2827954,1.578989721558733,3.978997040606156,1997-08-28 10:00:00,30.0004804,58076,6.0,6.0,6.0,7.0,7.0,8.0
82,066201,SOUTH HEAD                              ,-33.8361,151.28,25.0,7.2493324,1.5694781755595224,4.618944398761144,1997-08-28 17:00:00,30.0004809,59311,7.0,7.0,8.0,8.0,8.0,9.0
83,066202,SYDNEY HARBOUR (CANNAE POINT)           ,-33.8153,151.2842,20.0,7.2391496,2.0337957788135537,3.559427965126449,1997-08-28 14:00:00,30.0,48156,11.0,12.0,12.0,12.0,13.0,14.0
84,066203,SYDNEY HARBOUR (BOMBORA)                ,-33.8167,151.2722,2.0,6.909982,1.558262968563021,4.434413410214975,1998-10-30 16:00:00,29.9866978,17620,7.0,8.0,8.0,8.0,9.0,10.0
85,066208,WATTAMOLLA AWS                          ,-34.1407,151.1185,44.0,7.072532,1.159886710315089,6.0976060110647765,2007-06-26 09:00:00,29.999891633333334,266871,12.0,13.0,14.0,14.0,15.0,15.0
86,066212,SYDNEY OLYMPIC PARK AWS (ARCHERY CENTRE),-33.8338,151.0718,4.0,4.684545,2.0401649138066604,2.2961599861012774,2011-08-31 15:00:00,29.999115800000002,203375,9.0,9.0,10.0,10.0,10.0,11.0
87,067033,RICHMOND RAAF                           ,-33.6022,150.7794,19.0,4.3324103,2.231099222571327,1.9418277285524295,1985-01-02 17:00:00,29.791491399999998,1757,8.0,9.0,10.0,10.0,10.0,11.0
88,067105,RICHMOND RAAF                           ,-33.6004,150.7761,19.0,4.3344035,1.7036633424598282,2.5441666829573544,1989-01-18 16:30:00,29.95861035,431655,7.0,8.0,8.0,9.0,9.0,10.0
89,067108,BADGERYS CREEK AWS                      ,-33.8969,150.7281,81.2,4.821594,1.7158164389964232,2.810087447991458,1996-01-10 11:00:00,29.92910165,442273,7.0,8.0,8.0,8.0,9.0,9.0
90,067113,PENRITH LAKES AWS                       ,-33.7195,150.6783,24.7,3.816948,1.5527230567575532,2.4582284138823787,1996-01-10 11:00:00,29.999811616666666,450678,6.0,6.0,7.0,7.0,7.0,8.0
91,067117,HOLSWORTHY CONTROL RANGE                ,-33.9795,150.9254,40.0,4.415331,1.3680277500653946,3.227515587041095,1998-04-30 17:00:00,29.999895383333335,269693,4.0,4.0,5.0,5.0,5.0,6.0
92,067119,HORSLEY PARK EQUESTRIAN CENTRE AWS      ,-33.851,150.8567,100.0,4.9068336,1.8516613873352739,2.649962721177151,1997-09-04 13:30:00,29.99993315,429637,7.0,8.0,8.0,8.0,9.0,9.0
93,068072,NOWRA RAN AIR STATION AWS               ,-34.9469,150.5353,109.0,5.3677278,1.3748397679459916,3.9042569771745987,2000-11-29 10:00:00,29.999770450000003,379686,8.0,9.0,10.0,10.0,10.0,11.0
94,068076,NOWRA RAN AIR STATION                   ,-34.9449,150.545,109.0,5.51312,1.5286423426099285,3.6065468165660843,1989-06-10 16:00:00,28.946105816666666,2746,8.0,9.0,9.0,9.0,10.0,11.0
95,068151,JERVIS BAY (POINT PERPENDICULAR AWS)    ,-35.0936,150.8049,85.0,7.490162,1.6800159510269201,4.458387368985125,2004-10-08 10:00:00,25.36296121666667,240824,13.0,14.0,14.0,15.0,15.0,16.0
96,068192,CAMDEN AIRPORT AWS                      ,-34.039,150.689,73.9,4.4065576,1.8145517972807068,2.428455096498608,1994-09-19 15:00:00,27.62122361666667,391714,8.0,8.0,9.0,9.0,10.0,10.0
97,068228,BELLAMBI AWS                            ,-34.3691,150.9291,10.0,6.8187523,1.381654537301402,4.935207828533247,1989-01-01 11:00:00,29.99985021666667,546413,9.0,10.0,10.0,10.0,11.0,11.0
98,068239,MOSS VALE AWS                           ,-34.5253,150.4217,678.4,7.361471,1.5608614321688377,4.716287445144057,2001-02-26 16:00:00,29.99969055,332615,12.0,13.0,14.0,14.0,14.0,15.0
99,068241,ALBION PARK (SHELLHARBOUR AIRPORT)      ,-34.5639,150.7924,8.0,4.9378114,1.3346668077494648,3.6996584810485533,1999-06-04 15:00:00,29.99992825,337426,9.0,9.0,10.0,10.0,11.0,11.0
100,068242,KIAMA (BOMBO HEADLAND)                  ,-34.6532,150.8609,15.5,6.930965,1.5147626608860645,4.575611167159705,2001-12-17 16:00:00,29.99975915,292034,11.0,11.0,12.0,12.0,13.0,13.0
101,068253,PORT KEMBLA NTC AWS                     ,-34.4734,150.9118,0.0,6.519816,1.677347767480712,3.8869792229049,2012-07-11 14:30:00,29.9998408,188289,11.0,11.0,12.0,12.0,13.0,13.0
102,068257,CAMPBELLTOWN (MOUNT ANNAN)              ,-34.0615,150.7735,112.0,4.621676,2.2509173925112886,2.0532410400960495,2006-11-14 12:00:00,29.999687083333335,278369,8.0,9.0,9.0,9.0,10.0,10.0
103,068262,HIGH RANGE AWS (WANGANDERRY)            ,-34.3335,150.267,813.6,7.0253158,1.3149797437847066,5.342527742173626,2014-07-01 12:30:00,29.999805050000003,152909,10.0,10.0,11.0,11.0,12.0,12.0
104,068263,HOLSWORTHY DEFENCE AWS                  ,-34.081,150.9009,165.0,5.021655,2.212491316366206,2.2696835217189455,2017-12-13 11:00:00,29.9990361,93099,11.0,11.0,12.0,12.0,13.0,13.0
105,068264,JERVIS BAY NSW (JERVIS BAY AIRFIELD AWS),-35.144,150.6974,57.2,6.817914,1.437728404999417,4.742143220782372,2018-10-12 14:30:00,29.998858166666665,78786,11.0,12.0,12.0,13.0,13.0,14.0
106,069017,MONTAGUE ISLAND LIGHTHOUSE              ,-36.2519,150.2275,52.0,7.69899,1.1643615986966107,6.6121983727240154,1998-04-15 10:00:00,29.999931516666667,321696,10.0,11.0,11.0,12.0,12.0,13.0
107,069128,NERRIGA AWS                             ,-35.1103,150.0826,622.0,5.4236255,1.5704430964213794,3.4535638263919006,2013-06-25 13:00:00,29.99982526666667,170580,12.0,12.0,13.0,13.0,14.0,14.0
108,069132,BRAIDWOOD RACECOURSE AWS                ,-35.4253,149.7835,665.2,5.866378,1.9112324332935917,3.069421451997835,1989-01-01 11:00:00,29.99985021666667,419615,10.0,10.0,11.0,11.0,12.0,12.0
109,069137,GREEN CAPE AWS                          ,-37.2622,150.0504,19.4,8.582402,1.2390094725587146,6.926825354761261,2000-07-28 14:30:00,29.999924616666664,279082,10.0,10.0,11.0,11.0,12.0,12.0
110,069138,ULLADULLA AWS                           ,-35.3635,150.4828,35.7,7.3889804,2.035725839000179,3.629653977507287,1992-09-22 00:00:00,29.99994398333333,397359,11.0,12.0,13.0,13.0,13.0,14.0
111,069139,BEGA AWS                                ,-36.6722,149.8191,41.0,4.388587,1.6924817139746653,2.5929893137099693,1992-04-03 00:00:00,29.999944833333334,394735,8.0,8.0,9.0,9.0,10.0,10.0
112,069147,MERIMBULA AIRPORT AWS                   ,-36.9077,149.8989,1.5,5.189962,1.950260439147951,2.6611635072263704,1998-04-28 10:00:00,29.999931416666666,347672,8.0,9.0,9.0,9.0,10.0,10.0
113,069148,MORUYA AIRPORT AWS                      ,-35.9004,150.1437,4.0,5.545583,1.7253800776685548,3.214122408782429,1999-10-01 11:00:00,29.999927266666667,308423,6.0,7.0,8.0,8.0,8.0,9.0
114,070014,CANBERRA AIRPORT COMPARISON             ,-35.3049,149.2014,578.4,4.76841,1.611628899465516,2.958751985287972,1985-01-02 16:00:00,29.1219058,215485,7.0,7.0,8.0,8.0,9.0,9.0
115,070217,COOMA AIRPORT AWS                       ,-36.2939,148.9725,930.0,5.915596,1.453133842384608,4.070923018758703,1992-04-20 14:00:00,29.953389766666664,376728,8.0,8.0,9.0,9.0,10.0,10.0
116,070328,BOMBALA AWS                             ,-37.0016,149.2336,760.5,6.2685394,1.6352103388497585,3.8334759020178164,1989-02-20 21:00:00,29.9998496,419273,9.0,10.0,10.0,10.0,11.0,12.0
117,070330,GOULBURN AIRPORT AWS                    ,-34.8085,149.7311,640.0,6.5079293,1.5725650163891123,4.138416699645982,1989-01-03 10:00:00,29.999850183333333,423136,10.0,11.0,11.0,12.0,12.0,13.0
118,070339,TUGGERANONG (ISABELLA PLAINS) AWS       ,-35.4184,149.0937,586.7,4.302654,1.6934500496500922,2.540762150267908,1996-08-09 13:00:00,29.700752083333334,433214,6.0,6.0,7.0,7.0,7.0,8.0
119,070349,MOUNT GININI AWS                        ,-35.5293,148.7721,1760.0,9.463778,2.0914524240210977,4.524978638490316,2004-06-28 11:30:00,29.999908899999998,318982,17.0,18.0,19.0,19.0,19.0,20.0
120,070351,CANBERRA AIRPORT                        ,-35.3088,149.2004,577.1,4.7843604,1.3289790382145719,3.600026991554772,2010-03-01 10:30:00,27.02099315,227965,5.0,5.0,6.0,6.0,6.0,7.0
121,071032,THREDBO AWS                             ,-36.4917,148.2859,1957.0,10.605777,1.4585382417910626,7.271510943573524,1998-04-27 10:00:00,29.999931433333334,314122,21.0,22.0,23.0,23.0,24.0,24.0
122,071075,PERISHER VALLEY AWS                     ,-36.4069,148.4055,1738.0,7.636665,2.3247039034841825,3.285005396151985,2010-05-25 15:00:00,29.999867133333332,223858,18.0,18.0,19.0,19.0,20.0,21.0
123,072150,WAGGA WAGGA AMO                         ,-35.1583,147.4575,212.0,5.133038,1.5803609116935808,3.24801632715343,1989-01-17 17:00:00,29.960956933333332,447475,6.0,7.0,7.0,7.0,8.0,8.0
124,072160,ALBURY AIRPORT AWS                      ,-36.069,146.9509,163.5,4.232577,1.7215803315732043,2.458541590800255,1993-09-02 11:00:00,29.65586526666667,371893,6.0,6.0,7.0,7.0,7.0,8.0
125,072161,CABRAMURRA SMHEA AWS                    ,-35.9371,148.3779,1482.4,6.377395,1.2787195395795432,4.987329086362918,1996-12-12 11:00:00,29.999805016666667,326330,11.0,11.0,12.0,12.0,13.0,13.0
126,072162,KHANCOBAN AWS                           ,-36.2304,148.1405,339.3,2.0612864,1.3182140454871891,1.5636963181275747,1996-12-21 11:00:00,29.999804833333332,292974,,,0.0,1.0,2.0,2.0
127,073138,YOUNG AIRPORT                           ,-34.2493,148.2475,379.6,5.8227196,2.00287116783388,2.907186277124316,1989-01-01 11:00:00,29.99985021666667,403725,8.0,8.0,9.0,9.0,10.0,10.0
128,073151,TEMORA AIRPORT                          ,-34.4277,147.5117,280.5,6.0901575,1.7262506010552758,3.527968363994844,2005-01-31 19:00:00,29.99971778333333,253557,8.0,9.0,9.0,9.0,10.0,10.0
129,074023,FINLEY AIRPORT AWS                      ,-35.6613,145.561,108.0,6.8267584,2.3501342683641853,2.9048375986859534,2001-03-15 16:00:00,29.76856895,20970,0,0,0,0,0,0
130,074037,YANCO AGRICULTURAL INSTITUTE            ,-34.6222,146.4326,164.0,6.437553,1.7844198223293326,3.6076448201080593,1999-08-05 17:00:00,29.999927733333333,303365,7.0,8.0,8.0,8.0,9.0,9.0
131,074148,NARRANDERA AIRPORT AWS                  ,-34.705,146.514,145.0,6.2357206,1.807941906632973,3.4490713510112534,2007-03-13 09:00:00,29.99968075,273695,9.0,9.0,10.0,10.0,11.0,11.0
132,074253,FINLEY (CSIRO)                          ,-35.7111,145.6236,110.0,6.868836,2.5942964284284034,2.647668111780493,1989-05-04 00:00:00,30.00014421666667,88782,,,4.0,5.0,7.0,8.0
133,074258,DENILIQUIN AIRPORT AWS                  ,-35.5575,144.9458,94.0,6.8295126,1.549040612254967,4.408866069811123,1997-05-23 10:00:00,29.99993388333333,347676,7.0,8.0,8.0,9.0,9.0,10.0
134,074272,KAPOOKA (DEFENCE)                       ,-35.1327,147.2512,187.0,5.4974,2.1131078930476024,2.6015708071809645,2017-10-03 10:30:00,29.99907005,96753,9.0,9.0,10.0,10.0,10.0,11.0
135,075019,HAY AIRPORT AWS                         ,-34.5412,144.8345,92.0,6.8656693,1.5099917413923443,4.546825695985287,2007-06-26 09:00:00,29.999891633333334,233431,7.0,8.0,9.0,9.0,9.0,10.0
136,075041,GRIFFITH AIRPORT AWS                    ,-34.2487,146.0695,134.0,6.419528,1.6156908430287893,3.9732403232992373,2000-06-13 18:00:00,29.99992501666667,332210,7.0,7.0,8.0,8.0,9.0,9.0
137,075174,GRIFFITH CSIRO                          ,-34.3229,146.0684,125.0,6.6753535,2.965784047935076,2.250788802953067,1989-03-01 12:00:00,29.67123636666667,112498,0,0,0,0,0,0
138,075175,HAY CSIRO AWS                           ,-34.5471,144.867,90.0,6.8976617,2.4244456730530204,2.8450469163359795,1996-09-13 12:00:00,17.95088775,86092,0,0,0,0,0,0
139,200288,NORFOLK ISLAND AERO                     ,-29.0389,167.9408,111.7,,,5.108979427203251,1994-07-25 05:00:00,29.9855849,503639,,,,,,
140,200839,LORD HOWE ISLAND AERO                   ,-31.5421,159.0786,5.0,7.7876163,1.443386608610277,5.39537793023953,1994-07-23 03:30:00,29.9910056,401963,11.0,12.0,12.0,12.0,13.0,14.0
141,014015,DARWIN AIRPORT                          ,-12.4239,130.8925,30.4,4.5577235,1.3114549375934335,3.4753184356832456,1985-01-02 01:30:00,29.9985693,455956,4.0,6.0,7.0,7.0,8.0,9.0
142,014031,CHARLES POINT                           ,-12.3895,130.6306,14.0,5.0594335,1.8312749610047987,2.762792900012975,2006-01-06 13:00:00,29.99990085,193461,10.0,11.0,12.0,12.0,13.0,13.0
143,014041,MIDDLE POINT                            ,-12.605,131.2988,14.1,4.4731894,1.9392466549286704,2.306663436842388,2001-08-07 15:30:00,29.99992105,296306,5.0,5.0,6.0,6.0,7.0,7.0
144,014046,NOONAMAH AWS                            ,-12.6365,131.0714,26.9,4.8307443,2.8570121957465373,1.6908378178090824,2008-11-11 13:30:00,29.999624833333332,64172,9.0,9.0,10.0,10.0,10.0,11.0
145,014072,DARWIN NTC AWS                          ,-12.4719,130.8458,0.0,5.098608,1.5439652302506113,3.302281629839672,2012-08-16 10:00:00,29.999839333333334,178428,5.0,6.0,6.0,7.0,7.0,8.0
146,014142,PIRLANGIMPI AIRPORT                     ,-11.4021,130.4217,18.3,4.577474,2.7631320877446774,1.656625152876885,2006-01-11 22:30:00,29.999900766666666,261431,8.0,8.0,9.0,9.0,9.0,10.0
147,014198,JABIRU AIRPORT                          ,-12.6592,132.894,26.5,4.524206,1.9330457946459496,2.3404547238507933,1993-07-01 09:30:00,29.999942533333336,333700,3.0,4.0,4.0,4.0,5.0,5.0
148,014245,CAPE DON                                ,-11.3081,131.7651,19.0,5.2343674,1.6710039316249383,3.132468614550416,2005-12-19 09:30:00,29.976791283333334,77091,,0.0,1.0,1.0,2.0,2.0
149,014254,POINT STUART                            ,-12.2403,131.8785,1.0,5.1842422,1.5277712364504674,3.3933367279383497,2003-03-09 16:30:00,29.999914816666667,177657,4.0,5.0,6.0,6.0,6.0,7.0
150,014272,BATCHELOR AIRPORT                       ,-13.0544,131.0252,104.0,5.300636,2.747487080433997,1.929266875325744,1993-07-07 12:30:00,29.983047916666667,341066,9.0,10.0,10.0,11.0,11.0,12.0
151,014274,MCCLUER ISLAND                          ,-11.0468,132.9791,1.4,6.837427,1.0482283716474567,6.522841132926147,2001-01-08 10:30:00,29.406301016666664,201410,2.0,5.0,7.0,7.0,8.0,9.0
152,014277,DUM IN MIRRIE AIRSTRIP                  ,-12.635,130.3725,3.5,5.242257,2.3739812400339555,2.208213371622986,2000-10-19 22:30:00,29.715452866666666,271159,8.0,8.0,9.0,9.0,9.0,10.0
153,014299,NGUKURR AIRPORT                         ,-14.7236,134.7456,14.5,5.0035133,2.2609150598811407,2.213047904791559,2012-07-02 09:30:00,29.999841166666666,185183,8.0,8.0,9.0,9.0,9.0,10.0
154,014308,CROKER ISLAND AIRPORT                   ,-11.1629,132.4813,9.2,5.761167,1.7554703803529692,3.2818366597843545,2012-09-26 09:00:00,29.999837616666664,181617,7.0,8.0,9.0,9.0,9.0,10.0
155,014309,MURGANELLA AIRSTRIP                     ,-11.5485,132.9266,9.5,4.490924,2.961678844412741,1.5163439783496337,2012-10-10 09:30:00,29.999837033333332,175757,9.0,10.0,10.0,10.0,11.0,11.0
156,014310,OENPELLI AIRPORT                        ,-12.3272,133.0069,7.5,4.7665987,2.4954841484082704,1.9100897533319925,2012-09-26 09:00:00,29.999837616666664,178962,7.0,7.0,8.0,8.0,9.0,9.0
157,014314,NOONAMAH AIRSTRIP                       ,-12.6099,131.0474,17.5,4.6809344,2.978139824161261,1.5717644924502499,2013-06-21 11:30:00,29.999825466666667,171172,9.0,10.0,10.0,11.0,11.0,12.0
158,014401,WARRUWI AIRPORT                         ,-11.65,133.3797,19.2,6.4756436,1.9160446850529627,3.3796934305930058,2000-08-15 09:30:00,29.981882366666664,301302,5.0,6.0,6.0,7.0,7.0,8.0
159,014402,MILINGIMBI                              ,-12.1239,134.9078,4.0,6.1092567,1.9014713353392512,3.212910250521753,2000-12-13 14:00:00,29.9993434,26044,3.0,4.0,4.0,5.0,5.0,5.0
160,014404,MILINGIMBI AIRPORT                      ,-12.0932,134.8919,15.0,6.0165496,1.941633350125435,3.098705317799094,2003-07-23 11:30:00,29.999913216666666,261080,7.0,7.0,8.0,8.0,9.0,9.0
161,014405,MANINGRIDA AIRPORT                      ,-12.0569,134.2339,28.1,5.8682203,1.7131140053225895,3.4254698234048044,2003-10-24 11:30:00,29.999912083333335,266916,5.0,6.0,7.0,7.0,8.0,8.0
162,014508,GOVE AIRPORT                            ,-12.2741,136.8201,51.6,5.5537825,1.526101245923658,3.6391965984618255,1990-08-01 13:00:00,29.847215866666666,439636,5.0,6.0,6.0,6.0,7.0,8.0
163,014517,NGAYAWILI                               ,-11.9971,135.5726,8.1,5.8002973,1.375934177894161,4.215533964830832,2000-07-27 16:30:00,29.999246366666668,222544,7.0,8.0,9.0,9.0,10.0,11.0
164,014518,GROOTE EYLANDT AIRPORT                  ,-13.9746,136.463,13.7,5.281167,2.15809597403391,2.4471418759300696,2000-07-24 12:30:00,29.99992465,290003,6.0,7.0,7.0,8.0,8.0,9.0
165,014626,DALY WATERS AIRSTRIP                    ,-16.2637,133.3782,209.8,5.48355,2.692013360478335,2.0369698576614623,2000-09-13 08:30:00,29.997953516666666,217446,7.0,8.0,8.0,8.0,9.0,9.0
166,014627,BULMAN                                  ,-13.6715,134.3415,103.4,4.80145,2.304411787541418,2.0835901819520193,2003-07-30 19:30:00,28.847365033333332,217656,4.0,5.0,6.0,6.0,6.0,7.0
167,014703,CENTRE ISLAND                           ,-15.7426,136.8192,12.2,6.1856475,1.2194036778041828,5.072682328446855,2000-11-06 04:00:00,29.63460866666667,180891,7.0,8.0,9.0,10.0,10.0,11.0
168,014704,MCARTHUR RIVER MINE AIRPORT             ,-16.4423,136.076,40.0,4.563161,1.7838586367218863,2.5580283114175333,2003-08-14 16:30:00,29.999912950000002,272571,4.0,5.0,5.0,5.0,6.0,6.0
169,014723,BORROLOOLA AIRPORT                      ,-16.0755,136.3041,16.1,5.0281744,1.8815500265462917,2.672357540000748,2000-07-24 12:30:00,29.99992465,297625,5.0,6.0,6.0,7.0,7.0,8.0
170,014808,BRADSHAW - ANGALLARI VALLEY (DEFENCE)   ,-15.4397,130.5731,60.0,4.538152,2.4198000031467335,1.8754245028364036,2017-12-08 10:30:00,29.999679516666667,92816,6.0,7.0,7.0,7.0,8.0,8.0
171,014825,VICTORIA RIVER DOWNS                    ,-16.403,131.0145,88.5,4.3328457,2.0217733395711295,2.143091712142826,2000-07-24 12:30:00,29.99992465,257246,4.0,4.0,5.0,5.0,5.0,6.0
172,014829,LAJAMANU AIRPORT                        ,-18.3324,130.6361,315.6,5.987253,1.6869631606921784,3.5491309642056925,2000-07-24 12:30:00,29.99992465,301294,4.0,5.0,5.0,6.0,6.0,7.0
173,014850,TIMBER CREEK                            ,-15.6614,130.4808,20.1,5.2642922,2.4359192884979635,2.1611111111111114,2013-02-04 14:00:00,29.993356950000003,5,0,0,0,0,0,0
174,014901,DOUGLAS RIVER RESEARCH FARM             ,-13.8345,131.1872,42.8,4.652643,2.183040841126375,2.131267137143777,1996-09-30 10:30:00,29.999935483333335,283722,7.0,7.0,8.0,8.0,9.0,9.0
175,014909,CENTRAL ARNHEM PLATEAU                  ,-13.3275,133.0861,416.0,6.7005515,1.8666290566955697,3.5896534910470845,2003-08-27 10:30:00,29.999476783333332,147875,6.0,7.0,7.0,7.0,8.0,9.0
176,014932,TINDAL RAAF                             ,-14.5229,132.3826,133.6,5.403566,1.9212172032474315,2.8125741714694374,1990-06-01 10:30:00,29.999947916666667,451850,5.0,5.0,6.0,6.0,6.0,7.0
177,014948,PORT KEATS AIRPORT                      ,-14.2494,129.5282,28.0,4.956875,1.9229820832543327,2.577702044432681,2000-08-30 09:30:00,29.999924316666668,293031,5.0,6.0,6.0,6.0,7.0,8.0
178,014949,DELAMERE WEAPONS RANGE                  ,-15.7441,131.9181,221.0,5.794693,1.8338284188297607,3.1598883154302344,2000-07-24 12:30:00,29.99992465,359228,3.0,3.0,4.0,4.0,4.0,5.0
179,014954,BRADSHAW                                ,-14.9408,130.8091,75.0,4.090464,1.4569431141677005,2.8075661124762297,2001-11-18 13:30:00,29.99992,185553,1.0,2.0,3.0,3.0,3.0,4.0
180,014981,BRADSHAW - KOOLENDONG VALLEY (DEFENCE)  ,-15.1853,130.1169,42.0,4.3801374,3.786687290797255,1.1567201374635505,2018-10-24 14:30:00,29.999616566666667,77461,10.0,11.0,11.0,12.0,12.0,13.0
181,014982,KANGAROO FLATS (DEFENCE)                ,-12.7934,130.8542,50.0,4.9007206,4.5060210640208975,1.0875938054182936,2017-10-03 09:00:00,29.999690016666666,93292,12.0,12.0,13.0,13.0,14.0,14.0
182,014983,MOUNT BUNDEY NORTH (DEFENCE)            ,-12.9141,131.8663,83.0,4.9871693,3.371210904764817,1.4793406306019843,2017-10-03 09:00:00,29.999690016666666,96437,10.0,11.0,11.0,12.0,12.0,13.0
183,014984,MOUNT BUNDEY SOUTH (DEFENCE)            ,-13.0889,131.8478,55.0,4.622325,3.2882323187397975,1.405717265534927,2017-10-03 09:00:00,29.999690016666666,96466,9.0,10.0,10.0,11.0,11.0,12.0
184,014988,KNUCKEY LAGOON                          ,-12.4422,130.9556,31.6,4.5741987,2.1417469056873046,2.135732616535032,2021-07-22 13:30:00,29.99900493333333,30129,8.0,9.0,9.0,9.0,10.0,11.0
185,015135,TENNANT CREEK AIRPORT                   ,-19.6423,134.1833,375.7,7.152781,1.5317613548471893,4.6696445154719575,1990-06-18 13:00:00,29.99973925,431685,4.0,5.0,5.0,5.0,6.0,6.0
186,015590,ALICE SPRINGS AIRPORT                   ,-23.7951,133.889,546.0,5.714463,1.606553614350183,3.5569701396234654,1990-08-08 12:00:00,29.839664383333332,450056,6.0,6.0,7.0,7.0,8.0,8.0
187,015602,JERVOIS                                 ,-22.9494,136.1442,328.0,6.6644716,1.8700817455630376,3.563732784459228,2000-08-08 08:00:00,29.947263066666668,204278,6.0,7.0,7.0,8.0,8.0,9.0
188,015635,YULARA AIRPORT                          ,-25.1896,130.9737,492.0,6.616568,1.6944165211400053,3.904924206050505,1991-07-20 14:30:00,29.873090933333334,418474,7.0,8.0,8.0,8.0,9.0,10.0
189,015643,TERRITORY GRAPE FARM                    ,-22.4518,133.6377,565.6,6.7526736,2.022657035310458,3.3385163713182724,2000-08-05 09:30:00,29.970831416666666,222105,7.0,7.0,8.0,8.0,9.0,9.0
190,015664,WALUNGURRU AIRPORT                      ,-23.2656,129.3844,454.3,7.4204946,1.4113804252491227,5.257614760469142,2001-10-22 13:00:00,29.950106100000003,225392,6.0,6.0,7.0,7.0,8.0,8.0
191,015666,RABBIT FLAT                             ,-20.1823,130.0148,340.0,5.4175606,1.6298745821787648,3.3239125492407853,2002-02-14 15:00:00,29.90468535,152476,4.0,5.0,6.0,6.0,6.0,7.0
192,200731,POINT FAWCETT                           ,-11.7628,130.03,6.5,4.5029764,1.397231398797895,3.2227850171529426,2000-07-24 13:30:00,29.99992465,261114,5.0,6.0,7.0,7.0,8.0,8.0
193,200782,NORTH EAST ISLAND                       ,-13.6449,136.9445,17.4,6.2364793,1.54686978337871,4.03167697073847,2010-10-13 12:30:00,29.99954446666667,65562,7.0,7.0,8.0,8.0,9.0,9.0
194,200786,CAPE WESSEL                             ,-11.0047,136.7586,18.0,7.033756,1.1002064496961468,6.393123564408233,2011-12-06 14:30:00,29.999849166666667,184326,8.0,9.0,10.0,10.0,11.0,12.0
195,200867,BAYU UNDAN (CUQ RIG)                    ,-11.0681,126.6144,32.5,,,4.917883099600778,2009-07-02 07:30:00,29.999875766666666,241504,,,,,,
196,200868,CP DILI AIRPORT                         ,-8.5478,125.5276,8.8,,,3.3542471042471043,2023-02-07 23:30:00,29.990029900000003,3009,,,,,,
197,027045,WEIPA AERO                              ,-12.6778,141.9208,18.0,6.013942,1.8944658537830503,3.174478839416572,1995-11-02 13:30:00,29.935531366666666,416592,7.0,7.0,8.0,8.0,9.0,9.0
198,027054,COCONUT ISLAND                          ,-10.0511,143.0686,3.5,8.057411,3.608319266544688,2.2330094979548196,2003-07-13 00:00:00,29.878720666666666,152220,16.0,16.0,17.0,17.0,18.0,19.0
199,027058,HORN ISLAND                             ,-10.5844,142.29,4.0,7.685066,1.467331436074448,5.237443998136093,1995-10-17 21:30:00,29.9820784,358225,3.0,4.0,5.0,5.0,6.0,6.0
200,027073,COEN AIRPORT                            ,-13.7606,143.1183,159.3,4.6395698,1.5757824994579628,2.944295777472344,2002-04-17 17:00:00,29.92134715,283480,4.0,5.0,6.0,7.0,7.0,8.0
201,027075,SCHERGER RAAF                           ,-12.6167,142.0869,39.3,5.8297615,2.5782894086136223,2.2610966347108747,2005-12-14 10:00:00,29.999901216666668,257475,7.0,8.0,8.0,9.0,9.0,10.0
202,028004,PALMERVILLE                             ,-15.9999,144.0754,203.8,4.628964,2.19807063093401,2.105921384941662,2001-07-16 11:00:00,29.999921266666668,259168,2.0,3.0,3.0,3.0,4.0,4.0
203,028008,LOCKHART RIVER AIRPORT                  ,-12.785,143.3047,18.5,5.7626348,1.566404932366882,3.678892114744177,2001-06-26 11:00:00,29.999921466666667,277368,4.0,5.0,6.0,6.0,6.0,7.0
204,029038,KOWANYAMA AIRPORT                       ,-15.4818,141.7483,9.6,5.3420243,2.010159459443177,2.6575127168290553,1999-06-23 16:00:00,29.999928099999998,302795,4.0,5.0,6.0,6.0,7.0,7.0
205,029039,MORNINGTON ISLAND                       ,-16.664,139.1837,8.5,5.4709964,1.900408288826425,2.8788531454105817,1995-10-12 00:00:00,29.999914866666664,269006,7.0,8.0,8.0,8.0,9.0,9.0
206,029058,JULIA CREEK AIRPORT                     ,-20.6672,141.7214,122.5,6.41938,1.4141918249789107,4.539257033312302,2001-08-31 17:00:00,29.999920799999998,282956,4.0,5.0,6.0,6.0,6.0,7.0
207,029063,NORMANTON AIRPORT                       ,-17.6872,141.0733,18.4,5.5416284,1.4727161196839826,3.7628625684747856,2001-04-09 19:00:00,29.999922233333333,293937,3.0,4.0,5.0,5.0,6.0,7.0
208,029077,BURKETOWN AIRPORT                       ,-17.7483,139.5356,5.7,6.119577,1.3813201063822593,4.430238076405916,2001-10-10 19:00:00,29.999840816666666,290099,2.0,3.0,3.0,4.0,4.0,5.0
209,029127,MOUNT ISA AERO                          ,-20.6778,139.4875,340.3,6.055494,1.683342631456766,3.597303198098234,1995-10-16 21:00:00,29.985749533333333,443334,5.0,6.0,6.0,6.0,7.0,7.0
210,029141,CLONCURRY AIRPORT                       ,-20.6664,140.505,186.0,6.374381,1.5273359914665543,4.173529008013453,2001-03-23 11:00:00,29.9999224,290466,5.0,5.0,6.0,6.0,7.0,7.0
211,029167,CENTURY MINE                            ,-18.7569,138.7056,126.8,6.0982304,2.0943610829767483,2.9117378142220662,2003-04-07 10:00:00,29.999914483333335,342194,5.0,6.0,6.0,6.0,7.0,7.0
212,029181,LAKE JULIUS AWS                         ,-20.1167,139.7256,237.0,5.397233,2.3083787610847475,2.3381054705260436,2013-08-19 08:30:00,29.999822549999998,163695,7.0,7.0,8.0,8.0,8.0,9.0
213,029182,MORNINGTON ISLAND AIRPORT               ,-16.662,139.1655,9.5,5.56237,1.3625058167228583,4.082455836287434,2013-10-24 09:00:00,29.99981916666667,165396,5.0,6.0,7.0,7.0,8.0,8.0
214,030022,HUGHENDEN AIRPORT                       ,-20.8192,144.2333,316.4,6.97717,1.7189365243869381,4.059003861720822,2001-02-23 11:00:00,29.999922666666667,289292,5.0,5.0,6.0,6.0,6.0,7.0
215,030024,HUGHENDEN POST OFFICE                   ,-20.8447,144.1986,324.0,6.97508,2.0831764174937897,3.3482905982905984,2001-02-21 17:00:00,29.638554216666666,24,0,0,0,0,0,0
216,030124,GEORGETOWN AIRPORT                      ,-18.3039,143.5306,301.8,5.753821,1.9295987351269215,2.9818743096192057,2004-06-01 18:00:00,29.999909249999998,267237,4.0,5.0,5.0,6.0,6.0,7.0
217,030161,RICHMOND AIRPORT                        ,-20.7001,143.1137,206.3,6.192665,1.4433878309567343,4.2903680960043244,1998-11-07 19:00:00,29.99992993333333,306044,3.0,4.0,4.0,4.0,5.0,5.0
218,031011,CAIRNS AERO                             ,-16.8736,145.7458,2.2,5.5744467,1.3691501185155213,4.071464920300795,1985-01-16 16:30:00,29.96722815,447914,6.0,8.0,9.0,9.0,10.0,11.0
219,031037,LOW ISLES LIGHTHOUSE                    ,-16.3842,145.5592,2.9,6.7347097,1.0191514129213197,6.608154249014411,1998-11-07 19:00:00,29.99992993333333,317900,,5.0,7.0,7.0,8.0,9.0
220,031192,GREEN ISLAND                            ,-16.7614,145.9719,3.0,8.389779,1.0076501668267592,8.32608316565065,1997-03-24 00:00:00,29.997930783333334,223647,4.0,5.0,6.0,6.0,7.0,8.0
221,031209,COOKTOWN AIRPORT                        ,-15.4461,145.1861,4.8,6.8821993,1.662198787113719,4.140418908237181,2000-07-24 13:00:00,29.99992465,296362,5.0,6.0,7.0,7.0,8.0,8.0
222,031210,MAREEBA AIRPORT                         ,-17.0704,145.4293,471.9,7.0785985,2.0770981628133134,3.40792680193339,2000-07-24 13:00:00,29.99789056666667,298386,6.0,7.0,7.0,8.0,8.0,9.0
223,031213,CAPE FLATTERY                           ,-14.9672,145.3106,18.5,9.06652,1.4393157009906137,6.299187684122108,2003-06-20 11:00:00,29.999913616666667,274843,8.0,8.0,9.0,9.0,10.0,10.0
224,031222,CAIRNS RACECOURSE                       ,-16.9463,145.7474,4.1,6.042963,2.1224394207194965,2.8471780956205417,2013-08-02 10:00:00,29.9998234,169328,7.0,8.0,8.0,8.0,9.0,9.0
225,032037,SOUTH JOHNSTONE EXP STN                 ,-17.6053,145.9972,18.3,3.976634,1.7502830717260476,2.271994793192029,1999-11-04 16:00:00,29.999926966666667,302363,2.0,4.0,5.0,5.0,6.0,7.0
226,032040,TOWNSVILLE AERO                         ,-19.2483,146.7661,4.3,4.715243,1.0960419979569547,4.30206403722734,1995-10-16 13:00:00,29.986372,449737,,,14.0,16.0,19.0,21.0
227,032141,LUCINDA POINT                           ,-18.5203,146.3861,10.0,5.588445,1.0456386416392762,5.344528180264868,1996-10-22 00:00:00,29.999935349999998,276302,5.0,7.0,9.0,9.0,10.0,11.0
228,032182,CAPE FERGUSON NTC AWS                   ,-19.2774,147.0586,0.0,6.481217,1.4264382128943345,4.543636625066582,2013-05-16 10:00:00,29.999827216666667,169994,6.0,7.0,8.0,8.0,9.0,10.0
229,032194,COWLEY BEACH (DEFENCE)                  ,-17.6905,146.1126,4.3,5.4761376,2.9115798785651563,1.8808131208787973,2017-04-03 13:30:00,29.999715783333333,105513,8.0,9.0,9.0,9.0,10.0,10.0
230,032195,MOUNT STUART (DEFENCE)                  ,-19.4082,146.762,176.4,4.9605384,1.755090579605374,2.826371724024605,2017-10-03 09:30:00,29.999690016666666,96680,6.0,6.0,7.0,7.0,8.0,8.0
231,032196,TOWNSVILLE- AIR WEAPONS RANGE (DEFENCE) ,-19.3048,146.2438,385.5,4.7159257,1.5649415521227994,3.013483594396827,2017-10-03 09:30:00,29.999690016666666,92862,0,0,0,0,0,0
232,032197,INNISFAIL AERODROME                     ,-17.5581,146.0119,11.8,4.3555098,1.4474626366001966,3.0090654140999704,2016-06-21 13:30:00,29.9997485,118933,4.0,5.0,6.0,6.0,7.0,8.0
233,033002,AYR DPI RESEARCH STN                    ,-19.6169,147.3758,17.0,6.0373373,2.0508080237850983,2.9438822323401768,2003-08-17 03:00:00,26.182325283333334,208646,7.0,8.0,9.0,9.0,9.0,10.0
234,033045,MACKAY AERO                             ,-21.1706,149.1794,5.3,6.210302,1.2741685422859186,4.874003453990898,1995-11-14 01:00:00,29.901243733333335,434842,7.0,8.0,9.0,9.0,10.0,11.0
235,033106,HAMILTON ISLAND AIRPORT                 ,-20.3658,148.9536,58.7,7.59709,1.0055191502227703,7.555390432666487,2002-07-19 12:00:00,29.999917433333334,274229,9.0,10.0,11.0,11.0,12.0,13.0
236,033119,MACKAY M.O                              ,-21.1172,149.2169,30.3,6.8704095,1.5267455910913914,4.500035584688788,1995-10-15 13:00:00,29.98935895,351011,7.0,8.0,8.0,9.0,9.0,10.0
237,033195,WILLIAMSON                              ,-22.4703,150.1786,27.6,5.7563014,2.19639226593112,2.6207984303775427,2005-06-01 18:00:00,29.999904183333335,230908,6.0,6.0,7.0,7.0,8.0,8.0
238,033208,ROSSLYN BAY NTC AWS                     ,-23.161,150.7901,0.0,7.0841346,2.319296447732732,3.0544325567479964,2012-07-11 11:30:00,29.9998408,181588,15.0,15.0,16.0,16.0,17.0,17.0
239,033210,ST LAWRENCE                             ,-22.3472,149.5242,9.2,4.921065,1.6807667823768824,2.927868937717232,2004-08-09 18:00:00,29.999908333333334,264071,3.0,4.0,5.0,5.0,5.0,6.0
240,033247,PROSERPINE AIRPORT                      ,-20.4925,148.555,19.7,6.4205017,1.7244078631054234,3.723308067861583,1996-03-22 08:00:00,29.999936733333335,315931,7.0,8.0,9.0,9.0,9.0,10.0
241,033255,HAMILTON ISLAND                         ,-20.3528,148.9511,22.6,7.22885,0.930873638038294,7.765661839003031,2002-03-14 17:00:00,29.985214383333336,2915,0,0,0,0,0,0
242,033294,YEPPOON THE ESPLANADE                   ,-23.1364,150.7506,5.5,6.531303,1.4298450093118387,4.567839791298758,1995-10-15 08:00:00,29.98998123333333,451505,5.0,6.0,7.0,7.0,8.0,8.0
243,033295,ALVA BEACH                              ,-19.4569,147.4833,7.5,6.9345994,1.370321694078,5.060563099551955,1997-03-24 00:00:00,29.9999343,343141,6.0,7.0,8.0,8.0,9.0,10.0
244,033298,DOTSWOOD                                ,-19.6264,146.2939,292.5,5.2020316,1.8285030929009949,2.8449673575028,1996-12-17 02:30:00,27.5694907,46560,0,0,0,0,0,0
245,033307,WOOLSHED                                ,-19.4168,146.5362,556.0,5.982709,2.5634480698843323,2.3338522052600776,1998-11-07 19:00:00,29.99992993333333,303848,6.0,7.0,7.0,8.0,8.0,9.0
246,033308,SAMUEL HILL AERO                        ,-22.7433,150.6578,31.0,4.478383,1.6912593177099755,2.647957659345763,2000-11-08 10:00:00,29.999923666666668,296186,4.0,5.0,5.0,5.0,6.0,7.0
247,033317,HAY POINT                               ,-21.2894,149.3008,7.0,7.2941017,1.171601280726935,6.225754303172298,2005-11-24 14:00:00,29.999901516666668,300465,9.0,10.0,10.0,11.0,12.0,12.0
248,033327,BOWEN AIRPORT AWS                       ,-20.0153,148.2138,5.9,7.54576,1.712614489022294,4.4059887400765145,2015-03-19 12:30:00,29.999787783333332,139175,7.0,8.0,8.0,9.0,9.0,10.0
249,033328,TOWNSVILLE- FANNING RIVER (DEFENCE)     ,-19.783,146.5,325.8,6.373766,3.2913692653836866,1.9365089212168838,2017-10-03 09:30:00,29.999690016666666,96717,9.0,10.0,10.0,10.0,11.0,11.0
250,033329,OORALEA RACECOURSE (MACKAY TURF CLUB)   ,-21.17,149.1515,10.3,5.663748,1.924783236643604,2.942537985395129,2016-06-27 10:00:00,29.9997479,117844,8.0,8.0,9.0,9.0,10.0,10.0
251,034035,MORANBAH AIRPORT                        ,-22.0644,148.0758,232.2,5.8115926,1.4330054613584238,4.055527166922878,2012-02-27 09:00:00,29.9998461,194688,9.0,10.0,11.0,11.0,12.0,13.0
252,035124,CLERMONT AIRPORT                        ,-22.7756,147.6217,270.3,5.030926,2.42366230515412,2.0757537949370652,2010-04-15 11:00:00,29.999868250000002,225738,7.0,7.0,8.0,8.0,9.0,9.0
253,035129,ROLLESTON AIRPORT                       ,-24.4617,148.6264,219.5,5.2263927,2.1504448258062503,2.430377512248977,2010-07-12 15:00:00,29.99986575,220591,6.0,6.0,7.0,7.0,7.0,8.0
254,035134,BLACKWATER AIRPORT                      ,-23.6015,148.8074,193.0,6.0975394,1.5295426546689284,3.9865115276671124,2013-05-29 11:00:00,29.999826583333334,171906,5.0,6.0,7.0,7.0,8.0,8.0
255,035139,LOCHINGTON                              ,-23.9424,147.525,267.2,5.0824065,2.2649059096406283,2.2439813058944815,2010-10-29 10:00:00,29.99986255,216193,7.0,7.0,8.0,8.0,9.0,9.0
256,035264,EMERALD AIRPORT                         ,-23.5694,148.1756,189.4,5.6529646,1.4744382612236329,3.833978499234412,1998-11-07 19:00:00,29.99992993333333,308660,3.0,4.0,4.0,5.0,5.0,6.0
257,036031,LONGREACH AERO                          ,-23.4397,144.2828,192.2,6.8744073,1.5621741388218975,4.40053840386619,1995-12-11 16:00:00,29.819100166666665,424264,5.0,6.0,6.0,7.0,7.0,8.0
258,036034,BLACKALL AIRPORT                        ,-24.4303,145.4306,281.3,6.916158,1.9055553149945001,3.629471233339802,2001-03-13 11:00:00,29.999922483333332,309685,6.0,6.0,7.0,7.0,8.0,8.0
259,037010,CAMOOWEAL TOWNSHIP                      ,-19.9225,138.1214,231.2,6.5459895,1.678471401393018,3.8999708353472613,1999-06-24 09:30:00,29.997843049999997,223399,6.0,7.0,7.0,8.0,8.0,9.0
260,037034,THE MONUMENT AIRPORT                    ,-21.8125,139.9267,288.4,6.7238216,1.7394838833111677,3.8654118641304236,2000-12-14 14:00:00,29.999923333333335,288585,6.0,7.0,7.0,7.0,8.0,8.0
261,037036,TREPELL AIRPORT                         ,-21.84,140.8925,266.2,6.4832687,1.5814199110219667,4.099650379135079,2001-08-19 17:00:00,29.999920933333332,282317,5.0,5.0,6.0,6.0,6.0,7.0
262,037039,WINTON AIRPORT                          ,-22.3617,143.0836,192.2,6.6207323,1.5716528057083956,4.212592172639491,2002-10-17 14:00:00,29.99991645,274960,5.0,5.0,6.0,6.0,7.0,7.0
263,037053,CARTERS BORE                            ,-20.9358,139.2964,396.0,7.2164125,2.1908572512941036,3.2938761938907115,2014-07-29 14:00:00,29.999803333333332,151524,9.0,9.0,10.0,10.0,10.0,11.0
264,037058,URANDANGI AERODROME                     ,-21.5979,138.3665,178.6,6.712587,1.8084447740085372,3.711800866802989,2012-09-11 11:30:00,29.99983825,181402,7.0,8.0,9.0,9.0,9.0,10.0
265,037059,NEW MAY DOWNS                           ,-20.59,139.3411,392.0,6.8670926,2.260758065601162,3.0375176866081324,2013-08-19 08:30:00,29.999822549999998,168563,8.0,9.0,9.0,9.0,10.0,10.0
266,038026,BIRDSVILLE AIRPORT                      ,-25.8975,139.3472,46.6,7.1079936,1.534740230962312,4.631398499468432,2000-07-24 13:00:00,29.99992465,295762,7.0,8.0,9.0,9.0,9.0,10.0
267,038076,WINDORAH AIRPORT                        ,-25.4117,142.6647,132.2,6.504609,1.6296796852704656,3.9913420819820007,2016-08-18 18:30:00,29.9997422,115384,6.0,7.0,7.0,7.0,8.0,8.0
268,039039,GAYNDAH POST OFFICE                     ,-25.6258,151.6094,105.7,5.5911803,1.4534197891171694,3.846913580246913,2003-01-24 15:00:00,29.83425413333333,85,0,0,0,0,0,0
269,039059,LADY ELLIOT ISLAND                      ,-24.1116,152.7161,3.6,7.827855,1.3122608367161903,5.965167054559771,1998-12-22 02:30:00,29.872887,191916,5.0,6.0,7.0,7.0,8.0,8.0
270,039066,GAYNDAH AIRPORT                         ,-25.6167,151.6156,110.9,5.511694,2.297214263802505,2.3992946767379215,2003-01-28 10:00:00,29.999915283333333,283572,7.0,7.0,8.0,8.0,8.0,9.0
271,039083,ROCKHAMPTON AERO                        ,-23.3753,150.4775,10.4,4.8656754,1.502983073034577,3.2373454742556507,1995-10-31 20:00:00,29.94069645,446568,3.0,4.0,5.0,6.0,7.0,7.0
272,039089,THANGOOL AIRPORT                        ,-24.4935,150.5709,193.1,5.087457,1.8944362328717923,2.685472908376057,2009-10-01 14:30:00,29.99987348333333,223139,5.0,5.0,6.0,6.0,7.0,7.0
273,039122,HERON ISLAND RES STN                    ,-23.4417,151.9125,3.3,7.675639,1.2713610142735317,6.0373403512870745,1999-02-16 14:00:00,29.999929133333335,222316,5.0,6.0,7.0,7.0,8.0,9.0
274,039123,GLADSTONE RADAR                         ,-23.8553,151.2628,74.5,6.699093,1.4503142726542377,4.619062910227135,1994-08-10 15:00:00,29.929554250000002,475638,7.0,7.0,8.0,8.0,9.0,9.0
275,039128,BUNDABERG AERO                          ,-24.9069,152.323,30.8,6.6078773,1.6041665099875109,4.119196612911168,1998-11-07 19:00:00,29.99992993333333,349545,6.0,7.0,8.0,8.0,8.0,9.0
276,039304,HERON ISLAND                            ,-23.4483,151.9178,8.0,7.637577,1.242993791418316,6.1445013721025274,1995-10-11 22:00:00,29.999489216666667,23964,0,0,0,0,0,0
277,039322,RUNDLE ISLAND                           ,-23.5322,151.2771,19.8,7.608096,1.041543093727904,7.304638827291059,1996-01-20 04:00:00,29.99503525,411174,4.0,5.0,6.0,7.0,7.0,8.0
278,039326,GLADSTONE AIRPORT                       ,-23.8697,151.2214,16.6,5.8156376,1.511732360656411,3.847002114829216,1996-01-09 08:30:00,29.974780833333334,449236,5.0,6.0,7.0,7.0,8.0,8.0
279,040004,AMBERLEY AMO                            ,-27.6297,152.7111,24.2,4.7296977,1.6295827109980687,2.9023980632553426,1995-10-14 14:00:00,29.9928436,354609,6.0,6.0,7.0,7.0,8.0,8.0
280,040043,CAPE MORETON LIGHTHOUSE                 ,-27.0314,153.4661,99.9,8.288787,1.061829785530833,7.806135221549473,1996-03-22 06:00:00,29.999936733333335,393802,9.0,10.0,11.0,11.0,12.0,12.0
281,040068,DOUBLE ISLAND POINT LIGHTHOUSE          ,-25.9319,153.1906,95.6,7.680221,1.0275406355370835,7.474372122291462,1995-10-11 22:00:00,29.99993776666667,395888,8.0,9.0,10.0,10.0,11.0,11.0
282,040082,UNIVERSITY OF QUEENSLAND GATTON         ,-27.5436,152.3375,89.0,5.0312443,1.6565431176514187,3.03719488152364,2002-07-16 12:00:00,29.999917466666666,296584,7.0,8.0,9.0,9.0,10.0,10.0
283,040093,GYMPIE                                  ,-26.1831,152.6414,64.5,4.9575768,3.082746703278981,1.608168697880961,2000-07-24 13:00:00,29.99992465,295237,9.0,9.0,10.0,10.0,10.0,11.0
284,040126,MARYBOROUGH                             ,-25.5132,152.7152,9.0,5.6644917,1.698144744850143,3.335694245511598,2007-12-19 13:30:00,29.999888233333333,267393,6.0,6.0,7.0,7.0,8.0,8.0
285,040211,ARCHERFIELD AIRPORT                     ,-27.5716,153.0071,12.5,4.8365245,1.41506856735365,3.4178728848359876,1994-09-21 12:30:00,29.80980245,425192,5.0,6.0,6.0,7.0,7.0,8.0
286,040223,BRISBANE AERO                           ,-27.4178,153.1142,4.0,5.7996655,1.632974411161083,3.5515960393562485,1985-01-06 16:30:00,29.971252,35673,7.0,7.0,8.0,8.0,9.0,9.0
287,040282,NAMBOUR DPI                             ,-26.6431,152.9392,32.5,4.5757565,3.5603704111145174,1.2851911518955796,1997-07-14 14:00:00,29.9998359,63506,4.0,5.0,6.0,7.0,7.0,8.0
288,040284,BEERBURRUM FOREST STATION               ,-26.9586,152.9619,48.0,4.767545,3.6546134464348596,1.3045279051022234,1999-06-23 16:00:00,29.999928099999998,335219,9.0,9.0,10.0,10.0,11.0,11.0
289,040405,HERVEY BAY AIRPORT                      ,-25.322,152.8817,13.0,5.8742266,1.5808213429935054,3.715933236962583,1999-06-23 16:00:00,29.999928099999998,331208,4.0,4.0,5.0,5.0,6.0,6.0
290,040555,TOOLARA (KELLY)                         ,-25.9713,152.8609,143.0,5.1647787,1.5162442212387208,3.406297374173779,1998-11-07 20:00:00,28.772763750000003,132851,,,0.0,1.0,1.0,2.0
291,040651,JIMNA FORESTRY                          ,-26.6644,152.4606,523.0,5.4292564,2.545194038642029,2.133140482328698,2000-07-24 13:00:00,19.830322833333334,107113,5.0,5.0,6.0,6.0,6.0,7.0
292,040717,COOLANGATTA                             ,-28.1681,153.5053,4.0,6.196159,1.4649390591546751,4.229635934160447,1994-07-17 00:00:00,29.99994045,425619,6.0,7.0,7.0,8.0,8.0,9.0
293,040764,GOLD COAST SEAWAY                       ,-27.939,153.4283,3.0,7.0408583,1.4058989034231257,5.008082908091397,1994-07-17 00:00:00,29.99994045,458594,9.0,9.0,10.0,10.0,11.0,11.0
294,040842,BRISBANE AERO                           ,-27.3917,153.1292,4.5,6.2941155,1.5047858658118365,4.182731700480044,1995-10-11 22:00:00,29.99993776666667,473028,6.0,7.0,7.0,8.0,8.0,9.0
295,040861,SUNSHINE COAST AIRPORT                  ,-26.599,153.0912,3.4,6.060612,1.3194882868441422,4.593153468748111,1995-12-23 15:00:00,29.783010016666665,437979,5.0,6.0,6.0,7.0,7.0,8.0
296,040908,TEWANTIN RSL PARK                       ,-26.3911,153.0403,6.4,5.5303464,1.9855227228564,2.7853352318371725,1996-03-21 00:00:00,29.99993675,318277,5.0,6.0,7.0,7.0,7.0,8.0
297,040913,BRISBANE                                ,-27.4808,153.0389,8.1,4.860663,2.5142311896933873,1.9332601381645689,1999-12-10 14:30:00,29.999926666666667,397541,8.0,9.0,9.0,10.0,10.0,11.0
298,040922,KINGAROY AIRPORT                        ,-26.5737,151.8398,433.7,6.441113,2.2170521548457494,2.905260023346561,2001-01-19 12:00:00,29.999845999999998,291111,8.0,9.0,10.0,10.0,10.0,11.0
299,040925,BANANA BANK NORTH BEACON                ,-27.5327,153.3333,7.0,7.2326503,1.3641762833664597,5.301844320405816,2002-08-23 12:00:00,29.984582266666667,349222,7.0,7.0,8.0,8.0,9.0,9.0
300,040926,INNER RECIPROCAL MARKER                 ,-27.2633,153.2419,10.0,7.549843,1.2255615493415288,6.160313073243073,2002-03-20 09:00:00,29.999918733333335,352082,6.0,7.0,7.0,7.0,8.0,8.0
301,040927,SPITFIRE CHANNEL BEACON                 ,-27.0481,153.2664,7.0,7.3743234,1.2273710499084256,6.00822658202889,2002-07-23 10:00:00,29.99990551666667,314013,6.0,7.0,8.0,8.0,9.0,9.0
302,040958,REDCLIFFE                               ,-27.2169,153.0922,12.6,6.241101,1.1561160637323853,5.398334115320387,2004-02-27 12:00:00,29.999910483333334,329966,5.0,6.0,7.0,7.0,8.0,9.0
303,040959,REDCLIFFE JETTY                         ,-27.2261,153.1172,3.6,7.0661044,1.1597489725926107,6.0927878179384205,2004-11-04 10:30:00,29.910714283333334,332,0,0,0,0,0,0
304,040983,BEAUDESERT DRUMLEY STREET               ,-27.9707,152.9898,47.8,4.631388,2.92362498862424,1.5841252573189366,2007-08-13 10:00:00,29.999672216666667,258749,10.0,10.0,11.0,11.0,11.0,12.0
305,040988,NAMBOUR DAFF - HILLSIDE                 ,-26.6442,152.9383,53.2,4.614295,3.64264247002934,1.2667438662354293,2007-12-19 08:00:00,29.999888233333333,246831,9.0,10.0,10.0,11.0,11.0,12.0
306,041097,INGLEWOOD FOREST                        ,-28.3661,150.9539,379.0,5.4786572,1.5576189466846788,3.51732832814923,2000-07-24 13:00:00,29.999881016666667,145058,0.0,1.0,2.0,2.0,3.0,3.0
307,041175,APPLETHORPE                             ,-28.6217,151.9533,871.6,7.269514,3.2082747919898638,2.2658639160249563,1997-03-24 00:00:00,29.9999343,339787,12.0,13.0,14.0,14.0,14.0,15.0
308,041359,OAKEY AERO                              ,-27.4034,151.7413,405.7,5.9872656,1.364921496197511,4.386527432920318,1995-11-06 15:00:00,29.9240177,375513,5.0,5.0,6.0,6.0,7.0,8.0
309,041522,DALBY AIRPORT                           ,-27.1605,151.2633,345.9,6.016582,1.3951794144459861,4.312407386375929,2006-07-06 15:00:00,29.999897916666665,246507,3.0,4.0,5.0,5.0,6.0,6.0
310,041525,WARWICK                                 ,-28.2061,152.1003,475.4,5.808574,2.2037904770294148,2.6357198019596417,1998-11-13 00:30:00,29.982974966666667,294342,8.0,9.0,10.0,10.0,10.0,11.0
311,041529,TOOWOOMBA AIRPORT                       ,-27.5425,151.9134,640.9,7.552426,1.3576384864509745,5.56291379239076,1996-06-25 15:00:00,29.999936133333332,367657,7.0,8.0,9.0,9.0,9.0,10.0
312,041560,GOONDIWINDI AIRPORT                     ,-28.5226,150.3223,216.5,5.778338,1.9281413746505558,2.9968435050682336,2021-09-29 11:30:00,19.826652216666666,26776,8.0,8.0,9.0,9.0,10.0,10.0
313,042112,MILES CONSTANCE STREET                  ,-26.6569,150.1819,304.8,5.759771,2.5487507312929516,2.2598407916049426,1998-11-10 13:00:00,29.990962116666665,272779,7.0,7.0,8.0,8.0,8.0,9.0
314,043091,ROMA AIRPORT                            ,-26.5477,148.771,307.4,6.437793,1.8258790080464364,3.525859462562707,1997-03-24 00:00:00,29.9999343,342573,6.0,7.0,7.0,8.0,8.0,9.0
315,043109,ST GEORGE AIRPORT                       ,-28.0478,148.5957,198.5,6.4078445,1.8539931194870183,3.4562396570436134,1998-11-09 07:00:00,29.99502568333333,296971,7.0,7.0,8.0,8.0,9.0,9.0
316,044021,CHARLEVILLE AERO                        ,-26.4139,146.2558,301.6,5.9635735,1.820148791943265,3.276420852079677,1995-10-13 21:00:00,29.994088350000002,436345,6.0,7.0,7.0,7.0,8.0,8.0
317,045009,BALLERA GAS FIELD                       ,-27.4008,141.8114,114.5,7.179987,1.3942681658429434,5.149645620284597,2002-08-15 17:00:00,29.999917149999998,238092,6.0,7.0,7.0,7.0,8.0,9.0
318,045025,THARGOMINDAH AIRPORT                    ,-27.9867,143.815,130.9,6.581221,1.6884752491027328,3.897730278939841,1999-09-14 09:00:00,29.98447425,295336,6.0,7.0,8.0,8.0,8.0,9.0
319,140007,REDLAND (ALEXANDRA HILLS)               ,-27.5433,153.2394,50.5,5.814766,2.2568851756123394,2.576456256175335,2015-08-19 15:30:00,29.999776133333334,133591,9.0,10.0,11.0,11.0,11.0,12.0
320,140008,CANUNGRA (DEFENCE)                      ,-28.0437,153.1871,108.1,4.423792,4.979548621160842,0.888392145942074,2018-03-21 10:00:00,29.99966165,88576,12.0,13.0,13.0,13.0,14.0,14.0
321,140009,GREENBANK (DEFENCE)                     ,-27.6932,152.9935,41.5,4.908845,4.074592874453685,1.2047448908556568,2018-03-21 10:00:00,29.99966165,88580,13.0,13.0,14.0,14.0,15.0,15.0
322,140010,TIN CAN BAY (DEFENCE)                   ,-25.9351,152.9647,31.3,5.0545983,2.5170895849130974,2.008112210923127,2018-03-21 10:00:00,29.99966165,88597,9.0,9.0,10.0,10.0,11.0,11.0
323,200001,MIDDLE PERCY ISLAND                     ,-21.6628,150.2711,208.7,8.471742,1.4536700820188755,5.827829698857738,2004-07-19 15:00:00,29.99990861666667,270131,13.0,13.0,14.0,14.0,15.0,16.0
324,200283,WILLIS ISLAND                           ,-16.2878,149.9652,9.3,8.290417,1.0454187867380387,7.930235062445565,1996-02-25 14:00:00,29.591969233333334,394474,5.0,6.0,7.0,7.0,8.0,8.0
325,200601,CATO ISLAND                             ,-23.2503,155.542,6.3,7.3083787,0.9507163968707086,7.68723324905013,2011-08-19 08:30:00,29.999853050000002,123788,6.0,7.0,8.0,9.0,9.0,10.0
326,200701,FREDERICK REEF                          ,-20.9375,154.4019,4.9,7.7917237,1.02273082206195,7.61854787212814,2008-10-16 14:30:00,29.99988185,150288,10.0,11.0,13.0,13.0,14.0,15.0
327,200704,MARION REEF                             ,-19.0964,152.3892,2.0,,,7.7626823307490165,2009-03-06 14:00:00,29.182688700000003,254077,,,,,,
328,200732,HOLMES REEF                             ,-16.4683,147.8734,1.9,7.975161,1.0315795259410205,7.731019155616717,2004-03-04 08:00:00,29.7681779,156232,,,2.0,4.0,7.0,8.0
329,200736,CREAL REEF                              ,-20.5303,150.3773,1.7,7.5786285,0.9909561276120894,7.647794214968236,2008-04-10 15:00:00,29.999885916666663,160340,12.0,13.0,15.0,15.0,16.0,17.0
330,200783,FLINDERS REEF                           ,-17.7195,148.4478,2.6,7.5321856,0.988629581699174,7.618814664192733,2006-03-18 00:00:00,29.999899733333333,166696,10.0,11.0,13.0,13.0,14.0,15.0
331,200831,GANNET CAY                              ,-21.9769,152.4707,2.3,7.768302,1.0328996236399237,7.520868229606635,2004-03-04 09:00:00,29.919151666666668,161390,2.0,3.0,4.0,5.0,5.0,6.0
332,200840,BOUGAINVILLE REEF                       ,-15.4877,147.1183,0.0,8.515772,1.070848517819345,7.952359016367766,2009-02-01 11:00:00,29.45528823333333,163172,8.0,9.0,10.0,10.0,11.0,12.0
333,200869,WILLIS ISLAND COMPARISON                ,-16.2878,149.965,8.1,8.290417,2.0165878502098287,4.111111111111112,2005-10-25 15:00:00,0.0,1,0,0,0,0,0,0
334,200879,ARLINGTON REEF                          ,-16.7226,146.1124,0.0,7.972325,1.1132412926097193,7.161362860953444,2010-05-04 11:00:00,29.999867716666664,225680,9.0,10.0,11.0,11.0,12.0,13.0
335,200880,LIHOU REEF LIGHTHOUSE                   ,-17.133,152.145,10.3,,,6.855449254408531,2013-09-30 09:30:00,29.999820399999997,167053,,,,,,
336,200892,TORRES STRAIT NTC AWS                   ,-10.5865,142.2219,3.0,7.4860168,1.3655540546549088,5.482036192428498,2016-12-01 16:30:00,29.999730816666666,87473,5.0,6.0,6.0,7.0,7.0,8.0
337,200897,HOPE BANKS BEACON                       ,-27.4344,153.2904,7.0,7.476102,1.5039172237467229,4.9710860127526795,2021-04-16 14:00:00,29.999138016666667,34383,6.0,7.0,7.0,7.0,8.0,9.0
338,016001,WOOMERA AERODROME                       ,-31.1558,136.8054,166.6,7.554833,1.4830828604850566,5.094005963269221,1992-04-07 16:00:00,29.996744550000003,446543,11.0,12.0,13.0,13.0,14.0,14.0
339,016090,COOBER PEDY AIRPORT                     ,-29.0347,134.7222,225.0,7.636268,1.3592475403893975,5.618011371716633,1994-10-07 09:30:00,29.999939966666666,376534,7.0,8.0,9.0,9.0,9.0,10.0
340,016092,PORT AUGUSTA ARID LANDS                 ,-32.4783,137.7386,18.5,6.2530103,1.3085304137444949,4.778651078568439,1994-10-31 13:00:00,29.8509583,33740,1.0,2.0,2.0,2.0,3.0,3.0
341,016096,ROXBY DOWNS (OLYMPIC DAM AERODROME)     ,-30.4869,136.8739,99.2,7.5228577,1.766015694551389,4.25979094592736,1998-09-06 09:30:00,29.999930416666665,312472,10.0,11.0,11.0,11.0,12.0,13.0
342,016097,ERNABELLA (PUKATJA)                     ,-26.2635,132.1771,703.2,6.9297357,1.645347239009066,4.211716223942195,1997-08-11 10:30:00,29.999933316666667,298261,7.0,7.0,8.0,8.0,9.0,9.0
343,016098,TARCOOLA AERO                           ,-30.7051,134.5786,123.0,7.225655,1.6549341067166268,4.366128566425868,1997-09-29 09:30:00,29.999932966666666,306018,9.0,9.0,10.0,10.0,11.0,11.0
344,017043,OODNADATTA AIRPORT                      ,-27.5553,135.4456,116.5,6.5099835,1.3220532828415168,4.92414611731023,1995-03-05 10:30:00,29.999817316666668,338201,5.0,6.0,6.0,6.0,7.0,8.0
345,017110,LEIGH CREEK AIRPORT                     ,-30.5963,138.4219,258.8,7.4333596,1.6863160325062063,4.4080465818188586,1992-07-29 09:30:00,29.99994425,336634,15.0,16.0,16.0,17.0,17.0,18.0
346,017123,MOOMBA AIRPORT                          ,-28.0997,140.1956,37.8,7.9937577,1.702379033194677,4.695639201900244,1995-10-19 11:30:00,29.557921216666667,348485,9.0,9.0,10.0,10.0,11.0,11.0
347,017126,MARREE AERO                             ,-29.6587,138.0684,50.0,6.9300995,1.387275479889836,4.9954746463586375,1998-10-10 09:30:00,29.99993015,296174,8.0,8.0,9.0,9.0,10.0,11.0
348,018012,CEDUNA AMO                              ,-32.1297,133.6976,15.3,7.64024,1.4281852504997616,5.349614267294665,1992-04-14 09:30:00,29.97859156666667,460343,8.0,9.0,9.0,9.0,10.0,11.0
349,018083,WUDINNA AERO                            ,-33.043,135.4519,86.4,7.041612,1.545017650307672,4.557625698892604,1999-07-13 17:30:00,29.999927933333332,303511,9.0,10.0,11.0,11.0,11.0,12.0
350,018106,NULLARBOR                               ,-31.4492,130.8976,64.0,8.068025,1.4138462699539682,5.706436977464048,1992-04-06 10:00:00,29.999227533333332,366849,11.0,12.0,12.0,13.0,13.0,14.0
351,018115,NEPTUNE ISLAND                          ,-35.3365,136.1174,32.0,8.759283,1.0775531186423808,8.128864289151519,1995-08-15 13:00:00,29.999938116666666,362358,8.0,9.0,10.0,10.0,11.0,11.0
352,018116,CLEVE AERODROME                         ,-33.7081,136.5026,175.0,7.49255,1.3874085132133163,5.400392043787497,1996-07-16 17:30:00,29.971289416666664,323614,10.0,10.0,11.0,11.0,12.0,12.0
353,018120,WHYALLA AERO                            ,-33.0539,137.5206,9.3,6.8054705,1.4297595056743542,4.759870761204648,1992-04-06 10:30:00,29.999944816666666,472131,10.0,11.0,12.0,12.0,13.0,13.0
354,018191,COULTA (COLES POINT)                    ,-34.3749,135.3741,28.0,7.9129443,1.5213300137915662,5.201333205241126,1992-04-06 10:30:00,29.9999319,349439,8.0,9.0,9.0,9.0,10.0,10.0
355,018192,NORTH SHIELDS (PORT LINCOLN AWS)        ,-34.5993,135.8784,8.5,6.7399406,1.306851011987186,5.1573902315474,1992-04-06 10:30:00,29.999944816666666,463102,8.0,9.0,9.0,9.0,10.0,11.0
356,018195,MINNIPA PIRSA                           ,-32.8427,135.1515,165.0,7.5427666,1.4952031586158936,5.044643283142369,1996-07-19 04:30:00,29.96374408333333,328996,7.0,8.0,9.0,9.0,9.0,10.0
357,018200,THEVENARD WIND                          ,-32.1803,133.6343,8.5,8.405201,1.3408946222180491,6.268353097239243,2002-07-12 12:00:00,29.999893633333333,269258,8.0,8.0,9.0,9.0,10.0,10.0
358,018201,PORT AUGUSTA AERO                       ,-32.5073,137.7169,14.0,6.0209565,1.1716760496692462,5.138755305244596,2001-07-02 17:30:00,29.9999214,301610,4.0,5.0,6.0,6.0,7.0,7.0
359,018207,CEDUNA (THEVENARD NTC AWS)              ,-32.149,133.6416,5.0,8.236557,1.7267910444607848,4.769863170913028,2021-06-04 14:00:00,29.99907555,32425,13.0,14.0,15.0,15.0,16.0,16.0
360,018217,CUMMINS AERO                            ,-34.2524,135.7135,60.1,6.980287,1.5766915929481204,4.427173396663379,2007-05-25 08:30:00,29.999892233333334,235504,9.0,10.0,10.0,10.0,11.0,12.0
361,018229,CULTANA (DEFENCE)                       ,-32.6845,137.3689,171.0,7.730015,1.364082565451499,5.666823253082796,2017-12-06 14:30:00,29.999039483333334,93646,9.0,10.0,11.0,11.0,11.0,12.0
362,018230,COFFIN BAY (POINT AVOID)                ,-34.675,135.3362,35.0,8.706226,1.583443888205887,5.498285359982979,2017-06-13 08:30:00,29.999706333333332,100264,11.0,12.0,13.0,13.0,13.0,14.0
363,020062,YUNTA AIRSTRIP                          ,-32.5707,139.5645,300.0,6.627433,1.6355670129502227,4.05207048730253,1998-07-05 09:30:00,29.9999309,310408,10.0,10.0,11.0,11.0,12.0,12.0
364,021131,CLARE HIGH SCHOOL                       ,-33.8226,138.5933,395.0,7.7164545,2.6311634153001555,2.9327157944844484,1993-10-02 21:30:00,29.996464666666668,341775,13.0,14.0,14.0,14.0,15.0,16.0
365,021133,SNOWTOWN (RAYVILLE PARK)                ,-33.7676,138.2182,109.1,5.9311748,1.2479395040835541,4.752774261643473,1998-10-10 09:30:00,29.99993015,349456,7.0,7.0,8.0,8.0,9.0,9.0
366,021139,PORT PIRIE AERODROME AWS                ,-33.2371,137.9971,12.0,5.8863773,1.152382595552931,5.108006106053998,2015-01-22 11:00:00,29.99937525,142139,4.0,4.0,5.0,5.0,6.0,6.0
367,022031,MINLATON AERO                           ,-34.748,137.5276,32.0,7.4820786,1.2216382601463192,6.124626901706519,2001-03-29 14:30:00,29.999922333333334,333438,7.0,8.0,9.0,9.0,9.0,10.0
368,022046,EDITHBURGH                              ,-35.1121,137.7395,6.0,7.637971,1.4038274651399552,5.440818842802717,1993-01-20 10:30:00,29.999830133333333,444059,7.0,8.0,9.0,9.0,9.0,10.0
369,022049,STENHOUSE BAY                           ,-35.2795,136.9392,42.0,7.8783484,1.3571957649054125,5.804872483575699,1996-06-25 19:30:00,29.870462966666665,339098,8.0,8.0,9.0,9.0,10.0,10.0
370,022050,KADINA AWS                              ,-33.9703,137.6628,41.1,6.9595814,1.291834962248716,5.387361062753268,2005-07-19 18:30:00,29.99990346666667,295783,7.0,8.0,9.0,9.0,9.0,10.0
371,022053,MOONTA (WARBURTO POINT)                 ,-34.0041,137.528,1.0,7.919856,1.2850880414658163,6.1628898689606535,2003-07-14 16:00:00,29.999913316666667,337498,8.0,9.0,9.0,9.0,10.0,11.0
372,022803,CAPE WILLOUGHBY                         ,-35.8426,138.1327,55.0,7.846968,1.12743570704323,6.960013883682888,1995-06-26 14:30:00,29.996367799999998,334711,9.0,9.0,10.0,10.0,11.0,11.0
373,022823,CAPE BORDA                              ,-35.7549,136.5959,158.0,8.361429,1.3927475630033437,6.003549700310956,2002-09-09 16:30:00,29.99991686666667,332742,11.0,11.0,12.0,12.0,13.0,13.0
374,022841,KINGSCOTE AERO                          ,-35.7114,137.5231,6.2,6.6237054,1.5759962505321177,4.20286874723151,1994-05-24 00:30:00,29.78361411666667,457500,8.0,9.0,10.0,10.0,10.0,11.0
375,022843,PARNDANA CFS AWS                        ,-35.7916,137.2496,165.0,7.8238273,1.7583394759770081,4.44955446521262,2011-09-09 14:30:00,29.999852316666665,202175,11.0,12.0,12.0,12.0,13.0,14.0
376,023000,ADELAIDE (WEST TERRACE / NGAYIRDAPIRA)  ,-34.9257,138.5832,29.3,4.7036448,1.520524897638208,3.0934348788424915,2017-05-08 12:30:00,29.9997112,103759,6.0,7.0,7.0,7.0,8.0,9.0
377,023013,PARAFIELD AIRPORT                       ,-34.7977,138.6281,9.5,5.23368,1.2524321724834528,4.1788129420577365,1992-04-06 10:30:00,29.986653133333334,444372,5.0,6.0,7.0,7.0,7.0,8.0
378,023034,ADELAIDE AIRPORT                        ,-34.9524,138.5196,2.0,5.6294746,1.2274308087382066,4.586388576704908,1985-01-30 00:00:00,29.938614366666666,426246,6.0,7.0,7.0,8.0,8.0,9.0
379,023046,ADELAIDE AIRPORT OLD SITE               ,-34.9566,138.5356,6.0,5.2303467,,,,,,,,,,,
380,023052,OUTER HARBOUR (BLACK POLE)              ,-34.7343,138.4653,6.3,7.1756344,1.3046908788592932,5.4998731886813035,2001-12-28 16:00:00,29.99991921666667,350540,7.0,8.0,9.0,9.0,9.0,10.0
381,023083,EDINBURGH RAAF                          ,-34.7111,138.6222,16.5,5.537941,1.2444149239217144,4.450236711684033,1992-04-06 10:30:00,29.986653133333334,436675,6.0,6.0,7.0,7.0,8.0,8.0
382,023090,ADELAIDE (KENT TOWN)                    ,-34.9211,138.6216,48.0,4.9347153,1.691011371121515,2.9182034818153144,1993-10-07 12:30:00,29.9995533,405843,6.0,7.0,8.0,8.0,8.0,9.0
383,023109,ADELAIDE AIRPORT (ANEMOMETER SOUTH WEST),-34.9573,138.5152,3.0,5.7327433,1.6019337153501687,3.578639495699422,2011-10-11 13:30:00,29.999553583333334,201086,8.0,8.0,9.0,9.0,10.0,10.0
384,023122,ROSEWORTHY AWS                          ,-34.5106,138.6763,65.0,6.5599585,1.4134330298377236,4.641152654186897,1997-08-11 10:30:00,29.999933316666667,361493,8.0,8.0,9.0,9.0,10.0,10.0
385,023123,ADELAIDE AIRPORT (ANEMOMETER NORTHEAST) ,-34.9382,138.5435,5.0,4.97509,1.423748717061785,3.4943596206517737,2011-10-20 12:30:00,29.999552616666666,199951,6.0,7.0,7.0,7.0,8.0,8.0
386,023124,ADELAIDE AIRPORT (ANEMOMETER NORTHWEST) ,-34.9435,138.5232,2.0,5.444234,1.3532663483963467,4.023032051894066,2009-08-23 19:30:00,29.999874466666665,202491,5.0,6.0,7.0,7.0,7.0,8.0
387,023373,NURIOOTPA PIRSA                         ,-34.4761,139.0056,275.0,7.282921,1.8495833659799286,3.937600743691689,1996-09-03 09:30:00,29.999935666666666,337072,11.0,12.0,13.0,13.0,13.0,14.0
388,023842,MOUNT LOFTY                             ,-34.9784,138.7088,685.0,9.25294,2.0122407662217197,4.598326568689515,1993-03-01 10:30:00,29.99982951666667,498911,13.0,14.0,14.0,15.0,15.0,16.0
389,023849,GOOLWA (HINDMARSH ISLAND MARINA)        ,-35.5147,138.7989,3.0,6.9932194,1.145590737689795,6.104465709728868,2003-01-28 10:00:00,29.897610916666668,208,0,0,0,0,0,0
390,023875,PARAWA (SECOND VALLEY FOREST AWS)       ,-35.5695,138.2864,341.0,7.6294303,1.6779807167160972,4.546792593044866,1994-03-08 10:30:00,29.99982355,392059,9.0,10.0,11.0,11.0,11.0,12.0
391,023878,MOUNT CRAWFORD AWS                      ,-34.7253,138.9278,525.0,8.107694,1.3901634542820922,5.8321873209989885,1994-10-07 10:00:00,29.999939966666666,385258,9.0,10.0,11.0,11.0,11.0,12.0
392,023885,NOARLUNGA                               ,-35.1586,138.5057,55.0,6.789034,1.5661807443601286,4.334770373226752,2000-09-04 13:30:00,29.999924266666667,357135,9.0,9.0,10.0,10.0,11.0,11.0
393,023886,SELLICKS HILL (MOUNT TERRIBLE RADAR)    ,-35.3294,138.5019,385.7,9.093616,1.770824777732333,5.1352429931358925,1998-03-16 10:30:00,29.999795233333334,236379,15.0,15.0,16.0,16.0,17.0,17.0
394,023887,KUITPO FOREST RESERVE                   ,-35.1712,138.6783,365.0,7.7959957,1.694175573749126,4.6016456812844515,1998-10-10 09:30:00,29.99993015,363211,10.0,11.0,11.0,12.0,12.0,13.0
395,023894,HINDMARSH ISLAND AWS                    ,-35.5194,138.8177,11.0,7.1058564,1.203794684801844,5.902880705756988,2003-02-03 12:30:00,29.99974565,291002,7.0,7.0,8.0,8.0,9.0,9.0
396,024024,LOXTON RESEARCH CENTRE                  ,-34.439,140.5978,30.1,6.1853004,1.8436088382238194,3.3549960392619336,1996-12-22 10:30:00,29.9998048,330393,8.0,9.0,10.0,10.0,10.0,11.0
397,024048,RENMARK AERO                            ,-34.1983,140.6766,31.5,6.4385605,1.621229665819658,3.9714055457927047,1995-06-26 12:30:00,29.999938416666666,356538,8.0,8.0,9.0,9.0,10.0,10.0
398,024580,STRATHALBYN RACECOURSE                  ,-35.2836,138.8934,58.0,6.433199,1.4620288719173726,4.400185969238906,1996-05-14 09:30:00,29.999936400000003,346729,8.0,9.0,10.0,10.0,11.0,11.0
399,024584,MURRAY BRIDGE (PALLAMANA AERODROME)     ,-35.065,139.2273,45.0,6.1888323,1.358563770053562,4.5554227335062984,2006-03-02 11:30:00,29.99969995,292023,7.0,8.0,8.0,9.0,9.0,10.0
400,025557,KEITH (MUNKORA)                         ,-36.1058,140.3273,27.0,7.2506366,1.8444077747060776,3.9311461798417398,2001-07-04 10:30:00,29.999921383333334,292580,10.0,11.0,11.0,12.0,12.0,13.0
401,025562,LAMEROO (AUSTIN PLAINS)                 ,-35.3778,140.5378,110.1,7.3393073,1.4978960365214775,4.899744127263259,2004-06-28 17:30:00,29.999908899999998,268298,8.0,9.0,9.0,10.0,10.0,11.0
402,026021,MOUNT GAMBIER AERO                      ,-37.7473,140.7739,63.0,7.405189,1.6576281064336131,4.467340417661753,1992-04-06 10:00:00,29.998565466666665,463261,10.0,11.0,11.0,12.0,12.0,13.0
403,026091,COONAWARRA                              ,-37.2906,140.8254,57.0,7.557906,1.8771273877154655,4.026314996136797,1997-08-13 09:30:00,29.999933300000002,375085,9.0,10.0,11.0,11.0,11.0,12.0
404,026095,CAPE JAFFA (THE LIMESTONE)              ,-36.9655,139.7164,17.0,8.554711,1.4257076545827585,6.000326444457153,1992-04-06 10:30:00,29.999944816666666,453871,9.0,9.0,10.0,10.0,10.0,11.0
405,026099,NARACOORTE AERODROME                    ,-36.9813,140.727,49.7,7.5468345,1.6173521146276237,4.666166631611399,1998-06-17 09:30:00,29.999931033333333,359773,8.0,9.0,10.0,10.0,10.0,11.0
406,026100,PADTHAWAY SOUTH                         ,-36.6539,140.5212,37.0,7.533033,2.0358996138378753,3.700100360024136,2000-06-19 17:30:00,29.999924966666665,283750,10.0,10.0,11.0,11.0,12.0,12.0
407,026105,ROBE AIRFIELD                           ,-37.1776,139.8054,3.0,8.015584,1.8008991908793164,4.450878779111819,2003-07-03 09:30:00,29.99991345,275566,11.0,12.0,13.0,13.0,14.0,14.0
408,091104,LAUNCESTON AIRPORT COMPARISON           ,-41.5397,147.2033,166.0,6.223383,1.5696375904291247,3.964853408058153,1990-10-05 17:00:00,29.98554825,155259,6.0,7.0,7.0,7.0,8.0,8.0
409,091107,WYNYARD AIRPORT                         ,-40.9964,145.7311,12.0,6.9946613,1.5789141028163858,4.430045509568912,1990-10-02 11:00:00,29.999894766666667,386099,8.0,9.0,9.0,9.0,10.0,10.0
410,091126,DEVONPORT AIRPORT                       ,-41.1701,146.4289,8.0,6.906388,1.3195410920199708,5.2339315900851044,1990-10-20 11:00:00,29.95438473333333,392616,8.0,8.0,9.0,9.0,10.0,10.0
411,091219,SCOTTSDALE (WEST MINSTONE ROAD)         ,-41.1708,147.4883,197.5,5.9942064,1.690954182100489,3.5448662607060584,2003-01-22 13:30:00,29.992384183333336,316994,9.0,9.0,10.0,10.0,11.0,11.0
412,091237,LAUNCESTON (TI TREE BEND)               ,-41.4194,147.1219,5.0,5.517305,1.897646580788466,2.907445966580314,1999-10-15 13:00:00,29.999781433333332,360789,9.0,10.0,11.0,11.0,11.0,12.0
413,091245,CAPE GRIM BAPS (COMPARISON)             ,-40.6828,144.69,94.0,9.765862,0.9852946418157095,9.911616333270796,1997-05-19 11:00:00,29.999933816666665,367560,12.0,13.0,14.0,14.0,15.0,15.0
414,091259,LUNCHEON HILL (FORESTRY)                ,-41.1492,145.1517,344.0,7.2476306,1.2604384733794693,5.750086774746447,1997-11-05 12:00:00,29.999798116666668,340725,8.0,8.0,9.0,9.0,10.0,10.0
415,091291,SHEFFIELD SCHOOL FARM                   ,-41.389,146.3173,277.3,6.3933864,1.8484440839131522,3.4587934899541937,2003-04-15 13:00:00,28.534025583333335,288331,10.0,11.0,11.0,12.0,12.0,13.0
416,091292,SMITHTON AERODROME                      ,-40.8347,145.0847,7.5,7.9246025,1.496100183447403,5.296839473867707,1998-07-24 05:00:00,29.99993076666667,354933,10.0,11.0,11.0,11.0,12.0,12.0
417,091293,LOW HEAD                                ,-41.0547,146.7874,3.0,8.850545,1.253670578055351,7.059705383876077,2000-06-06 16:00:00,29.999925083333334,290739,10.0,11.0,12.0,12.0,13.0,13.0
418,091306,CRESSY RESEARCH STATION                 ,-41.7256,147.0794,148.0,6.325494,1.5044056712157958,4.204646348779743,2000-06-30 12:00:00,28.713203866666667,326787,8.0,9.0,9.0,9.0,10.0,10.0
419,091311,LAUNCESTON AIRPORT                      ,-41.5476,147.2156,166.9,6.3953533,1.3490376282080065,4.740678231307756,2004-07-14 16:00:00,29.999908683333334,326283,7.0,7.0,8.0,8.0,9.0,9.0
420,091331,CAPE GRIM                               ,-40.6764,144.6922,86.0,10.401933,1.2111714956712456,8.588323580555167,2010-12-17 12:00:00,29.999583166666664,207856,14.0,14.0,15.0,15.0,16.0,17.0
421,091344,BURNIE NTC AWS                          ,-41.05,145.9149,0.0,7.120767,1.6194587856297495,4.397004221245198,2013-05-16 10:00:00,29.999827216666667,168524,10.0,11.0,12.0,12.0,12.0,13.0
422,091375,CRESSY (BRUMBYS CREEK)                  ,-41.7114,147.082,152.0,6.2882853,1.698583398462509,3.7020762484338645,2022-12-16 06:30:00,29.98389693333333,5587,10.0,11.0,12.0,12.0,12.0,13.0
423,092012,FINGAL (LEGGE STREET)                   ,-41.6428,147.9664,237.0,4.9386673,1.9000806232221226,2.599188285488843,2001-04-10 11:00:00,30.00008305,292592,8.0,8.0,9.0,9.0,9.0,10.0
424,092037,SWAN ISLAND LIGHTHOUSE                  ,-40.7314,148.1253,11.0,9.959597,1.7684117327783015,5.631944444444446,2001-02-15 15:30:00,29.166666666666668,36,0,0,0,0,0,0
425,092045,LARAPUNA (EDDYSTONE POINT)              ,-40.9928,148.3467,19.7,8.358269,1.2261202999197958,6.816842310122186,1994-06-27 17:30:00,29.99994055,340619,12.0,12.0,13.0,13.0,14.0,15.0
426,092100,STORYS CREEK (STORYS CREEK ROAD)        ,-41.635,147.7292,779.2,7.4738994,3.8648514614170053,1.933812835780036,1992-05-27 10:00:00,30.00030355,71890,19.0,19.0,20.0,20.0,21.0,21.0
427,092114,FRIENDLY BEACHES                        ,-41.9953,148.2794,55.0,6.8681216,1.7361313510056893,3.9559919357567166,1997-11-02 17:00:00,29.999798183333333,367314,10.0,11.0,11.0,11.0,12.0,12.0
428,092120,ST HELENS AERODROME                     ,-41.3381,148.2792,48.0,6.887335,1.9818905042806911,3.4751338728009564,2001-01-10 12:30:00,29.99976925,333742,11.0,11.0,12.0,12.0,13.0,13.0
429,092123,SWAN ISLAND                             ,-40.7292,148.125,15.0,9.807541,1.4777695785185063,6.636718630645343,2003-12-09 10:30:00,28.860425449999997,318158,17.0,18.0,18.0,18.0,19.0,20.0
430,092124,MARIA ISLAND (POINT LESUEUR)            ,-42.6621,148.0179,28.0,7.994164,1.2246667193535041,6.527624098612588,2004-10-08 17:00:00,29.999722583333334,310052,10.0,11.0,11.0,11.0,12.0,12.0
431,092133,SPRING BAY NTC AWS                      ,-42.5464,147.9308,0.0,6.9264793,1.4634800330067825,4.7328827065503996,2013-05-16 10:00:00,4.592750016666667,24694,11.0,12.0,13.0,13.0,13.0,14.0
432,092163,FINGAL (FLEMING ST)                     ,-41.643,147.98,255.0,4.9750752,2.1042445868258035,2.3643046421748584,2022-07-22 16:00:00,29.997623566666668,12619,11.0,12.0,12.0,13.0,13.0,14.0
433,094008,HOBART AIRPORT WEST                     ,-42.8339,147.5033,4.0,7.273921,1.6646923253730566,4.3695287723804075,1984-12-02 01:00:00,29.994277333333333,442901,9.0,9.0,10.0,10.0,10.0,11.0
434,094029,HOBART (ELLERSLIE ROAD)                 ,-42.8897,147.3278,50.5,5.7155623,1.3262294274665427,4.3096331790161555,1994-10-20 11:00:00,29.9998197,481920,8.0,8.0,9.0,9.0,10.0,10.0
435,094041,MAATSUYKER ISLAND LIGHTHOUSE            ,-43.6578,146.2711,146.5,11.00239,1.1327256639745145,9.71319910703856,1997-11-17 01:00:00,29.999797866666665,334241,20.0,20.0,21.0,22.0,22.0,23.0
436,094087,KUNANYI (MOUNT WELLINGTON PINNACLE)     ,-42.895,147.2358,1260.5,14.577116,1.6098334733976747,9.055045912175713,1990-07-05 10:30:00,29.999947766666665,528412,18.0,19.0,20.0,20.0,20.0,21.0
437,094155,TASMAN ISLAND                           ,-43.2397,148.0025,240.0,13.24206,2.158417127236229,6.135079054250072,2001-12-14 15:30:00,29.999598733333336,344419,20.0,21.0,21.0,22.0,22.0,23.0
438,094191,HARTZ MOUNTAIN (KEOGHS PIMPLE)          ,-43.2006,146.7683,831.0,9.149965,1.2717567496550126,7.1947448195081165,1999-06-16 10:30:00,29.999928150000002,396113,11.0,12.0,12.0,13.0,13.0,14.0
439,094195,TUNNACK FIRE STATION                    ,-42.4543,147.4612,461.5,8.39643,1.8382890276644155,4.567524414934796,1998-02-13 12:00:00,29.999591866666666,333787,12.0,13.0,13.0,13.0,14.0,15.0
440,094198,CAPE BRUNY (CAPE BRUNY)                 ,-43.4886,147.1444,59.7,9.06314,1.397837547055652,6.483686129734128,1997-11-17 17:30:00,29.99979785,365268,12.0,13.0,13.0,14.0,14.0,15.0
441,094212,CAMPANIA (KINCORA)                      ,-42.6867,147.4258,45.0,6.586143,1.6020751686945427,4.111007489231564,2001-05-23 14:00:00,29.887280116666666,296440,8.0,9.0,9.0,9.0,10.0,11.0
442,094220,GROVE (RESEARCH STATION)                ,-42.9844,147.0756,65.0,5.5539703,2.1320042617241777,2.6050465454616396,2005-03-07 08:00:00,29.055914266666665,295092,9.0,10.0,10.0,10.0,11.0,11.0
443,094250,HOBART AIRPORT                          ,-42.8333,147.5119,2.2,7.2654095,1.63104411412988,4.454453074974248,2022-08-04 13:30:00,3.5156295666666666,11972,8.0,9.0,9.0,10.0,10.0,11.0
444,094254,DUNALLEY (STROUD POINT)                 ,-42.9017,147.7894,12.4,8.562824,1.577612229783377,5.427711631294431,2012-04-05 20:00:00,29.999844633333332,192827,12.0,13.0,14.0,14.0,14.0,15.0
445,094255,DENNES POINT                            ,-43.0639,147.3567,5.7,7.348834,1.7469165639459858,4.206745868377939,2012-09-28 10:30:00,29.999837533333334,184574,10.0,11.0,11.0,12.0,12.0,13.0
446,095003,BUSHY PARK (BUSHY PARK ESTATES)         ,-42.7097,146.8983,27.0,4.6503453,1.524571594841619,3.05026365518313,1998-07-22 13:30:00,29.95341765,328315,7.0,8.0,8.0,8.0,9.0,9.0
447,095048,OUSE FIRE STATION                       ,-42.4842,146.7106,90.0,4.970779,1.6862430230390568,2.9478425554280387,1999-12-10 11:00:00,29.999779999999998,324163,8.0,8.0,9.0,9.0,9.0,10.0
448,096003,BUTLERS GORGE                           ,-42.2753,146.2758,667.0,6.9902415,3.038887698693568,2.3002631951692427,2008-05-21 12:00:00,29.999885066666664,259644,11.0,12.0,12.0,12.0,13.0,13.0
449,096033,LIAWENEE                                ,-41.8997,146.6694,1057.0,7.8315535,1.5602924740720059,5.019285543773034,2001-01-11 15:00:00,29.99961538333333,331512,11.0,11.0,12.0,12.0,13.0,13.0
450,096075,BARREN TIER                             ,-42.0197,146.7533,1186.0,9.670485,1.637489563436972,5.905677055155719,1997-01-31 12:30:00,29.99958581666667,60624,8.0,9.0,9.0,9.0,10.0,10.0
451,097000,CAPE SORELL                             ,-42.1986,145.17,19.3,9.040999,1.326232612890898,6.817054055720446,2011-06-02 13:00:00,29.999855683333333,196417,13.0,14.0,14.0,14.0,15.0,16.0
452,097024,WARRA                                   ,-43.0609,146.704,495.0,7.7259054,2.141379915579832,3.6079097231581225,2004-09-28 15:00:00,29.999723,318298,14.0,14.0,15.0,15.0,16.0,16.0
453,097072,STRAHAN AERODROME                       ,-42.155,145.2908,21.0,7.043267,1.473065631483708,4.781366575045081,1993-05-30 03:30:00,29.989690483333334,368950,10.0,10.0,11.0,11.0,12.0,12.0
454,097080,LOW ROCKY POINT                         ,-42.9831,145.5025,34.0,9.783088,1.260640592234709,7.760409898483005,2012-03-28 17:30:00,29.99953485,192894,15.0,16.0,17.0,17.0,18.0,18.0
455,097083,SCOTTS PEAK DAM                         ,-43.0425,146.2722,408.0,6.941533,1.0790267608542417,6.433142661993502,1998-10-15 14:00:00,26.184982016666666,310949,9.0,10.0,10.0,11.0,11.0,12.0
456,097085,MOUNT READ                              ,-41.8444,145.5417,1119.5,10.757934,1.3865418072963276,7.7588238306463335,1998-01-12 11:00:00,29.999796633333336,256006,15.0,15.0,16.0,16.0,17.0,17.0
457,098017,KING ISLAND AIRPORT                     ,-39.8804,143.8857,35.4,8.519295,1.3710709286545533,6.213606138618669,1990-11-21 15:00:00,29.87315065,354193,11.0,11.0,12.0,12.0,13.0,13.0
458,099005,FLINDERS ISLAND AIRPORT                 ,-40.0911,148.0024,9.0,8.648583,1.3177967014962435,6.5629117164663535,1993-06-07 16:00:00,29.968839666666668,355979,13.0,14.0,15.0,15.0,15.0,16.0
459,200838,HOGAN ISLAND                            ,-39.2225,146.9841,116.0,10.713673,1.0453035643689612,10.249340960017854,2003-05-09 10:00:00,29.9999141,335418,17.0,17.0,18.0,18.0,19.0,20.0
460,300000,DAVIS                                   ,-68.5744,77.9672,18.0,,,6.172717920624387,2000-05-01 09:30:00,24.114696566666666,500416,,,,,,
461,300001,MAWSON                                  ,-67.6017,62.8753,9.9,,,12.049704269209126,2000-09-22 05:30:00,24.97859175,474817,,,,,,
462,300004,MACQUARIE ISLAND                        ,-54.4994,158.9369,6.0,13.210157,1.3028950975457785,10.139079822537308,1997-11-13 00:00:00,29.999797966666666,389105,15.0,16.0,16.0,17.0,17.0,18.0
463,300017,CASEY                                   ,-66.2825,110.5231,40.0,,,7.121766412835365,1998-04-16 15:00:00,29.69494765,442547,,,,,,
464,300050,WILKINS RUNWAY EAST                     ,-66.6831,111.5317,753.0,,,8.656960454128807,2007-11-09 20:00:00,29.988209066666666,269699,,,,,,
465,300055,DAVIS (WHOOP WHOOP)                     ,-68.4723,78.8735,577.0,,,10.634593079552724,2007-02-15 13:30:00,29.99989403333333,283151,,,,,,
466,300060,CASEY SKIWAY SOUTH                      ,-66.2803,110.7615,390.0,,,7.0798922748672295,2010-01-05 15:30:00,29.99986953333333,229954,,,,,,
467,076031,MILDURA AIRPORT                         ,-34.2358,142.0867,50.0,7.036588,1.9507464927268248,3.6071258967894306,1989-01-16 12:00:00,29.9638527,447823,9.0,9.0,10.0,10.0,11.0,11.0
468,076064,WALPEUP RESEARCH                        ,-35.1201,142.004,105.0,7.2197957,1.703626183265743,4.237899003200368,1998-11-19 12:00:00,29.999789533333335,400068,9.0,9.0,10.0,10.0,11.0,11.0
469,077010,HOPETOUN AIRPORT                        ,-35.7151,142.3569,77.3,7.087376,1.591308088655824,4.453805123112896,2004-06-18 18:00:00,29.99990903333333,327483,9.0,10.0,10.0,11.0,11.0,12.0
470,077094,SWAN HILL AERODROME                     ,-35.3766,143.5416,71.0,6.9382935,1.6485015163220338,4.208848695821192,1997-05-01 10:00:00,29.999934033333332,413591,10.0,10.0,11.0,11.0,12.0,12.0
471,078015,NHILL AERODROME                         ,-36.3093,141.6486,138.9,7.3155065,1.599896978075848,4.572485952864683,2003-06-12 11:30:00,29.9999137,344025,9.0,10.0,10.0,11.0,11.0,12.0
472,078018,KELLALAC (WARRACKNABEAL AIRPORT)        ,-36.3204,142.4161,118.3,7.216289,1.4394145828693106,5.013349961372252,2016-12-08 15:00:00,29.999190083333335,110452,7.0,8.0,8.0,9.0,9.0,10.0
473,078031,NHILL                                   ,-36.3347,141.6367,133.0,7.247029,1.781708550802091,4.067460317460318,2003-06-11 14:30:00,29.285714283333334,42,0.0,0.0,0.0,0.0,0.0,0.0
474,078072,DONALD                                  ,-36.3611,143.0038,118.0,6.998784,2.656199380560451,2.6348865662975407,1999-03-07 16:00:00,29.186405166666667,2648,7.0,8.0,8.0,8.0,9.0,9.0
475,079028,LONGERENONG                             ,-36.6722,142.2991,133.0,7.2650747,1.6915666707902892,4.294879330133194,1997-05-01 10:00:00,29.999934033333332,446034,9.0,9.0,10.0,10.0,11.0,11.0
476,079097,KANAGULK                                ,-37.1169,141.8031,188.8,7.6156607,2.0396019975280866,3.7338954740431225,2004-05-22 10:00:00,29.999909383333332,326555,10.0,11.0,12.0,12.0,12.0,13.0
477,079099,EDENHOPE AIRPORT                        ,-37.0222,141.2657,155.0,7.620792,2.143339017109043,3.555570001407363,2005-04-06 15:00:00,29.999905000000002,312563,11.0,11.0,12.0,12.0,13.0,13.0
478,079100,HORSHAM AERODROME                       ,-36.6699,142.1733,133.8,7.1194725,1.3947074597483757,5.1046349927364405,1997-10-16 14:00:00,29.999597116666667,415621,7.0,8.0,8.0,9.0,9.0,10.0
479,079101,PYRENEES (BEN NEVIS)                    ,-37.2281,143.2005,875.0,10.447852,2.004272357395145,5.212790615085444,2007-12-19 10:30:00,29.9996647,264373,17.0,18.0,19.0,19.0,20.0,20.0
480,079103,GRAMPIANS (MOUNT WILLIAM)               ,-37.295,142.6039,1150.0,12.2171545,1.6952002449649604,7.206909354311224,2005-12-13 15:30:00,29.9997037,293050,20.0,21.0,21.0,21.0,22.0,23.0
481,079105,STAWELL AERODROME                       ,-37.072,142.7402,235.4,6.538388,1.88992766419816,3.459596840281814,1996-02-11 12:00:00,29.999811,453236,8.0,9.0,9.0,10.0,10.0,11.0
482,080091,KYABRAM                                 ,-36.335,145.0638,105.0,7.160724,2.776194697969729,2.579330681775367,2002-09-04 15:00:00,29.999916916666667,282217,13.0,13.0,14.0,14.0,15.0,15.0
483,080128,CHARLTON                                ,-36.2846,143.3341,131.7,6.930858,2.1107038477193107,3.2836715310451647,2004-07-15 17:30:00,29.999908666666666,325080,10.0,11.0,12.0,12.0,12.0,13.0
484,081049,TATURA INST SUSTAINABLE AG              ,-36.4379,145.2673,114.0,6.986043,1.9628166559526112,3.559192834029049,2006-05-03 17:30:00,29.998888816666668,220702,10.0,10.0,11.0,11.0,11.0,12.0
485,081123,BENDIGO AIRPORT                         ,-36.7411,144.3274,209.2,5.8997536,1.6320349388352458,3.614967688600582,1994-01-06 17:00:00,29.84344456666667,404348,7.0,7.0,8.0,8.0,8.0,9.0
486,081124,YARRAWONGA                              ,-36.0294,146.0305,128.9,6.577539,1.8391483746594541,3.576404741325179,2002-07-11 14:00:00,29.999917533333335,359235,9.0,10.0,11.0,11.0,11.0,12.0
487,081125,SHEPPARTON AIRPORT                      ,-36.4288,145.3949,113.9,6.377541,1.7072118079070449,3.73564723233411,1996-09-11 17:00:00,29.7902451,412791,8.0,9.0,9.0,9.0,10.0,10.0
488,082039,RUTHERGLEN RESEARCH                     ,-36.1048,146.5094,175.0,5.584664,2.281624983207044,2.4476694939151025,1998-01-14 16:30:00,29.99979658333333,380445,10.0,10.0,11.0,11.0,12.0,12.0
489,082138,WANGARATTA AERO                         ,-36.4205,146.3056,152.6,5.135456,1.8341187893770516,2.7999582769387077,1996-01-26 14:00:00,29.735856650000002,404347,8.0,8.0,9.0,9.0,10.0,10.0
490,082139,HUNTERS HILL                            ,-36.2137,147.5395,981.0,5.3181443,2.4911869893129674,2.134783275705978,1993-04-23 09:00:00,29.999942883333333,446638,10.0,11.0,11.0,12.0,12.0,13.0
491,083024,MOUNT BULLER                            ,-37.145,146.4394,1707.0,9.939928,1.813533162218158,5.480973969426566,1992-10-08 09:30:00,29.9999439,340117,16.0,17.0,17.0,18.0,18.0,19.0
492,083084,FALLS CREEK                             ,-36.8708,147.2755,1765.0,7.885991,1.367758941532621,5.765629349613359,1991-09-03 08:00:00,29.994857200000002,421435,12.0,13.0,14.0,14.0,14.0,15.0
493,083085,MOUNT HOTHAM                            ,-36.9772,147.1342,1849.0,9.82795,1.5583383376841597,6.3066853238886855,1991-09-02 22:30:00,29.995885766666667,387334,17.0,18.0,19.0,19.0,20.0,20.0
494,083090,OMEO                                    ,-37.1017,147.6008,689.8,6.1649613,1.8611435506135432,3.3124588030895716,2004-08-12 14:00:00,29.999633216666666,321759,9.0,10.0,10.0,10.0,11.0,12.0
495,084016,GABO ISLAND LIGHTHOUSE                  ,-37.5679,149.9158,15.0,9.341113,1.2633520474218323,7.393911388023537,2007-08-16 15:00:00,29.99978135,272845,13.0,14.0,14.0,15.0,15.0,16.0
496,084084,MALLACOOTA                              ,-37.5976,149.7289,22.0,6.4778376,1.6954055038453626,3.820819000450689,1993-11-11 17:00:00,29.999825466666667,450883,8.0,9.0,9.0,9.0,10.0,10.0
497,084142,GELANTIPY                               ,-37.22,148.2626,755.0,6.391124,1.7272118229563613,3.7002547612997403,1992-05-29 09:00:00,29.999944550000002,450738,8.0,9.0,9.0,10.0,10.0,11.0
498,084143,COMBIENBAR AWS                          ,-37.3416,149.0227,640.0,8.180459,6.055552757067383,1.3509021142577993,1994-07-07 09:00:00,29.999940499999997,425100,16.0,16.0,17.0,17.0,18.0,18.0
499,084144,MOUNT NOWA NOWA                         ,-37.6924,148.0908,350.0,7.1298523,2.3253476334770244,3.066144688336692,1995-10-19 10:00:00,29.99993771666667,434229,11.0,12.0,12.0,13.0,13.0,14.0
500,084145,ORBOST                                  ,-37.6922,148.4667,62.7,5.837239,2.3984031790911784,2.4338021394787464,2000-11-23 15:00:00,29.999770599999998,378329,11.0,11.0,12.0,12.0,13.0,13.0
501,085072,EAST SALE                               ,-38.1156,147.1323,4.6,6.2333097,1.4872415228697458,4.191188619963305,1993-11-22 07:00:00,24.264939433333332,350360,9.0,9.0,10.0,10.0,10.0,11.0
502,085096,WILSONS PROMONTORY LIGHTHOUSE           ,-39.1297,146.4246,95.0,9.255765,1.057402436253212,8.753303987117196,2000-09-18 12:00:00,29.999772450000002,360790,12.0,13.0,14.0,14.0,14.0,15.0
503,085099,POUND CREEK                             ,-38.6297,145.8107,3.0,7.858503,1.9398572366896163,4.051072788350266,2007-04-18 08:30:00,29.999892916666667,276707,13.0,13.0,14.0,14.0,15.0,15.0
504,085151,YARRAM AIRPORT                          ,-38.5647,146.7479,17.9,7.0969987,1.5853983674903032,4.47647659861883,2007-10-18 11:30:00,29.99988945,270435,11.0,11.0,12.0,12.0,13.0,13.0
505,085279,BAIRNSDALE AIRPORT                      ,-37.8818,147.5669,49.4,6.3268437,1.5599997003117294,4.055669842302942,1997-05-02 16:30:00,29.99597676666667,382407,9.0,9.0,10.0,10.0,11.0,11.0
506,085280,MORWELL (LATROBE VALLEY AIRPORT)        ,-38.2094,146.4746,55.7,6.304288,1.648575541125933,3.824081913865934,1997-05-01 10:00:00,29.999934033333332,405487,9.0,9.0,10.0,10.0,10.0,11.0
507,085291,MOUNT BAW BAW                           ,-37.8384,146.2747,1561.0,10.00498,2.730270403667309,3.66446490935167,1994-01-24 10:00:00,29.988873983333335,401003,20.0,21.0,22.0,22.0,23.0,23.0
508,085296,MOUNT MOORNAPA                          ,-37.7481,147.1428,480.0,6.0984454,2.380522846314701,2.5618092365456016,1994-01-05 23:00:00,29.999824550000003,434241,10.0,10.0,11.0,11.0,11.0,12.0
509,085301,CORNER INLET (YANAKIE)                  ,-38.8051,146.1936,13.3,8.239087,1.7709599648439915,4.652328267354799,2013-01-18 10:00:00,29.999498016666667,176576,15.0,15.0,16.0,16.0,17.0,17.0
510,085313,NILMA NORTH (WARRAGUL)                  ,-38.1321,145.9865,134.1,8.017864,2.8604593092040695,2.8029988755637687,2014-01-13 10:00:00,29.99944448333333,161258,17.0,17.0,18.0,18.0,19.0,19.0
511,085314,EAST SALE AIRPORT                       ,-38.1016,147.1398,5.3,6.18991,1.4459258918810438,4.2809316644471584,2017-10-03 10:30:00,29.99907005,96611,9.0,9.0,10.0,10.0,11.0,11.0
512,086038,ESSENDON AIRPORT                        ,-37.7276,144.9066,78.4,5.988158,1.2349943596154571,4.848733258893368,1999-05-31 11:00:00,29.665745666666666,351166,6.0,7.0,7.0,7.0,8.0,8.0
513,086068,VIEWBANK                                ,-37.7408,145.0972,66.1,5.242183,1.7062032372385234,3.072426012360643,2000-07-24 13:00:00,29.99992465,385384,8.0,8.0,9.0,9.0,9.0,10.0
514,086071,MELBOURNE REGIONAL OFFICE               ,-37.8075,144.97,31.2,5.678762,3.389105062690437,1.6755933658096303,1997-03-03 09:00:00,25.420005433333333,180930,11.0,11.0,12.0,12.0,13.0,13.0
515,086077,MOORABBIN AIRPORT                       ,-37.98,145.0962,12.1,6.3177743,1.4000200141348351,4.512631413852362,1992-08-11 07:30:00,29.981485183333334,449261,8.0,8.0,9.0,9.0,10.0,10.0
516,086104,SCORESBY RESEARCH INSTITUTE             ,-37.871,145.2561,80.0,5.621734,2.125097703861492,2.645400318342199,1996-09-11 11:00:00,29.9811489,442068,9.0,10.0,10.0,10.0,11.0,11.0
517,086220,ST KILDA HARBOUR - RMYS                 ,-37.864,144.9639,6.4,6.8685527,1.2550322066280735,5.47280989962628,2006-03-08 11:30:00,29.999699666666668,295212,7.0,7.0,8.0,8.0,9.0,9.0
518,086266,FERNY CREEK                             ,-37.8748,145.3497,512.9,7.7567773,4.598727775456051,1.6867224296094174,2011-03-16 12:00:00,29.99957475,211092,16.0,17.0,18.0,18.0,18.0,19.0
519,086282,MELBOURNE AIRPORT                       ,-37.6654,144.8322,113.4,6.9967537,1.4082049322807448,4.968562126319875,1970-07-01 11:00:00,29.9997082,430063,10.0,11.0,11.0,11.0,12.0,13.0
520,086338,MELBOURNE (OLYMPIC PARK)                ,-37.8255,144.9816,7.5,5.4720173,1.9399168063866994,2.820748431166087,2013-05-31 15:00:00,29.999826483333333,172834,9.0,9.0,10.0,10.0,10.0,11.0
521,086344,SOUTH CHANNEL ISLAND                    ,-38.3065,144.8016,9.0,8.252011,1.109582738630272,7.437040079877255,1998-12-08 11:00:00,29.999789083333333,410386,6.0,7.0,8.0,8.0,8.0,9.0
522,086361,CERBERUS                                ,-38.3646,145.1785,12.7,7.0160027,1.9473092623423571,3.602921626629541,1991-09-01 09:00:00,29.99994585,481923,10.0,11.0,11.0,11.0,12.0,12.0
523,086371,FRANKSTON BEACH                         ,-38.148,145.1152,6.0,7.22517,1.6374722659111205,4.4123923720184814,1991-09-01 09:00:00,29.99994585,534550,10.0,11.0,12.0,12.0,12.0,13.0
524,086372,FERNY CREEK (DUNNS HILL)                ,-37.8775,145.3364,561.0,9.221309,1.8308699956780052,5.036572083194851,1991-09-01 09:00:00,29.999914,326454,14.0,15.0,15.0,15.0,16.0,16.0
525,086373,RHYLL                                   ,-38.4612,145.3101,13.4,7.6554456,1.7490002917115666,4.377040765512117,1991-09-01 09:00:00,29.99994585,535103,12.0,12.0,13.0,13.0,14.0,14.0
