station no.,station name,latitude,longitude,altitude,meanSpeed-10m,meanSpeed-100m,scaleFactor,startTime,meanRes,Observations,meanDuration,highWindFrac
46012,WILCANNIA AERODROME AWS                 ,-31.5194,143.385,94.3,4.325288986073413,6.71817,1.5532303593232322,2000-01-19 14:00:00,29.999778966666668,337043.0,16.857142857142858,0.0058970199972456
46126,TIBOOBURRA AIRPORT                      ,-29.4448,142.0567,176.4,4.706234851929057,6.8355446,1.4524444277105704,1997-09-21 16:00:00,29.999933016666667,311044.0,10.235294117647058,0.0074842764478446
46128,FOWLERS GAP AWS                         ,-31.0863,141.7008,181.0,4.304095076429606,7.20423,1.6738082462787305,2004-10-26 18:00:00,29.999907266666664,246974.0,20.571428571428573,0.0301337392055184
46129,WHITE CLIFFS AWS                        ,-30.8522,143.0743,158.0,4.793218230373326,7.044349,1.4696491699323984,2005-07-05 18:00:00,29.99990366666667,247031.0,9.266666666666667,0.0071198896585848
47048,BROKEN HILL AIRPORT AWS                 ,-32.0012,141.4694,281.3,4.713677383126673,7.2803807,1.5445224893671825,1989-01-01 13:30:00,29.99960056666667,412621.0,21.31428571428572,0.0229443219648712
48027,COBAR MO                                ,-31.484,145.8294,260.0,3.283289766880841,7.035547,2.1428345589845423,1989-01-18 16:30:00,29.95861035,388321.0,85.88461538461539,0.0251432233676472
48237,COBAR AIRPORT AWS                       ,-31.5388,145.7964,218.0,3.471044839490361,6.9146757,1.9921020996089185,1993-09-19 07:30:00,29.81543135,363804.0,48.27272727272727,0.0360473790458016
48244,COBAR COMPARISON                        ,-31.4861,145.8281,260.0,3.083459648155153,7.022478,2.2774671651173617,2000-01-15 00:30:00,29.8514146,192.0,6.0,0.5406730103495636
48245,BOURKE AIRPORT AWS                      ,-30.0362,145.9521,107.3,3.666424073897766,6.5867133,1.796495217492416,1999-02-04 14:00:00,29.9997877,334603.0,16.533333333333335,0.0107330335649011
49000,IVANHOE AERODROME AWS                   ,-32.8833,144.3092,100.0,4.037877391665689,6.7661037,1.6756585423996022,2000-07-24 13:00:00,29.99992465,290675.0,17.692307692307693,0.0076935386204182
50017,WEST WYALONG AIRPORT AWS                ,-33.9382,147.1962,257.0,3.567234402622121,6.160394,1.7269384336542903,1999-04-30 18:00:00,29.99992853333333,303957.0,21.5,0.0175480828861562
50137,CONDOBOLIN AIRPORT AWS                  ,-33.0682,147.2133,192.6,3.643166065487816,6.2185802,1.7069164935634131,1993-06-15 00:00:00,29.999942616666665,384385.0,36.1578947368421,0.0200958362288713
51049,TRANGIE RESEARCH STATION AWS            ,-31.9861,147.9489,215.0,3.416087132067961,6.804929,1.992024359016458,1997-10-10 10:00:00,29.999932883333333,324756.0,38.0,0.0260914705892585
51161,COONAMBLE AIRPORT AWS                   ,-30.9776,148.3798,181.3,4.012858492051763,6.300622,1.57010819067474,1997-09-17 10:00:00,29.99993305,320949.0,13.727272727272728,0.0082797402032817
52088,WALGETT AIRPORT AWS                     ,-30.0372,148.1223,133.0,3.72219880559536,6.490273,1.7436664019808326,1997-05-23 10:00:00,29.99993388333333,359181.0,24.0,0.0137304507901788
53000,MOREE AUTOSONDE                         ,-29.4917,149.8461,213.0,3.0098621857610697,5.68134,1.887574867868496,2000-06-30 11:00:00,29.144011433333333,16068.0,4.25,0.0092109636082167
53115,MOREE AERO                              ,-29.4898,149.8471,213.0,3.9871878335084943,5.6745696,1.4232009736515758,1989-01-06 12:30:00,29.987767833333333,462894.0,11.4,0.0042410328064208
54038,NARRABRI AIRPORT AWS                    ,-30.3154,149.8302,229.0,3.931636980763213,5.81251,1.4783943792420005,2001-07-13 15:00:00,29.9999213,311683.0,12.733333333333333,0.0079695113957068
55024,GUNNEDAH RESOURCE CENTRE                ,-31.0261,150.2687,307.3,,4.7722683,,,,,,
55202,GUNNEDAH AIRPORT AWS                    ,-30.9537,150.2494,262.6,3.526985722023674,4.8859096,1.3852932624119465,2001-09-14 09:00:00,29.99936508333333,286633.0,5.333333333333333,0.0035520353570931
55325,TAMWORTH AIRPORT AWS                    ,-31.0742,150.8362,394.9,3.4153638213468644,4.44476,1.301401571906571,1989-01-01 18:00:00,29.999151233333336,346076.0,8.0,0.0010853666750153
56018,INVERELL RESEARCH CENTRE                ,-29.7752,151.082,664.0,2.706297920317205,4.4586205,1.647498050667569,2002-12-18 10:30:00,29.999747266666667,288975.0,2.6666666666666665,0.0021348097301253
56238,ARMIDALE AIRPORT AWS                    ,-30.5273,151.6158,1079.0,4.450904231401645,6.852955,1.5396769978004834,1993-06-19 11:00:00,29.86184198333333,431938.0,26.13636363636364,0.0108927373924874
56243,GLEN INNES AIRPORT AWS                  ,-29.678,151.694,1044.3,4.2909574864890105,6.608227,1.5400354808758767,1996-10-16 10:00:00,29.99993538333333,334607.0,18.05555555555556,0.0123470928359634
58009,BYRON BAY (CAPE BYRON LIGHTHOUSE)       ,-28.6388,153.6361,95.0,6.043330692811349,7.9893312,1.3220079541445278,1994-06-28 03:00:00,30.000203366666664,22229.0,3.5,0.017517865957995
58012,YAMBA PILOT STATION                     ,-29.4325,153.3632,27.4,3.90712516747516,7.1609964,1.8328044611123355,2007-10-10 14:00:00,29.9998896,234956.0,19.67567567567568,0.0109479371549965
58077,GRAFTON RESEARCH STN                    ,-29.6224,152.9605,25.0,2.654345831610444,4.9202986,1.8536765321833508,2002-08-30 09:00:00,29.99991698333333,337899.0,25.785714285714285,0.0060241953013313
58161,GRAFTON AIRPORT AWS                     ,-29.7583,153.0297,25.1,2.3281521957382165,4.696321,2.017188145683267,2006-04-07 12:00:00,29.9998994,281959.0,21.2,0.009457739504515
58198,BALLINA AIRPORT AWS                     ,-28.8353,153.5585,1.3,3.769801702720769,5.639257,1.4959028083952293,1995-07-23 13:30:00,29.990619366666667,352445.0,10.5,0.0134360918865991
58208,CASINO AIRPORT AWS                      ,-28.8824,153.0618,20.9,2.851827018521848,5.3796363,1.8863823972316425,1995-07-20 10:00:00,29.99993828333333,370295.0,21.857142857142858,0.0092620471653751
58212,EVANS HEAD RAAF BOMBING RANGE AWS       ,-29.183,153.3964,62.5,4.506920446110283,6.419108,1.4242780609786414,1998-03-01 11:00:00,29.999795566666663,348079.0,11.571428571428571,0.0057298320475602
58214,LISMORE AIRPORT AWS                     ,-28.8305,153.2601,9.2,3.0556694891293743,4.5676584,1.494814292130418,2002-02-22 10:00:00,29.999757066666668,289928.0,7.333333333333333,0.0035799287711717
58216,BYRON BAY (CAPE BYRON AWS)              ,-28.6399,153.6358,95.0,6.182313812531642,7.869695,1.2729368688245817,2002-11-26 10:00:00,29.99974801666667,297073.0,11.444444444444445,0.0132996773132724
59007,KEMPSEY AIRPORT AWS                     ,-31.0711,152.7717,13.0,2.730026654457528,4.549746,1.6665573682589565,2001-02-16 10:00:00,29.9997682,325449.0,18.11111111111111,0.004784841258335
59040,COFFS HARBOUR MO                        ,-30.3107,153.1187,5.0,4.062419462047588,6.163791,1.5172709852444033,1989-01-10 17:30:00,29.962056766666667,313721.0,28.875,0.0097965435846566
59151,COFFS HARBOUR AIRPORT                   ,-30.3189,153.1162,3.5,4.203762607827807,6.177133,1.4694295705093088,2015-02-06 13:30:00,25.361313600000003,142295.0,7.5,0.008798367370656
60139,PORT MACQUARIE AIRPORT AWS (COMPARISON) ,-31.4335,152.8655,4.2,3.2790863052492427,5.4161415,1.6517227684246896,1995-07-20 10:00:00,30.000067783333336,325884.0,16.25,0.0088121949586241
60141,TAREE AIRPORT AWS                       ,-31.8895,152.512,8.0,3.056326418415579,5.3712063,1.7574059665897228,1997-06-19 10:00:00,29.9999337,323232.0,19.647058823529413,0.0087819146606766
60168,PORT MAQUARIE (PORT MACQUARIE AIRPORT AW,-31.4343,152.8662,4.5,2.929484320163334,5.437029,1.8559679078891784,2020-10-15 15:00:00,29.9979352,43341.0,5.5,0.0170107971125675
61055,NEWCASTLE NOBBYS SIGNAL STATION AWS     ,-32.9184,151.7985,33.0,5.516007191553479,7.647431,1.3864069844704603,2001-10-16 16:00:00,29.99992035,343087.0,23.83870967741936,0.0115188683242151
61078,WILLIAMTOWN RAAF                        ,-32.7939,151.8364,7.5,4.155338267494929,6.0903215,1.4656620348995335,1989-02-20 13:30:00,29.87982525,406527.0,34.464285714285715,0.0129419318232314
61087,GOSFORD (NARARA RESEARCH STATION) AWS   ,-33.3949,151.3289,20.0,1.3722651898743785,5.132375,3.7400750243898586,1999-04-30 18:00:00,29.999878483333337,145362.0,49.310344827586206,0.0899330280441552
61250,PATERSON (TOCAL AWS)                    ,-32.6296,151.5919,30.0,2.4730074372264506,5.5844955,2.258179842231597,2002-07-18 10:00:00,29.99991745,290485.0,33.27272727272727,0.0294940619458863
61260,CESSNOCK AIRPORT AWS                    ,-32.7914,151.3369,66.5,2.943388351133372,5.59944,1.902378969344204,1994-06-28 00:00:00,29.99994055,377881.0,38.45,0.0188237504930077
61287,MERRIWA (ROSCOMMON)                     ,-32.1852,150.1737,375.0,3.6046090378433657,6.1609936,1.7091988372020288,2007-08-02 16:00:00,29.999890933333333,273201.0,27.529411764705884,0.0147482233703256
61363,SCONE AIRPORT AWS                       ,-32.0335,150.8264,221.4,3.227894552962004,4.981134,1.5431526204178103,1989-01-01 11:00:00,29.99985021666667,413450.0,20.357142857142858,0.0088905686888098
61366,NORAH HEAD AWS                          ,-33.2814,151.5766,18.8,5.221133671559614,7.2648263,1.3914269878460936,1989-10-25 10:00:00,29.99994885,537971.0,34.97142857142857,0.0101739657210087
61375,MANGROVE MOUNTAIN AWS                   ,-33.2894,151.2107,305.0,2.355583463844304,5.8208604,2.471090698011248,1994-06-28 00:00:00,29.99994055,384876.0,49.785714285714285,0.0330465524061417
61379,WILLIAMTOWN COMPARISON AWS              ,-32.8081,151.8419,4.9,3.8692713587861225,6.257231,1.617160094314808,1995-07-20 10:00:00,29.999579116666663,31295.0,5.0,0.0166814579675528
61392,MURRURUNDI GAP AWS                      ,-31.7416,150.7937,729.4,6.108523316775281,7.8514023,1.285319196728488,2003-06-20 11:00:00,29.999913616666667,307424.0,20.82758620689655,0.0150495228421349
61412,COORANBONG (LAKE MACQUARIE AWS)         ,-33.0887,151.4636,6.0,1.3004975730169703,4.5537534,3.501547000539968,2008-07-31 09:00:00,29.99988355,257333.0,104.22222222222224,0.04767248930945
61425,GOSFORD AWS                             ,-33.4351,151.3614,7.0,2.051440066912061,5.557721,2.709180359515095,2013-06-04 14:30:00,29.99982628333333,172566.0,50.2,0.0482102029087079
61428,MAITLAND AIRPORT AWS                    ,-32.7023,151.4881,27.5,3.200724896629292,5.980704,1.8685466648562392,2016-07-11 11:00:00,29.999746466666668,117530.0,15.607142857142858,0.0240384030094745
61430,SINGLETON DEFENCE AWS                   ,-32.6976,151.1564,125.0,3.2176539418373404,5.506022,1.7111914693122363,2017-04-03 13:30:00,29.999715783333333,105494.0,11.411764705882351,0.0074166121822736
62100,NULLO MOUNTAIN AWS                      ,-32.7244,150.229,1130.0,3.679120068712343,7.790032,2.1173627836150137,1989-01-03 10:00:00,29.999850183333333,450439.0,90.36111111111111,0.0597470044028987
62101,MUDGEE AIRPORT AWS                      ,-32.5628,149.6149,471.0,3.05434269522308,4.7964463,1.5703694057959852,1989-01-01 11:00:00,29.99985021666667,408420.0,14.2,0.0058923259544538
63291,BATHURST AIRPORT AWS                    ,-33.4119,149.654,744.5,3.3280926254974728,4.5955534,1.3808369884072549,1989-01-01 11:00:00,29.99985021666667,420341.0,5.142857142857143,0.0028459980279704
63292,MOUNT BOYCE AWS                         ,-33.6185,150.2741,1080.0,4.033551910060415,7.1276574,1.7670920251962017,1989-09-25 00:00:00,29.999948983333336,438406.0,53.267605633802816,0.0333140389056514
63303,ORANGE AIRPORT AWS                      ,-33.3768,149.1263,944.7,4.117191487602112,6.7261634,1.6336775706334612,1996-03-14 14:00:00,29.999810383333333,365576.0,31.80952380952381,0.0197243534723229
63308,MARRANGAROO (DEFENCE)                   ,-33.4346,150.135,955.0,1.6481314189601846,5.7547545,3.49168426564864,2017-12-07 12:00:00,29.99903905,93535.0,42.04545454545455,0.0997130670258751
64017,COONABARABRAN AIRPORT AWS               ,-31.333,149.2699,645.0,4.279246313465635,6.5363307,1.5274490461912844,2001-07-02 11:00:00,29.9999214,327018.0,13.0,0.0039858727272402
65068,PARKES AIRPORT AWS                      ,-33.1281,148.2428,323.3,3.6591123591001993,6.213931,1.6982072354857252,1997-09-25 10:00:00,29.999933,353467.0,27.41176470588235,0.0163549466812369
65070,DUBBO AIRPORT AWS                       ,-32.2206,148.5753,284.0,4.267699423697984,6.046174,1.4167291200977783,1989-01-02 09:00:00,29.997653416666665,363506.0,13.0,0.0057104682502611
65091,COWRA AIRPORT COMPARISON                ,-33.8451,148.6534,300.0,2.467895030709094,4.434647,1.7969350511671782,2004-07-06 09:00:00,29.92443323333333,176.0,0.0,0.0007257138646133
65103,FORBES AIRPORT AWS                      ,-33.3627,147.9205,230.4,3.3370551315995844,5.9218216,1.774565106270724,1996-01-10 11:00:00,29.999811616666666,327317.0,22.27777777777778,0.0164165614939684
65111,COWRA AIRPORT AWS                       ,-33.8382,148.654,300.4,2.8126332424539657,4.4077425,1.5671230908369371,2004-07-14 16:00:00,29.99990868333333,276327.0,9.444444444444445,0.0035896578526647
66022,FORT DENISON                            ,-33.8551,151.2254,5.0,4.211412451548458,6.0842576,1.4447071315597648,1990-08-13 00:00:00,29.9999476,541385.0,33.06666666666667,0.0099381100720209
66037,SYDNEY AIRPORT AMO                      ,-33.9465,151.1731,6.0,4.472042314746367,6.1535954,1.3760145844884042,1970-01-02 04:30:00,21.451575966666667,459692.0,60.24,0.0152469146491045
66043,KURNELL AWS                             ,-34.0039,151.2111,4.0,5.646030153996867,6.999187,1.239665180975076,2000-03-17 13:00:00,29.99977745,396437.0,18.05555555555556,0.0083193893703167
66051,LITTLE BAY (THE COAST GOLF CLUB)        ,-33.9829,151.2502,22.0,4.688625877963612,7.291409,1.5551270682365383,1999-04-30 18:00:00,29.99992853333333,408302.0,30.484848484848484,0.0179654493033313
66059,TERREY HILLS AWS                        ,-33.6908,151.2253,199.0,2.909336107807768,6.041613,2.076629470807924,2004-09-23 10:00:00,29.99990773333333,291675.0,29.857142857142858,0.0188098280064786
66062,SYDNEY (OBSERVATORY HILL)               ,-33.8607,151.205,39.0,2.855837331505597e-05,5.9411345,208034.76399993896,1993-09-06 00:00:00,5.417133433333333,32315.0,0.0,0.388814408237669
66137,BANKSTOWN AIRPORT AWS                   ,-33.9176,150.9837,7.2,3.0338449248538573,4.4226813,1.4577809483283215,1989-05-31 11:30:00,29.640423766666668,434839.0,22.11111111111111,0.005585164498557
66161,HOLSWORTHY AERODROME AWS                ,-33.9925,150.9489,68.2,3.148281605250012,4.692504,1.4904968860832073,2012-08-31 10:00:00,29.999838716666662,185654.0,11.22222222222222,0.0029656203373435
66193,MARSFIELD (MACQUARIE UNIVERSITY NO:2)   ,-33.7654,151.1176,51.0,,4.9263644,,,,,,
66194,CANTERBURY RACECOURSE AWS               ,-33.9057,151.1134,3.0,3.0139759881680668,4.9800696,1.6523255848250915,1996-01-10 11:00:00,29.999811616666666,440802.0,26.22222222222222,0.0156946080780191
66195,SYDNEY OLYMPIC PARK (SYDNEY OLYMPIC PK (,-33.8521,151.0646,28.0,2.970050592350148,4.6605263,1.5691740361725537,1996-01-10 11:00:00,26.47612343333333,224169.0,12.4,0.0042733453935935
66196,SYDNEY HARBOUR (WEDDING CAKE WEST)      ,-33.8405,151.2643,6.0,5.44774583632254,6.9473424,1.2752691855522067,1996-02-28 19:30:00,29.99981066666667,398969.0,16.823529411764707,0.0087270951712268
66197,MANLY (NORTH HEAD)                      ,-33.8152,151.2986,90.0,4.424204675538548,8.081692,1.8266993357307983,1997-08-28 10:00:00,29.9999332,434293.0,64.54347826086956,0.0367262876859346
66198,SYDNEY HARBOUR (SHARK ISLAND)           ,-33.8614,151.2569,3.0,4.697059154297708,6.568132,1.398349841446182,1997-08-28 17:00:00,30.0004805,58143.0,9.5,0.011032384930629
66199,MIDDLE HEAD                             ,-33.8283,151.2636,35.0,3.1701418097675496,6.8600187,2.163946959415858,1997-09-08 14:30:00,30.000484933333333,58834.0,63.92307692307692,0.0469787333357363
66200,SYDNEY HARBOUR (CLARKE ISLAND)          ,-33.8642,151.2394,2.0,3.978997040607836,6.2827954,1.5789897215580662,1997-08-28 10:00:00,30.0004804,58076.0,10.75,0.0149746674508391
66201,SOUTH HEAD                              ,-33.8361,151.28,25.0,4.618944398763458,7.2493324,1.5694781755587364,1997-08-28 17:00:00,30.0004809,59311.0,18.11111111111111,0.0220069433478725
66202,SYDNEY HARBOUR (CANNAE POINT)           ,-33.8153,151.2842,20.0,3.5594279651271874,7.2391496,2.033795778813132,1997-08-28 14:00:00,30.0,48156.0,49.60869565217392,0.1100354778481071
66203,SYDNEY HARBOUR (BOMBORA)                ,-33.8167,151.2722,2.0,4.434413410214217,6.909982,1.5582629685632872,1998-10-30 16:00:00,29.9866978,17620.0,2.8,0.0142517846458805
66208,WATTAMOLLA AWS                          ,-34.1407,151.1185,44.0,6.097606011056882,7.072532,1.1598867103165906,2007-06-26 09:00:00,29.99989163333333,266871.0,17.77777777777778,0.0095330914747849
66212,SYDNEY OLYMPIC PARK AWS (ARCHERY CENTRE),-33.8338,151.0718,4.0,2.296159986105608,4.684545,2.0401649138028124,2011-08-31 15:00:00,29.9991158,203375.0,26.75,0.0181940414149728
67033,RICHMOND RAAF                           ,-33.6022,150.7794,19.0,1.9418277285518053,4.3324103,2.2310992225720443,1985-01-02 17:00:00,29.7914914,1757.0,17.466666666666665,0.8476077967156327
67105,RICHMOND RAAF                           ,-33.6004,150.7761,19.0,2.544166682953455,4.3344035,1.7036633424624394,1989-01-18 16:30:00,29.95861035,431655.0,43.05555555555556,0.0075226690505713
67108,BADGERYS CREEK AWS                      ,-33.8969,150.7281,81.2,2.8100874479894564,4.821594,1.7158164389976454,1996-01-10 11:00:00,29.92910165,442273.0,39.22222222222222,0.0046578922691355
67113,PENRITH LAKES AWS                       ,-33.7195,150.6783,24.7,2.458228413884834,3.816948,1.5527230567560024,1996-01-10 11:00:00,29.999811616666666,450678.0,25.09090909090909,0.0013451939107044
67117,HOLSWORTHY CONTROL RANGE                ,-33.9795,150.9254,40.0,3.2275155870505805,4.415331,1.368027750061374,1998-04-30 17:00:00,29.99989538333333,269693.0,10.6,0.0007389737038565
67119,HORSLEY PARK EQUESTRIAN CENTRE AWS      ,-33.851,150.8567,100.0,2.6499627211780523,4.9068336,1.851661387334644,1997-09-04 13:30:00,29.99993315,429637.0,33.666666666666664,0.0097220870067885
68072,NOWRA RAN AIR STATION AWS               ,-34.9469,150.5353,109.0,3.9042569771680142,5.3677278,1.3748397679483102,2000-11-29 10:00:00,29.999770450000003,379686.0,38.3,0.0058632305892676
68076,NOWRA RAN AIR STATION                   ,-34.9449,150.545,109.0,3.606546816567762,5.51312,1.5286423426092173,1989-06-10 16:00:00,28.946105816666662,2746.0,21.384615384615383,0.4549978082877062
68151,JERVIS BAY (POINT PERPENDICULAR AWS)    ,-35.0936,150.8049,85.0,4.458387368995018,7.490162,1.6800159510231925,2004-10-08 10:00:00,25.36296121666667,240824.0,19.54901960784314,0.0351453603214771
68192,CAMDEN AIRPORT AWS                      ,-34.039,150.689,73.9,2.4284550965054663,4.4065576,1.814551797275582,1994-09-19 15:00:00,27.62122361666667,391714.0,39.42857142857143,0.0097616094253775
68228,BELLAMBI AWS                            ,-34.3691,150.9291,10.0,4.935207828509693,6.8187523,1.381654537307996,1989-01-01 11:00:00,29.99985021666667,546413.0,40.9,0.010731069692635
68239,MOSS VALE AWS                           ,-34.5253,150.4217,678.4,4.716287445138094,7.361471,1.5608614321708112,2001-02-26 16:00:00,29.99969055,332615.0,37.04761904761905,0.0302250889644282
68241,ALBION PARK (SHELLHARBOUR AIRPORT)      ,-34.5639,150.7924,8.0,3.699658481047977,4.9378114,1.3346668077496728,1999-06-04 15:00:00,29.99992825,337426.0,24.347826086956523,0.0058531624265822
68242,KIAMA (BOMBO HEADLAND)                  ,-34.6532,150.8609,15.5,4.575611167158245,6.930965,1.514762660886548,2001-12-17 16:00:00,29.99975915,292034.0,25.21212121212121,0.0181807241423179
68253,PORT KEMBLA NTC AWS                     ,-34.4734,150.9118,0.0,3.8869792229130575,6.519816,1.6773477674771915,2012-07-11 14:30:00,29.9998408,188289.0,21.5625,0.0155923113223845
68257,CAMPBELLTOWN (MOUNT ANNAN)              ,-34.0615,150.7735,112.0,2.053241040101331,4.621676,2.2509173925054986,2006-11-14 12:00:00,29.99968708333333,278369.0,32.23809523809524,0.0160962587343607
68262,HIGH RANGE AWS (WANGANDERRY)            ,-34.3335,150.267,813.6,5.342527742182399,7.0253158,1.3149797437825474,2014-07-01 12:30:00,29.999805050000003,152909.0,17.925925925925927,0.0098568854345744
68263,HOLSWORTHY DEFENCE AWS                  ,-34.081,150.9009,165.0,2.2696835217208564,5.021655,2.212491316364344,2017-12-13 11:00:00,29.9990361,93099.0,21.846153846153847,0.0155406568539764
68264,JERVIS BAY NSW (JERVIS BAY AIRFIELD AWS),-35.144,150.6974,57.2,4.742143220785231,6.817914,1.43772840499855,2018-10-12 14:30:00,29.998858166666665,78786.0,6.857142857142857,0.0156856373399164
69017,MONTAGUE ISLAND LIGHTHOUSE              ,-36.2519,150.2275,52.0,6.612198372712101,7.69899,1.1643615986987086,1998-04-15 10:00:00,29.999931516666667,321696.0,14.290322580645162,0.0125106352316909
69128,NERRIGA AWS                             ,-35.1103,150.0826,622.0,3.45356382639646,5.4236255,1.570443096419306,2013-06-25 13:00:00,29.99982526666667,170580.0,26.724137931034484,0.0140522433528947
69132,BRAIDWOOD RACECOURSE AWS                ,-35.4253,149.7835,665.2,3.06942145199492,5.866378,1.9112324332954067,1989-01-01 11:00:00,29.99985021666667,419615.0,67.2258064516129,0.0325660482534201
69137,GREEN CAPE AWS                          ,-37.2622,150.0504,19.4,6.926825354753773,8.582402,1.239009472560054,2000-07-28 14:30:00,29.999924616666664,279082.0,15.774193548387096,0.023300856862138
69138,ULLADULLA AWS                           ,-35.3635,150.4828,35.7,3.629653977496993,7.3889804,2.035725839005952,1992-09-22 00:00:00,29.99994398333333,397359.0,47.98148148148148,0.0385405480772362
69139,BEGA AWS                                ,-36.6722,149.8191,41.0,2.592989313715995,4.388587,1.692481713970732,1992-04-03 00:00:00,29.99994483333333,394735.0,44.57142857142857,0.0099803531667737
69147,MERIMBULA AIRPORT AWS                   ,-36.9077,149.8989,1.5,2.661163507234142,5.189962,1.950260439142256,1998-04-28 10:00:00,29.999931416666666,347672.0,51.0,0.0224699535927245
69148,MORUYA AIRPORT AWS                      ,-35.9004,150.1437,4.0,3.2141224087919733,5.545583,1.7253800776634312,1999-10-01 11:00:00,29.999927266666667,308423.0,22.8,0.0095245103302814
70014,CANBERRA AIRPORT COMPARISON             ,-35.3049,149.2014,578.4,2.9587519852893687,4.76841,1.6116288994647552,1985-01-02 16:00:00,29.1219058,215485.0,40.8125,0.0134387523637661
70217,COOMA AIRPORT AWS                       ,-36.2939,148.9725,930.0,4.07092301874768,5.915596,1.4531338423885425,1992-04-20 14:00:00,29.953389766666664,376728.0,32.526315789473685,0.0121488529904451
70328,BOMBALA AWS                             ,-37.0016,149.2336,760.5,3.833475902007132,6.2685394,1.6352103388543162,1989-02-20 21:00:00,29.9998496,419273.0,59.5,0.0153728637528047
70330,GOULBURN AIRPORT AWS                    ,-34.8085,149.7311,640.0,4.138416699635737,6.5079293,1.5725650163930052,1989-01-03 10:00:00,29.999850183333333,423136.0,46.21212121212121,0.0266340874092755
70339,TUGGERANONG (ISABELLA PLAINS) AWS       ,-35.4184,149.0937,586.7,2.54076215026921,4.302654,1.6934500496492244,1996-08-09 13:00:00,29.70075208333333,433214.0,27.666666666666668,0.0095731520577434
70349,MOUNT GININI AWS                        ,-35.5293,148.7721,1760.0,4.524978638482119,9.463778,2.091452424024886,2004-06-28 11:30:00,29.9999089,318982.0,79.45679012345678,0.1392784107328472
70351,CANBERRA AIRPORT                        ,-35.3088,149.2004,577.1,3.6000269915628227,4.7843604,1.3289790382115998,2010-03-01 10:30:00,27.02099315,227965.0,11.428571428571429,0.0037724405234831
71032,THREDBO AWS                             ,-36.4917,148.2859,1957.0,7.271510943567071,10.605777,1.4585382417923571,1998-04-27 10:00:00,29.99993143333333,314122.0,32.05825242718446,0.1169950543755996
71075,PERISHER VALLEY AWS                     ,-36.4069,148.4055,1738.0,3.285005396158243,7.636665,2.324703903479754,2010-05-25 15:00:00,29.99986713333333,223858.0,64.38636363636364,0.1554221187265125
72150,WAGGA WAGGA AMO                         ,-35.1583,147.4575,212.0,3.248016327138119,5.133038,1.5803609117010304,1989-01-17 17:00:00,29.96095693333333,447475.0,30.357142857142858,0.0051964721153314
72160,ALBURY AIRPORT AWS                      ,-36.069,146.9509,163.5,2.458541590807556,4.232577,1.7215803315680918,1993-09-02 11:00:00,29.65586526666667,371893.0,25.0,0.0055256890255984
72161,CABRAMURRA SMHEA AWS                    ,-35.9371,148.3779,1482.4,4.987329086355208,6.377395,1.2787195395815198,1996-12-12 11:00:00,29.999805016666667,326330.0,17.68421052631579,0.0167458646116531
72162,KHANCOBAN AWS                           ,-36.2304,148.1405,339.3,1.5636963181301258,2.0612864,1.3182140454850386,1996-12-21 11:00:00,29.99980483333333,292974.0,2.0,6.877032526297899e-05
73138,YOUNG AIRPORT                           ,-34.2493,148.2475,379.6,2.9071862771249863,5.8227196,2.0028711678334186,1989-01-01 11:00:00,29.99985021666667,403725.0,43.78260869565217,0.0192938033448969
73151,TEMORA AIRPORT                          ,-34.4277,147.5117,280.5,3.5279683640043182,6.0901575,1.72625060105064,2005-01-31 19:00:00,29.99971778333333,253557.0,19.22222222222222,0.01837827401427
74023,FINLEY AIRPORT AWS                      ,-35.6613,145.561,108.0,2.9048375986853783,6.8267584,2.3501342683646507,2001-03-15 16:00:00,29.76856895,20970.0,0.0,0.0131578164206764
74037,YANCO AGRICULTURAL INSTITUTE            ,-34.6222,146.4326,164.0,3.6076448201145617,6.437553,1.7844198223261163,1999-08-05 17:00:00,29.999927733333333,303365.0,25.0,0.0141634103697524
74148,NARRANDERA AIRPORT AWS                  ,-34.705,146.514,145.0,3.44907135102056,6.2357206,1.8079419066280944,2007-03-13 09:00:00,29.99968075,273695.0,43.63157894736842,0.0261344286985706
74253,FINLEY (CSIRO)                          ,-35.7111,145.6236,110.0,2.6476681117830103,6.868836,2.594296428425937,1989-05-04 00:00:00,30.00014421666667,88782.0,1.0,0.0194870733785575
74258,DENILIQUIN AIRPORT AWS                  ,-35.5575,144.9458,94.0,4.408866069802716,6.8295126,1.5490406122579206,1997-05-23 10:00:00,29.99993388333333,347676.0,20.933333333333334,0.0098157210306538
74272,KAPOOKA (DEFENCE)                       ,-35.1327,147.2512,187.0,2.601570807183394,5.4974,2.1131078930456293,2017-10-03 10:30:00,29.99907005,96753.0,18.4375,0.0247913122127928
75019,HAY AIRPORT AWS                         ,-34.5412,144.8345,92.0,4.546825695996715,6.8656693,1.509991741388549,2007-06-26 09:00:00,29.99989163333333,233431.0,15.444444444444445,0.0135548611455483
75041,GRIFFITH AIRPORT AWS                    ,-34.2487,146.0695,134.0,3.9732403232971154,6.419528,1.6156908430296522,2000-06-13 18:00:00,29.99992501666667,332210.0,24.933333333333334,0.0176245511297491
75174,GRIFFITH CSIRO                          ,-34.3229,146.0684,125.0,2.2507888029557463,6.6753535,2.9657840479315456,1989-03-01 12:00:00,29.67123636666667,112498.0,0.0,0.0226297957310099
75175,HAY CSIRO AWS                           ,-34.5471,144.867,90.0,2.845046916340068,6.8976617,2.4244456730495365,1996-09-13 12:00:00,17.95088775,86092.0,0.0,0.0200000640665222
200288,NORFOLK ISLAND AERO                     ,-29.0389,167.9408,111.7,5.108979427193169,,,1994-07-25 05:00:00,29.9855849,503639.0,,
200839,LORD HOWE ISLAND AERO                   ,-31.5421,159.0786,5.0,5.395377930224528,7.7876163,1.44338660861429,1994-07-23 03:30:00,29.9910056,401963.0,32.644444444444446,0.0365044743881586
14015,DARWIN AIRPORT                          ,-12.4239,130.8925,30.4,3.475318435659923,4.5577235,1.3114549376022344,1985-01-02 01:30:00,29.9985693,455956.0,2.857142857142857,0.0010081719572304
14031,CHARLES POINT                           ,-12.3895,130.6306,14.0,2.7627929000188245,5.0594335,1.8312749610009216,2006-01-06 13:00:00,29.99990085,193461.0,9.72,0.0062164088197658
14041,MIDDLE POINT                            ,-12.605,131.2988,14.1,2.306663436847832,4.4731894,1.9392466549240928,2001-08-07 15:30:00,29.99992105,296306.0,8.88888888888889,0.005466681437859
14046,NOONAMAH AWS                            ,-12.6365,131.0714,26.9,1.6908378178085333,4.8307443,2.857012195747465,2008-11-11 13:30:00,29.99962483333333,64172.0,17.833333333333332,0.0325049231033012
14072,DARWIN NTC AWS                          ,-12.4719,130.8458,0.0,3.3022816298457283,5.098608,1.5439652302477798,2012-08-16 10:00:00,29.99983933333333,178428.0,8.11111111111111,0.0025001952310382
14142,PIRLANGIMPI AIRPORT                     ,-11.4021,130.4217,18.3,1.6566251528801048,4.577474,2.763132087739307,2006-01-11 22:30:00,29.999900766666663,261431.0,43.88235294117647,0.0207687409440364
14198,JABIRU AIRPORT                          ,-12.6592,132.894,26.5,2.340454723857801,4.524206,1.9330457946401616,1993-07-01 09:30:00,29.999942533333336,333700.0,14.0,0.0077422826557675
14245,CAPE DON                                ,-11.3081,131.7651,19.0,3.132468614554173,5.2343674,1.671003931622934,2005-12-19 09:30:00,29.97679128333333,77091.0,1.0,0.0075079257597552
14254,POINT STUART                            ,-12.2403,131.8785,1.0,3.3933367279455364,5.1842422,1.5277712364472318,2003-03-09 16:30:00,29.999914816666667,177657.0,4.166666666666667,0.0035974301517418
14272,BATCHELOR AIRPORT                       ,-13.0544,131.0252,104.0,1.929266875330544,5.300636,2.7474870804271614,1993-07-07 12:30:00,29.983047916666667,341066.0,75.28571428571429,0.0340952311525488
14274,MCCLUER ISLAND                          ,-11.0468,132.9791,1.4,6.522841132929311,6.837427,1.0482283716469485,2001-01-08 10:30:00,29.406301016666664,201410.0,1.25,0.0028646875143168
14277,DUM IN MIRRIE AIRSTRIP                  ,-12.635,130.3725,3.5,2.2082133716283763,5.242257,2.373981240028161,2000-10-19 22:30:00,29.715452866666663,271159.0,14.727272727272728,0.01804544924394
14299,NGUKURR AIRPORT                         ,-14.7236,134.7456,14.5,2.2130479047949354,5.0035133,2.2609150598776915,2012-07-02 09:30:00,29.999841166666663,185183.0,26.785714285714285,0.0205939246404902
14308,CROKER ISLAND AIRPORT                   ,-11.1629,132.4813,9.2,3.2818366597903936,5.761167,1.755470380349739,2012-09-26 09:00:00,29.999837616666664,181617.0,9.142857142857142,0.0099976860682133
14309,MURGANELLA AIRSTRIP                     ,-11.5485,132.9266,9.5,1.5163439783518635,4.490924,2.961678844408386,2012-10-10 09:30:00,29.99983703333333,175757.0,76.88888888888889,0.0338402962449212
14310,OENPELLI AIRPORT                        ,-12.3272,133.0069,7.5,1.9100897533350625,4.7665987,2.49548414840426,2012-09-26 09:00:00,29.999837616666664,178962.0,40.16666666666666,0.018014835786497
14314,NOONAMAH AIRSTRIP                       ,-12.6099,131.0474,17.5,1.571764492452352,4.6809344,2.978139824157278,2013-06-21 11:30:00,29.999825466666667,171172.0,56.31578947368421,0.0264057988066012
14401,WARRUWI AIRPORT                         ,-11.65,133.3797,19.2,3.379693430602248,6.4756436,1.916044685047723,2000-08-15 09:30:00,29.981882366666664,301302.0,9.727272727272728,0.0260257341695646
14402,MILINGIMBI                              ,-12.1239,134.9078,4.0,3.212910250520683,6.1092567,1.9014713353398844,2000-12-13 14:00:00,29.9993434,26044.0,2.6666666666666665,0.0063545655754738
14404,MILINGIMBI AIRPORT                      ,-12.0932,134.8919,15.0,3.098705317807635,6.0165496,1.9416333501200835,2003-07-23 11:30:00,29.999913216666663,261080.0,9.090909090909092,0.0166756908433227
14405,MANINGRIDA AIRPORT                      ,-12.0569,134.2339,28.1,3.425469823414972,5.8682203,1.713114005317505,2003-10-24 11:30:00,29.99991208333333,266916.0,4.125,0.0083129262277799
14508,GOVE AIRPORT                            ,-12.2741,136.8201,51.6,3.6391965984479233,5.5537825,1.526101245929488,1990-08-01 13:00:00,29.847215866666662,439636.0,7.555555555555555,0.0122412608712698
14517,NGAYAWILI                               ,-11.9971,135.5726,8.1,4.21553396484186,5.8002973,1.3759341778905614,2000-07-27 16:30:00,29.999246366666668,222544.0,3.8333333333333335,0.0046918459421924
14518,GROOTE EYLANDT AIRPORT                  ,-13.9746,136.463,13.7,2.44714187593634,5.281167,2.15809597402838,2000-07-24 12:30:00,29.99992465,290003.0,20.2,0.0244901293057223
14626,DALY WATERS AIRSTRIP                    ,-16.2637,133.3782,209.8,2.0369698576656763,5.48355,2.6920133604727656,2000-09-13 08:30:00,29.997953516666666,217446.0,69.53333333333333,0.0324199204106827
14627,BULMAN                                  ,-13.6715,134.3415,103.4,2.083590181956788,4.80145,2.304411787536144,2003-07-30 19:30:00,28.84736503333333,217656.0,12.428571428571429,0.0188718822455213
14703,CENTRE ISLAND                           ,-15.7426,136.8192,12.2,5.072682328458073,6.1856475,1.2194036778014865,2000-11-06 04:00:00,29.63460866666667,180891.0,2.9,0.0016723231797397
14704,MCARTHUR RIVER MINE AIRPORT             ,-16.4423,136.076,40.0,2.558028311424325,4.563161,1.7838586367171498,2003-08-14 16:30:00,29.99991295,272571.0,7.8,0.0066329596737866
14723,BORROLOOLA AIRPORT                      ,-16.0755,136.3041,16.1,2.6723575400081283,5.0281744,1.8815500265410952,2000-07-24 12:30:00,29.99992465,297625.0,8.2,0.0148316124594979
14808,BRADSHAW - ANGALLARI VALLEY (DEFENCE)   ,-15.4397,130.5731,60.0,1.8754245028373,4.538152,2.4198000031455766,2017-12-08 10:30:00,29.999679516666667,92816.0,19.5,0.0112826527499905
14825,VICTORIA RIVER DOWNS                    ,-16.403,131.0145,88.5,2.1430917121479016,4.3328457,2.0217733395663413,2000-07-24 12:30:00,29.99992465,257246.0,16.0,0.0068509376444326
14829,LAJAMANU AIRPORT                        ,-18.3324,130.6361,315.6,3.549130964215255,5.987253,1.6869631606876332,2000-07-24 12:30:00,29.99992465,301294.0,14.857142857142858,0.008962256190666
14850,TIMBER CREEK                            ,-15.6614,130.4808,20.1,2.1611111111111114,5.2642922,2.4359192884979635,2013-02-04 14:00:00,29.993356950000003,5.0,0.0,0.0431715521744516
14901,DOUGLAS RIVER RESEARCH FARM             ,-13.8345,131.1872,42.8,2.131267137148603,4.652643,2.183040841121432,1996-09-30 10:30:00,29.99993548333333,283722.0,26.071428571428573,0.0120583473087546
14909,CENTRAL ARNHEM PLATEAU                  ,-13.3275,133.0861,416.0,3.5896534910527897,6.7005515,1.866629056692603,2003-08-27 10:30:00,29.99947678333333,147875.0,17.818181818181817,0.0179612161644486
14932,TINDAL RAAF                             ,-14.5229,132.3826,133.6,2.812574171457001,5.403566,1.9212172032559265,1990-06-01 10:30:00,29.999947916666667,451850.0,27.7,0.0082843974547357
14948,PORT KEATS AIRPORT                      ,-14.2494,129.5282,28.0,2.577702044439843,4.956875,1.92298208324899,2000-08-30 09:30:00,29.999924316666668,293031.0,10.454545454545457,0.0110510864980142
14949,DELAMERE WEAPONS RANGE                  ,-15.7441,131.9181,221.0,3.159888315432875,5.794693,1.833828418828228,2000-07-24 12:30:00,29.99992465,359228.0,15.666666666666666,0.0092578468946928
14954,BRADSHAW                                ,-14.9408,130.8091,75.0,2.8075661124817968,4.090464,1.4569431141648117,2001-11-18 13:30:00,29.99992,185553.0,4.5,0.0018862163644667
14981,BRADSHAW - KOOLENDONG VALLEY (DEFENCE)  ,-15.1853,130.1169,42.0,1.1567201374631644,4.3801374,3.786687290798519,2018-10-24 14:30:00,29.999616566666667,77461.0,45.64,0.0495212209628183
14982,KANGAROO FLATS (DEFENCE)                ,-12.7934,130.8542,50.0,1.0875938054179566,4.9007206,4.506021064022294,2017-10-03 09:00:00,29.999690016666666,93292.0,76.32,0.0730608837925892
14983,MOUNT BUNDEY NORTH (DEFENCE)            ,-12.9141,131.8663,83.0,1.4793406306018722,4.9871693,3.3712109047650727,2017-10-03 09:00:00,29.999690016666666,96437.0,45.23809523809524,0.0344356903050776
14984,MOUNT BUNDEY SOUTH (DEFENCE)            ,-13.0889,131.8478,55.0,1.405717265534614,4.622325,3.28823231874053,2017-10-03 09:00:00,29.999690016666666,96466.0,38.9,0.0299244834628794
14988,KNUCKEY LAGOON                          ,-12.4422,130.9556,31.6,2.1357326165345203,4.5741987,2.1417469056878176,2021-07-22 13:30:00,29.99900493333333,30129.0,4.5,0.0112171621939866
15135,TENNANT CREEK AIRPORT                   ,-19.6423,134.1833,375.7,4.669644515449127,7.152781,1.5317613548546782,1990-06-18 13:00:00,29.99973925,431685.0,28.5,0.0134449551912916
15590,ALICE SPRINGS AIRPORT                   ,-23.7951,133.889,546.0,3.5569701396042226,5.714463,1.6065536143588743,1990-08-08 12:00:00,29.83966438333333,450056.0,18.33333333333333,0.0098402028351851
15602,JERVOIS                                 ,-22.9494,136.1442,328.0,3.563732784468115,6.6644716,1.8700817455583745,2000-08-08 08:00:00,29.947263066666668,204278.0,22.2,0.0206818999699515
15635,YULARA AIRPORT                          ,-25.1896,130.9737,492.0,3.904924206028377,6.616568,1.6944165211496072,1991-07-20 14:30:00,29.873090933333334,418474.0,28.789473684210527,0.0143455510059168
15643,TERRITORY GRAPE FARM                    ,-22.4518,133.6377,565.6,3.3385163713267936,6.7526736,2.022657035305296,2000-08-05 09:30:00,29.970831416666663,222105.0,32.0,0.0171415328660021
15664,WALUNGURRU AIRPORT                      ,-23.2656,129.3844,454.3,5.257614760477738,7.4204946,1.4113804252468152,2001-10-22 13:00:00,29.950106100000003,225392.0,7.333333333333333,0.0146566415726675
15666,RABBIT FLAT                             ,-20.1823,130.0148,340.0,3.3239125492457697,5.4175606,1.6298745821763208,2002-02-14 15:00:00,29.90468535,152476.0,11.166666666666666,0.0106424100116403
200731,POINT FAWCETT                           ,-11.7628,130.03,6.5,3.222785017161891,4.5029764,1.3972313987940157,2000-07-24 13:30:00,29.99992465,261114.0,3.7777777777777777,0.0009866977561199
200782,NORTH EAST ISLAND                       ,-13.6449,136.9445,17.4,4.031676970742209,6.2364793,1.546869783377275,2010-10-13 12:30:00,29.99954446666667,65562.0,3.0,0.0061383346914272
200786,CAPE WESSEL                             ,-11.0047,136.7586,18.0,6.393123564413525,7.033756,1.1002064496952362,2011-12-06 14:30:00,29.999849166666667,184326.0,2.4,0.0097691306476673
200867,BAYU UNDAN (CUQ RIG)                    ,-11.0681,126.6144,32.5,4.917883099601628,,,2009-07-02 07:30:00,29.999875766666666,241504.0,,
200868,CP DILI AIRPORT                         ,-8.5478,125.5276,8.8,3.354247104247196,,,2023-02-07 23:30:00,29.990029900000003,3009.0,,
27045,WEIPA AERO                              ,-12.6778,141.9208,18.0,3.174478839408576,6.013942,1.894465853787822,1995-11-02 13:30:00,29.935531366666662,416592.0,31.22222222222222,0.0164598221531161
27054,COCONUT ISLAND                          ,-10.0511,143.0686,3.5,2.233009497957952,8.057411,3.608319266539627,2003-07-13 00:00:00,29.878720666666663,152220.0,23.303797468354432,0.1200135993192592
27058,HORN ISLAND                             ,-10.5844,142.29,4.0,5.237443998132308,7.685066,1.4673314360755083,1995-10-17 21:30:00,29.9820784,358225.0,7.4,0.0359286824885982
27073,COEN AIRPORT                            ,-13.7606,143.1183,159.3,2.9442957774804634,4.6395698,1.5757824994536174,2002-04-17 17:00:00,29.92134715,283480.0,2.4,0.0075124149213363
27075,SCHERGER RAAF                           ,-12.6167,142.0869,39.3,2.261096634716859,5.8297615,2.578289408606799,2005-12-14 10:00:00,29.999901216666668,257475.0,43.65,0.0466819677515262
28004,PALMERVILLE                             ,-15.9999,144.0754,203.8,2.1059213849472425,4.628964,2.198070630928185,2001-07-16 11:00:00,29.999921266666668,259168.0,9.0,0.0118243062037094
28008,LOCKHART RIVER AIRPORT                  ,-12.785,143.3047,18.5,3.678892114755008,5.7626348,1.5664049323622704,2001-06-26 11:00:00,29.999921466666667,277368.0,5.8,0.0260288965152591
29038,KOWANYAMA AIRPORT                       ,-15.4818,141.7483,9.6,2.657512716836661,5.3420243,2.010159459437424,1999-06-23 16:00:00,29.9999281,302795.0,7.25,0.0125996258227945
29039,MORNINGTON ISLAND                       ,-16.664,139.1837,8.5,2.878853145418109,5.4709964,1.9004082888214564,1995-10-12 00:00:00,29.999914866666664,269006.0,22.75,0.0246452989480309
29058,JULIA CREEK AIRPORT                     ,-20.6672,141.7214,122.5,4.539257033314757,6.41938,1.414191824978146,2001-08-31 17:00:00,29.9999208,282956.0,7.285714285714286,0.0041345151729592
29063,NORMANTON AIRPORT                       ,-17.6872,141.0733,18.4,3.762862568483088,5.5416284,1.4727161196807337,2001-04-09 19:00:00,29.999922233333333,293937.0,4.333333333333333,0.0023865388251782
29077,BURKETOWN AIRPORT                       ,-17.7483,139.5356,5.7,4.430238076406385,6.119577,1.381320106382113,2001-10-10 19:00:00,29.999840816666666,290099.0,3.75,0.0041534165316697
29127,MOUNT ISA AERO                          ,-20.6778,139.4875,340.3,3.597303198086349,6.055494,1.6833426314623274,1995-10-16 21:00:00,29.985749533333333,443334.0,20.7,0.0157015919895245
29141,CLONCURRY AIRPORT                       ,-20.6664,140.505,186.0,4.173529008016418,6.374381,1.5273359914654694,2001-03-23 11:00:00,29.9999224,290466.0,9.125,0.0064846019899476
29167,CENTURY MINE                            ,-18.7569,138.7056,126.8,2.911737814231348,6.0982304,2.094361082970072,2003-04-07 10:00:00,29.99991448333333,342194.0,31.363636363636363,0.0210478876296834
29181,LAKE JULIUS AWS                         ,-20.1167,139.7256,237.0,2.338105470530397,5.397233,2.3083787610804496,2013-08-19 08:30:00,29.99982255,163695.0,40.75,0.0288726970476336
29182,MORNINGTON ISLAND AIRPORT               ,-16.662,139.1655,9.5,4.0824558362953285,5.56237,1.3625058167202238,2013-10-24 09:00:00,29.99981916666667,165396.0,4.25,0.0050729744084448
30022,HUGHENDEN AIRPORT                       ,-20.8192,144.2333,316.4,4.059003861724847,6.97717,1.718936524385234,2001-02-23 11:00:00,29.999922666666667,289292.0,12.88888888888889,0.016175022750222
30024,HUGHENDEN POST OFFICE                   ,-20.8447,144.1986,324.0,3.348290598290599,6.97508,2.083176417493789,2001-02-21 17:00:00,29.638554216666662,24.0,0.0,0.0146447577357763
30124,GEORGETOWN AIRPORT                      ,-18.3039,143.5306,301.8,2.9818743096276537,5.753821,1.9295987351214547,2004-06-01 18:00:00,29.99990925,267237.0,12.5,0.0152357683292828
30161,RICHMOND AIRPORT                        ,-20.7001,143.1137,206.3,4.290368096002825,6.192665,1.4433878309572388,1998-11-07 19:00:00,29.99992993333333,306044.0,7.4,0.0043884333204595
31011,CAIRNS AERO                             ,-16.8736,145.7458,2.2,4.071464920277705,5.5744467,1.369150118523286,1985-01-16 16:30:00,29.96722815,447914.0,2.6,0.0069923357448736
31037,LOW ISLES LIGHTHOUSE                    ,-16.3842,145.5592,2.9,6.608154249007577,6.7347097,1.0191514129223735,1998-11-07 19:00:00,29.99992993333333,317900.0,1.3333333333333333,0.0018024739531393
31192,GREEN ISLAND                            ,-16.7614,145.9719,3.0,8.326083165648079,8.389779,1.0076501668270703,1997-03-24 00:00:00,29.99793078333333,223647.0,2.4,0.0094359115716241
31209,COOKTOWN AIRPORT                        ,-15.4461,145.1861,4.8,4.140418908242832,6.8821993,1.6621987871114503,2000-07-24 13:00:00,29.99992465,296362.0,9.727272727272728,0.0428249672626137
31210,MAREEBA AIRPORT                         ,-17.0704,145.4293,471.9,3.4079268019438014,7.0785985,2.077098162806968,2000-07-24 13:00:00,29.99789056666667,298386.0,21.53333333333333,0.0383984721731739
31213,CAPE FLATTERY                           ,-14.9672,145.3106,18.5,6.299187684123899,9.06652,1.4393157009902044,2003-06-20 11:00:00,29.999913616666667,274843.0,9.875,0.0550016503505551
31222,CAIRNS RACECOURSE                       ,-16.9463,145.7474,4.1,2.847178095625975,6.042963,2.122439420715446,2013-08-02 10:00:00,29.9998234,169328.0,25.15384615384616,0.0219913082489451
32037,SOUTH JOHNSTONE EXP STN                 ,-17.6053,145.9972,18.3,2.2719947931976785,3.976634,1.7502830717216953,1999-11-04 16:00:00,29.999926966666667,302363.0,2.333333333333333,0.003390147691989
32040,TOWNSVILLE AERO                         ,-19.2483,146.7661,4.3,4.302064037212544,4.715243,1.0960419979607243,1995-10-16 13:00:00,29.986372,449737.0,1.0,0.0014275066124734
32141,LUCINDA POINT                           ,-18.5203,146.3861,10.0,5.344528180262521,5.588445,1.0456386416397356,1996-10-22 00:00:00,29.99993535,276302.0,2.333333333333333,0.0006531236931415
32182,CAPE FERGUSON NTC AWS                   ,-19.2774,147.0586,0.0,4.543636625075243,6.481217,1.426438212891615,2013-05-16 10:00:00,29.999827216666667,169994.0,2.0,0.0052945886008032
32194,COWLEY BEACH (DEFENCE)                  ,-17.6905,146.1126,4.3,1.880813120880381,5.4761376,2.911579878562704,2017-04-03 13:30:00,29.999715783333333,105513.0,14.1875,0.0234879066199572
32195,MOUNT STUART (DEFENCE)                  ,-19.4082,146.762,176.4,2.826371724027652,4.9605384,1.755090579603482,2017-10-03 09:30:00,29.999690016666666,96680.0,6.142857142857143,0.0087299397661814
32196,TOWNSVILLE- AIR WEAPONS RANGE (DEFENCE) ,-19.3048,146.2438,385.5,3.013483594400569,4.7159257,1.564941552120856,2017-10-03 09:30:00,29.999690016666666,92862.0,0.0,0.00348059367438
32197,INNISFAIL AERODROME                     ,-17.5581,146.0119,11.8,3.009065414103152,4.3555098,1.4474626365986665,2016-06-21 13:30:00,29.9997485,118933.0,1.0,0.0023982292396177
33002,AYR DPI RESEARCH STN                    ,-19.6169,147.3758,17.0,2.9438822323466187,6.0373373,2.0508080237806103,2003-08-17 03:00:00,26.18232528333333,208646.0,15.375,0.0227255184763491
33045,MACKAY AERO                             ,-21.1706,149.1794,5.3,4.874003453976421,6.210302,1.274168542289703,1995-11-14 01:00:00,29.90124373333333,434842.0,2.875,0.0039512315677596
33106,HAMILTON ISLAND AIRPORT                 ,-20.3658,148.9536,58.7,7.55539043266308,7.59709,1.0055191502232237,2002-07-19 12:00:00,29.999917433333334,274229.0,3.076923076923077,0.008531242470265
33119,MACKAY M.O                              ,-21.1172,149.2169,30.3,4.500035584670358,6.8704095,1.5267455910976442,1995-10-15 13:00:00,29.98935895,351011.0,11.785714285714286,0.0088354717580724
33195,WILLIAMSON                              ,-22.4703,150.1786,27.6,2.6207984303837777,5.7563014,2.196392265925895,2005-06-01 18:00:00,29.99990418333333,230908.0,15.083333333333334,0.0380680177752312
33208,ROSSLYN BAY NTC AWS                     ,-23.161,150.7901,0.0,3.0544325567533086,7.0841346,2.319296447728698,2012-07-11 11:30:00,29.9998408,181588.0,32.6271186440678,0.0664844894856463
33210,ST LAWRENCE                             ,-22.3472,149.5242,9.2,2.927868937725356,4.921065,1.6807667823722192,2004-08-09 18:00:00,29.99990833333333,264071.0,2.4,0.0063969677421316
33247,PROSERPINE AIRPORT                      ,-20.4925,148.555,19.7,3.7233080678637527,6.4205017,1.7244078631044184,1996-03-22 08:00:00,29.99993673333333,315931.0,14.941176470588236,0.0205685674531386
33255,HAMILTON ISLAND                         ,-20.3528,148.9511,22.6,7.765661839002996,7.22885,0.9308736380382984,2002-03-14 17:00:00,29.985214383333336,2915.0,0.0,0.0077256657355625
33294,YEPPOON THE ESPLANADE                   ,-23.1364,150.7506,5.5,4.567839791282675,6.531303,1.429845009316873,1995-10-15 08:00:00,29.98998123333333,451505.0,4.5,0.0056523766421726
33295,ALVA BEACH                              ,-19.4569,147.4833,7.5,5.06056309954198,6.9345994,1.3703216940807013,1997-03-24 00:00:00,29.9999343,343141.0,2.4444444444444446,0.0056767727099099
33298,DOTSWOOD                                ,-19.6264,146.2939,292.5,2.8449673575047623,5.2020316,1.8285030928997337,1996-12-17 02:30:00,27.5694907,46560.0,0.0,0.0121555120026132
33307,WOOLSHED                                ,-19.4168,146.5362,556.0,2.3338522052670463,5.982709,2.563448069876678,1998-11-07 19:00:00,29.99992993333333,303848.0,14.0,0.0419447778723754
33308,SAMUEL HILL AERO                        ,-22.7433,150.6578,31.0,2.647957659353056,4.478383,1.6912593177053177,2000-11-08 10:00:00,29.999923666666668,296186.0,8.333333333333334,0.0125880382708208
33317,HAY POINT                               ,-21.2894,149.3008,7.0,6.225754303167961,7.2941017,1.1716012807277512,2005-11-24 14:00:00,29.999901516666668,300465.0,4.5,0.005069693673366
33327,BOWEN AIRPORT AWS                       ,-20.0153,148.2138,5.9,4.405988740082895,7.54576,1.7126144890198138,2015-03-19 12:30:00,29.99978778333333,139175.0,7.7,0.0204512264687265
33328,TOWNSVILLE- FANNING RIVER (DEFENCE)     ,-19.783,146.5,325.8,1.9365089212183784,6.373766,3.2913692653811464,2017-10-03 09:30:00,29.999690016666666,96717.0,50.5,0.0700551374576953
33329,OORALEA RACECOURSE (MACKAY TURF CLUB)   ,-21.17,149.1515,10.3,2.942537985398318,5.663748,1.924783236641518,2016-06-27 10:00:00,29.9997479,117844.0,9.416666666666666,0.0225892343928817
34035,MORANBAH AIRPORT                        ,-22.0644,148.0758,232.2,4.055527166932762,5.8115926,1.433005461354931,2012-02-27 09:00:00,29.9998461,194688.0,3.0,0.004982968543307
35124,CLERMONT AIRPORT                        ,-22.7756,147.6217,270.3,2.0757537949416247,5.030926,2.423662305148796,2010-04-15 11:00:00,29.99986825,225738.0,20.88235294117647,0.023359442302686
35129,ROLLESTON AIRPORT                       ,-24.4617,148.6264,219.5,2.430377512254265,5.2263927,2.150444825801572,2010-07-12 15:00:00,29.99986575,220591.0,18.181818181818183,0.0096998955145646
35134,BLACKWATER AIRPORT                      ,-23.6015,148.8074,193.0,3.986511527675805,6.0975394,1.529542654665593,2013-05-29 11:00:00,29.99982658333333,171906.0,4.285714285714286,0.0051535656822706
35139,LOCHINGTON                              ,-23.9424,147.525,267.2,2.2439813058992133,5.0824065,2.2649059096358526,2010-10-29 10:00:00,29.99986255,216193.0,19.53333333333333,0.013894001663424
35264,EMERALD AIRPORT                         ,-23.5694,148.1756,189.4,3.8339784992366814,5.6529646,1.47443826122276,1998-11-07 19:00:00,29.99992993333333,308660.0,5.2,0.0032067759064228
36031,LONGREACH AERO                          ,-23.4397,144.2828,192.2,4.400538403846043,6.8744073,1.5621741388290498,1995-12-11 16:00:00,29.819100166666665,424264.0,8.25,0.0073562201866037
36034,BLACKALL AIRPORT                        ,-24.4303,145.4306,281.3,3.6294712333456327,6.916158,1.9055553149914388,2001-03-13 11:00:00,29.99992248333333,309685.0,20.33333333333333,0.0158395194962325
37010,CAMOOWEAL TOWNSHIP                      ,-19.9225,138.1214,231.2,3.899970835357865,6.5459895,1.6784714013884543,1999-06-24 09:30:00,29.99784305,223399.0,7.333333333333333,0.0131465864362064
37034,THE MONUMENT AIRPORT                    ,-21.8125,139.9267,288.4,3.86541186413777,6.7238216,1.7394838833078614,2000-12-14 14:00:00,29.99992333333333,288585.0,13.071428571428571,0.0175559208137684
37036,TREPELL AIRPORT                         ,-21.84,140.8925,266.2,4.099650379140335,6.4832687,1.5814199110199394,2001-08-19 17:00:00,29.99992093333333,282317.0,11.5,0.0067256827197272
37039,WINTON AIRPORT                          ,-22.3617,143.0836,192.2,4.212592172644047,6.6207323,1.5716528057066956,2002-10-17 14:00:00,29.99991645,274960.0,9.857142857142858,0.0076379715786535
37053,CARTERS BORE                            ,-20.9358,139.2964,396.0,3.293876193896945,7.2164125,2.1908572512899576,2014-07-29 14:00:00,29.99980333333333,151524.0,23.5,0.0343897124109764
37058,URANDANGI AERODROME                     ,-21.5979,138.3665,178.6,3.711800866810564,6.712587,1.8084447740048468,2012-09-11 11:30:00,29.99983825,181402.0,16.9375,0.0171603241794124
37059,NEW MAY DOWNS                           ,-20.59,139.3411,392.0,3.037517686614215,6.8670926,2.260758065596635,2013-08-19 08:30:00,29.99982255,168563.0,30.75,0.0279967853701276
38026,BIRDSVILLE AIRPORT                      ,-25.8975,139.3472,46.6,4.631398499466286,7.1079936,1.534740230963023,2000-07-24 13:00:00,29.99992465,295762.0,14.8,0.0099277609753672
38076,WINDORAH AIRPORT                        ,-25.4117,142.6647,132.2,3.991342081987428,6.504609,1.6296796852682496,2016-08-18 18:30:00,29.9997422,115384.0,7.444444444444445,0.0061138298520027
39039,GAYNDAH POST OFFICE                     ,-25.6258,151.6094,105.7,3.846913580246909,5.5911803,1.4534197891171707,2003-01-24 15:00:00,29.83425413333333,85.0,0.0,0.0064656050317368
39059,LADY ELLIOT ISLAND                      ,-24.1116,152.7161,3.6,5.965167054567516,7.827855,1.3122608367144863,1998-12-22 02:30:00,29.872887,191916.0,4.0,0.0156494789520827
39066,GAYNDAH AIRPORT                         ,-25.6167,151.6156,110.9,2.399294676743516,5.511694,2.2972142637971493,2003-01-28 10:00:00,29.999915283333333,283572.0,33.0,0.0247918014706854
39083,ROCKHAMPTON AERO                        ,-23.3753,150.4775,10.4,3.2373454742415424,4.8656754,1.5029830730411269,1995-10-31 20:00:00,29.94069645,446568.0,1.8,0.0042025720866247
39089,THANGOOL AIRPORT                        ,-24.4935,150.5709,193.1,2.6854729083821614,5.087457,1.8944362328674864,2009-10-01 14:30:00,29.99987348333333,223139.0,6.555555555555555,0.0091921511020345
39122,HERON ISLAND RES STN                    ,-23.4417,151.9125,3.3,6.037340351288397,7.675639,1.2713610142732532,1999-02-16 14:00:00,29.99992913333333,222316.0,3.5,0.0142973947096864
39123,GLADSTONE RADAR                         ,-23.8553,151.2628,74.5,4.619062910202388,6.699093,1.4503142726620082,1994-08-10 15:00:00,29.92955425,475638.0,12.555555555555555,0.0102611440630681
39128,BUNDABERG AERO                          ,-24.9069,152.323,30.8,4.119196612904433,6.6078773,1.604166509990134,1998-11-07 19:00:00,29.99992993333333,349545.0,10.909090909090908,0.0114858441120737
39304,HERON ISLAND                            ,-23.4483,151.9178,8.0,6.144501372102355,7.637577,1.2429937914183509,1995-10-11 22:00:00,29.999489216666667,23964.0,0.0,0.0239712043678493
39322,RUNDLE ISLAND                           ,-23.5322,151.2771,19.8,7.3046388272818685,7.608096,1.0415430937292145,1996-01-20 04:00:00,29.99503525,411174.0,2.555555555555556,0.0046699289065658
39326,GLADSTONE AIRPORT                       ,-23.8697,151.2214,16.6,3.847002114812475,5.8156376,1.5117323606629898,1996-01-09 08:30:00,29.97478083333333,449236.0,4.4,0.0064615999440201
40004,AMBERLEY AMO                            ,-27.6297,152.7111,24.2,2.902398063262364,4.7296977,1.6295827109941268,1995-10-14 14:00:00,29.9928436,354609.0,12.333333333333334,0.006789171700383
40043,CAPE MORETON LIGHTHOUSE                 ,-27.0314,153.4661,99.9,7.806135221545529,8.288787,1.0618297855313694,1996-03-22 06:00:00,29.99993673333333,393802.0,11.36,0.0097766313045214
40068,DOUBLE ISLAND POINT LIGHTHOUSE          ,-25.9319,153.1906,95.6,7.474372122282945,7.680221,1.0275406355382544,1995-10-11 22:00:00,29.99993776666667,395888.0,8.947368421052632,0.0074239987189063
40082,UNIVERSITY OF QUEENSLAND GATTON         ,-27.5436,152.3375,89.0,3.0371948815325047,5.0312443,1.6565431176465837,2002-07-16 12:00:00,29.999917466666663,296584.0,9.6875,0.0057315706492775
40093,GYMPIE                                  ,-26.1831,152.6414,64.5,1.6081686978844256,4.9575768,3.08274670327234,2000-07-24 13:00:00,29.99992465,295237.0,81.29166666666667,0.0449752179698684
40126,MARYBOROUGH                             ,-25.5132,152.7152,9.0,3.3356942455207665,5.6644917,1.6981447448454754,2007-12-19 13:30:00,29.999888233333333,267393.0,12.166666666666666,0.0117745199327824
40211,ARCHERFIELD AIRPORT                     ,-27.5716,153.0071,12.5,3.41787288482372,4.8365245,1.415068567358729,1994-09-21 12:30:00,29.80980245,425192.0,6.888888888888889,0.0028827583707876
40223,BRISBANE AERO                           ,-27.4178,153.1142,4.0,3.5515960393655743,5.7996655,1.6329744111567952,1985-01-06 16:30:00,29.971252,35673.0,17.166666666666668,0.013635749857908
40282,NAMBOUR DPI                             ,-26.6431,152.9392,32.5,1.285191151895066,4.5757565,3.56037041111594,1997-07-14 14:00:00,29.9998359,63506.0,2.333333333333333,0.1098626521550123
40284,BEERBURRUM FOREST STATION               ,-26.9586,152.9619,48.0,1.30452790510544,4.767545,3.6546134464258486,1999-06-23 16:00:00,29.9999281,335219.0,96.8148148148148,0.0543698188829929
40405,HERVEY BAY AIRPORT                      ,-25.322,152.8817,13.0,3.71593323696215,5.8742266,1.5808213429936897,1999-06-23 16:00:00,29.9999281,331208.0,5.857142857142857,0.011518238073223
40555,TOOLARA (KELLY)                         ,-25.9713,152.8609,143.0,3.406297374181501,5.1647787,1.5162442212352834,1998-11-07 20:00:00,28.772763750000003,132851.0,1.0,0.0011741040890936
40651,JIMNA FORESTRY                          ,-26.6644,152.4606,523.0,2.133140482332006,5.4292564,2.545194038638082,2000-07-24 13:00:00,19.830322833333334,107113.0,7.75,0.0419881605398092
40717,COOLANGATTA                             ,-28.1681,153.5053,4.0,4.229635934141542,6.196159,1.4649390591612228,1994-07-17 00:00:00,29.99994045,425619.0,9.181818181818182,0.0064454508137357
40764,GOLD COAST SEAWAY                       ,-27.939,153.4283,3.0,5.00808290807141,7.0408583,1.4058989034287366,1994-07-17 00:00:00,29.99994045,458594.0,18.39130434782609,0.007665332670423
40842,BRISBANE AERO                           ,-27.3917,153.1292,4.5,4.1827317004555615,6.2941155,1.5047858658206443,1995-10-11 22:00:00,29.99993776666667,473028.0,13.166666666666666,0.0058794310631293
40861,SUNSHINE COAST AIRPORT                  ,-26.599,153.0912,3.4,4.593153468730827,6.060612,1.3194882868491074,1995-12-23 15:00:00,29.783010016666665,437979.0,5.5,0.0037941507129686
40908,TEWANTIN RSL PARK                       ,-26.3911,153.0403,6.4,2.7853352318450533,5.5303464,1.9855227228507824,1996-03-21 00:00:00,29.99993675,318277.0,18.6,0.0234062373348931
40913,BRISBANE                                ,-27.4808,153.0389,8.1,1.9332601381695065,4.860663,2.5142311896869662,1999-12-10 14:30:00,29.999926666666667,397541.0,46.583333333333336,0.0204123352133478
40922,KINGAROY AIRPORT                        ,-26.5737,151.8398,433.7,2.9052600233549226,6.441113,2.217052154839368,2001-01-19 12:00:00,29.999846,291111.0,40.54545454545455,0.0390827277893136
40925,BANANA BANK NORTH BEACON                ,-27.5327,153.3333,7.0,5.301844320395499,7.2326503,1.3641762833691145,2002-08-23 12:00:00,29.984582266666667,349222.0,10.307692307692308,0.0084058918883448
40926,INNER RECIPROCAL MARKER                 ,-27.2633,153.2419,10.0,6.160313073234172,7.549843,1.2255615493433,2002-03-20 09:00:00,29.99991873333333,352082.0,10.7,0.0082418338738994
40927,SPITFIRE CHANNEL BEACON                 ,-27.0481,153.2664,7.0,6.008226582021793,7.3743234,1.2273710499098751,2002-07-23 10:00:00,29.99990551666667,314013.0,6.285714285714286,0.0055945951022348
40958,REDCLIFFE                               ,-27.2169,153.0922,12.6,5.398334115308441,6.241101,1.1561160637349437,2004-02-27 12:00:00,29.99991048333333,329966.0,3.0,0.0017121039945579
40959,REDCLIFFE JETTY                         ,-27.2261,153.1172,3.6,6.092787817938389,7.0661044,1.159748972592617,2004-11-04 10:30:00,29.91071428333333,332.0,0.0,0.0020324272471701
40983,BEAUDESERT DRUMLEY STREET               ,-27.9707,152.9898,47.8,1.58412525732166,4.631388,2.923624988619214,2007-08-13 10:00:00,29.999672216666667,258749.0,58.30769230769231,0.0248706125813963
40988,NAMBOUR DAFF - HILLSIDE                 ,-26.6442,152.9383,53.2,1.2667438662375026,4.614295,3.642642470023378,2007-12-19 08:00:00,29.999888233333333,246831.0,117.58333333333331,0.0466146065042503
41097,INGLEWOOD FOREST                        ,-28.3661,150.9539,379.0,3.517328328157258,5.4786572,1.557618946681124,2000-07-24 13:00:00,29.999881016666667,145058.0,4.0,0.0013683773662764
41175,APPLETHORPE                             ,-28.6217,151.9533,871.6,2.265863916031415,7.269514,3.208274791980718,1997-03-24 00:00:00,29.9999343,339787.0,64.16666666666667,0.1171292019154975
41359,OAKEY AERO                              ,-27.4034,151.7413,405.7,4.386527432910511,5.9872656,1.3649214962005625,1995-11-06 15:00:00,29.9240177,375513.0,5.625,0.0051204309894904
41522,DALBY AIRPORT                           ,-27.1605,151.2633,345.9,4.312407386387155,6.016582,1.3951794144423542,2006-07-06 15:00:00,29.999897916666665,246507.0,3.6666666666666665,0.005503789189231
41525,WARWICK                                 ,-28.2061,152.1003,475.4,2.6357198019667103,5.808574,2.203790477023505,1998-11-13 00:30:00,29.982974966666667,294342.0,39.43478260869565,0.0400408167300846
41529,TOOWOOMBA AIRPORT                       ,-27.5425,151.9134,640.9,5.56291379238168,7.552426,1.3576384864531903,1996-06-25 15:00:00,29.99993613333333,367657.0,8.8125,0.0109220288044314
41560,GOONDIWINDI AIRPORT                     ,-28.5226,150.3223,216.5,2.996843505067373,5.778338,1.928141374651109,2021-09-29 11:30:00,19.826652216666663,26776.0,3.75,0.0111261755072085
42112,MILES CONSTANCE STREET                  ,-26.6569,150.1819,304.8,2.259840791611122,5.759771,2.548750731285982,1998-11-10 13:00:00,29.990962116666665,272779.0,39.05882352941177,0.0486288280210329
43091,ROMA AIRPORT                            ,-26.5477,148.771,307.4,3.525859462563622,6.437793,1.8258790080459624,1997-03-24 00:00:00,29.9999343,342573.0,18.466666666666665,0.0187831112198618
43109,ST GEORGE AIRPORT                       ,-28.0478,148.5957,198.5,3.4562396570545464,6.4078445,1.8539931194811536,1998-11-09 07:00:00,29.99502568333333,296971.0,19.0625,0.0188453579993334
44021,CHARLEVILLE AERO                        ,-26.4139,146.2558,301.6,3.2764208520667144,5.9635735,1.820148791950466,1995-10-13 21:00:00,29.99408835,436345.0,21.466666666666665,0.0137922811352083
45009,BALLERA GAS FIELD                       ,-27.4008,141.8114,114.5,5.149645620290036,7.179987,1.3942681658414708,2002-08-15 17:00:00,29.99991715,238092.0,6.7,0.0036653928730451
45025,THARGOMINDAH AIRPORT                    ,-27.9867,143.815,130.9,3.89773027894493,6.581221,1.6884752491005284,1999-09-14 09:00:00,29.98447425,295336.0,16.357142857142858,0.0082558186778709
140007,REDLAND (ALEXANDRA HILLS)               ,-27.5433,153.2394,50.5,2.576456256180004,5.814766,2.2568851756082497,2015-08-19 15:30:00,29.99977613333333,133591.0,29.294117647058822,0.0248147364678296
140008,CANUNGRA (DEFENCE)                      ,-28.0437,153.1871,108.1,0.8883921459418076,4.423792,4.979548621162336,2018-03-21 10:00:00,29.99966165,88576.0,69.78125,0.0682991906467016
140009,GREENBANK (DEFENCE)                     ,-27.6932,152.9935,41.5,1.204744890855261,4.908845,4.074592874455024,2018-03-21 10:00:00,29.99966165,88580.0,66.18518518518519,0.0704862036924429
140010,TIN CAN BAY (DEFENCE)                   ,-25.9351,152.9647,31.3,2.008112210924243,5.0545983,2.5170895849116985,2018-03-21 10:00:00,29.99966165,88597.0,16.333333333333332,0.0259339310720981
200001,MIDDLE PERCY ISLAND                     ,-21.6628,150.2711,208.7,5.827829698852765,8.471742,1.4536700820201158,2004-07-19 15:00:00,29.99990861666667,270131.0,15.0,0.0322676570240505
200283,WILLIS ISLAND                           ,-16.2878,149.9652,9.3,7.930235062440412,8.290417,1.045418786738718,1996-02-25 14:00:00,29.591969233333334,394474.0,3.5,0.0068813414944809
200601,CATO ISLAND                             ,-23.2503,155.542,6.3,7.687233249053204,7.3083787,0.9507163968703284,2011-08-19 08:30:00,29.99985305,123788.0,2.2,0.0065918051957029
200701,FREDERICK REEF                          ,-20.9375,154.4019,4.9,7.618547872128313,7.7917237,1.022730822061927,2008-10-16 14:30:00,29.99988185,150288.0,2.0,0.0155844142315454
200704,MARION REEF                             ,-19.0964,152.3892,2.0,7.762682330750516,,,2009-03-06 14:00:00,29.182688700000003,254077.0,,
200732,HOLMES REEF                             ,-16.4683,147.8734,1.9,7.731019155617426,7.975161,1.0315795259409255,2004-03-04 08:00:00,29.7681779,156232.0,1.0,0.0094763381125335
200736,CREAL REEF                              ,-20.5303,150.3773,1.7,7.647794214970368,7.5786285,0.9909561276118132,2008-04-10 15:00:00,29.999885916666663,160340.0,2.2,0.0049797045905182
200783,FLINDERS REEF                           ,-17.7195,148.4478,2.6,7.618814664194043,7.5321856,0.988629581699004,2006-03-18 00:00:00,29.999899733333333,166696.0,1.625,0.0067482248163052
200831,GANNET CAY                              ,-21.9769,152.4707,2.3,7.520868229609844,7.768302,1.032899623639483,2004-03-04 09:00:00,29.919151666666668,161390.0,1.5,0.0088597308601275
200840,BOUGAINVILLE REEF                       ,-15.4877,147.1183,0.0,7.952359016358111,8.515772,1.070848517820645,2009-02-01 11:00:00,29.45528823333333,163172.0,3.0,0.0151424319669286
200869,WILLIS ISLAND COMPARISON                ,-16.2878,149.965,8.1,4.111111111111112,8.290417,2.0165878502098287,2005-10-25 15:00:00,0.0,1.0,0.0,0.0
200879,ARLINGTON REEF                          ,-16.7226,146.1124,0.0,7.161362860950549,7.972325,1.1132412926101694,2010-05-04 11:00:00,29.999867716666664,225680.0,1.6666666666666667,0.0108980322481628
200880,LIHOU REEF LIGHTHOUSE                   ,-17.133,152.145,10.3,6.855449254416246,,,2013-09-30 09:30:00,29.9998204,167053.0,,
200892,TORRES STRAIT NTC AWS                   ,-10.5865,142.2219,3.0,5.482036192430343,7.4860168,1.3655540546544491,2016-12-01 16:30:00,29.999730816666663,87473.0,4.285714285714286,0.0187290779522296
200897,HOPE BANKS BEACON                       ,-27.4344,153.2904,7.0,4.971086012752363,7.476102,1.5039172237468186,2021-04-16 14:00:00,29.999138016666667,34383.0,3.0,0.0128817241010539
16001,WOOMERA AERODROME                       ,-31.1558,136.8054,166.6,5.0940059632485,7.554833,1.4830828604910893,1992-04-07 16:00:00,29.996744550000003,446543.0,22.0,0.0167045908566927
16090,COOBER PEDY AIRPORT                     ,-29.0347,134.7222,225.0,5.61801137170471,7.636268,1.359247540392282,1994-10-07 09:30:00,29.999939966666663,376534.0,13.4,0.0078461911073349
16092,PORT AUGUSTA ARID LANDS                 ,-32.4783,137.7386,18.5,4.778651078570388,6.2530103,1.308530413743961,1994-10-31 13:00:00,29.8509583,33740.0,3.0,0.0066654636434864
16096,ROXBY DOWNS (OLYMPIC DAM AERODROME)     ,-30.4869,136.8739,99.2,4.259790945926354,7.5228577,1.7660156945518062,1998-09-06 09:30:00,29.999930416666665,312472.0,32.84615384615385,0.0300115326640154
16097,ERNABELLA (PUKATJA)                     ,-26.2635,132.1771,703.2,4.211716223944411,6.9297357,1.6453472390082002,1997-08-11 10:30:00,29.999933316666667,298261.0,22.1875,0.021822719657131
16098,TARCOOLA AERO                           ,-30.7051,134.5786,123.0,4.366128566424188,7.225655,1.6549341067172634,1997-09-29 09:30:00,29.999932966666663,306018.0,27.45,0.0209367424324324
17043,OODNADATTA AIRPORT                      ,-27.5553,135.4456,116.5,4.924146117302969,6.5099835,1.3220532828434666,1995-03-05 10:30:00,29.999817316666668,338201.0,12.22222222222222,0.0089691782013525
17110,LEIGH CREEK AIRPORT                     ,-30.5963,138.4219,258.8,4.408046581810198,7.4333596,1.6863160325095194,1992-07-29 09:30:00,29.99994425,336634.0,20.43636363636364,0.0416715384553558
17123,MOOMBA AIRPORT                          ,-28.0997,140.1956,37.8,4.695639201885595,7.9937577,1.702379033199988,1995-10-19 11:30:00,29.557921216666667,348485.0,23.681818181818183,0.0187056044441831
17126,MARREE AERO                             ,-29.6587,138.0684,50.0,4.995474646352314,6.9300995,1.387275479891592,1998-10-10 09:30:00,29.99993015,296174.0,10.25,0.0066950019533406
18012,CEDUNA AMO                              ,-32.1297,133.6976,15.3,5.349614267277117,7.64024,1.4281852505044466,1992-04-14 09:30:00,29.97859156666667,460343.0,21.45833333333333,0.0184540124129035
18083,WUDINNA AERO                            ,-33.043,135.4519,86.4,4.557625698890402,7.041612,1.5450176503084183,1999-07-13 17:30:00,29.99992793333333,303511.0,21.26086956521739,0.019616784420575
18106,NULLARBOR                               ,-31.4492,130.8976,64.0,5.706436977451866,8.068025,1.4138462699569865,1992-04-06 10:00:00,29.99922753333333,366849.0,12.333333333333334,0.0186445318446105
18115,NEPTUNE ISLAND                          ,-35.3365,136.1174,32.0,8.128864289149435,8.759283,1.077553118642657,1995-08-15 13:00:00,29.999938116666662,362358.0,16.928571428571427,0.0127839753961499
18116,CLEVE AERODROME                         ,-33.7081,136.5026,175.0,5.400392043780326,7.49255,1.3874085132151588,1996-07-16 17:30:00,29.971289416666664,323614.0,18.375,0.0150544345089681
18120,WHYALLA AERO                            ,-33.0539,137.5206,9.3,4.7598707611851045,6.8054705,1.4297595056802246,1992-04-06 10:30:00,29.999944816666662,472131.0,20.0,0.0170145779468765
18191,COULTA (COLES POINT)                    ,-34.3749,135.3741,28.0,5.201333205232566,7.9129443,1.52133001379407,1992-04-06 10:30:00,29.9999319,349439.0,24.0,0.0194112492448522
18192,NORTH SHIELDS (PORT LINCOLN AWS)        ,-34.5993,135.8784,8.5,5.157390231528985,6.7399406,1.3068510119918522,1992-04-06 10:30:00,29.999944816666662,463102.0,23.8,0.0104880623245119
18195,MINNIPA PIRSA                           ,-32.8427,135.1515,165.0,5.044643283134899,7.5427666,1.4952031586181076,1996-07-19 04:30:00,29.96374408333333,328996.0,12.77777777777778,0.0114852165634848
18200,THEVENARD WIND                          ,-32.1803,133.6343,8.5,6.268353097237214,8.405201,1.3408946222184832,2002-07-12 12:00:00,29.999893633333333,269258.0,16.333333333333332,0.0183902992125244
18201,PORT AUGUSTA AERO                       ,-32.5073,137.7169,14.0,5.138755305240369,6.0209565,1.17167604967021,2001-07-02 17:30:00,29.9999214,301610.0,4.571428571428571,0.0051877847808681
18207,CEDUNA (THEVENARD NTC AWS)              ,-32.149,133.6416,5.0,4.769863170912467,8.236557,1.7267910444609875,2021-06-04 14:00:00,29.99907555,32425.0,8.782608695652174,0.0448298476837387
18217,CUMMINS AERO                            ,-34.2524,135.7135,60.1,4.4271733966750935,6.980287,1.576691592943949,2007-05-25 08:30:00,29.99989223333333,235504.0,25.33333333333333,0.0232310431725728
18229,CULTANA (DEFENCE)                       ,-32.6845,137.3689,171.0,5.6668232530858536,7.730015,1.3640825654507631,2017-12-06 14:30:00,29.99903948333333,93646.0,11.375,0.0124654726243553
18230,COFFIN BAY (POINT AVOID)                ,-34.675,135.3362,35.0,5.498285359986942,8.706226,1.5834438882047457,2017-06-13 08:30:00,29.99970633333333,100264.0,15.464285714285714,0.0287909520540429
20062,YUNTA AIRSTRIP                          ,-32.5707,139.5645,300.0,4.052070487302311,6.627433,1.635567012950311,1998-07-05 09:30:00,29.9999309,310408.0,22.384615384615383,0.0214862395434175
21131,CLARE HIGH SCHOOL                       ,-33.8226,138.5933,395.0,2.932715794487525,7.7164545,2.631163415297395,1993-10-02 21:30:00,29.996464666666668,341775.0,78.29629629629629,0.1135346688984673
21133,SNOWTOWN (RAYVILLE PARK)                ,-33.7676,138.2182,109.1,4.752774261634482,5.9311748,1.247939504085915,1998-10-10 09:30:00,29.99993015,349456.0,11.923076923076923,0.0043138220310825
21139,PORT PIRIE AERODROME AWS                ,-33.2371,137.9971,12.0,5.108006106061612,5.8863773,1.1523825955512137,2015-01-22 11:00:00,29.99937525,142139.0,3.5,0.002517378566729
22031,MINLATON AERO                           ,-34.748,137.5276,32.0,6.124626901700878,7.4820786,1.2216382601474445,2001-03-29 14:30:00,29.99992233333333,333438.0,12.0625,0.0074339183121654
22046,EDITHBURGH                              ,-35.1121,137.7395,6.0,5.440818842782931,7.637971,1.4038274651450602,1993-01-20 10:30:00,29.999830133333333,444059.0,33.55555555555556,0.014306534624434
22049,STENHOUSE BAY                           ,-35.2795,136.9392,42.0,5.804872483565837,7.8783484,1.3571957649077184,1996-06-25 19:30:00,29.870462966666665,339098.0,18.476190476190474,0.0175740452802997
22050,KADINA AWS                              ,-33.9703,137.6628,41.1,5.387361062747952,6.9595814,1.2918349622499907,2005-07-19 18:30:00,29.99990346666667,295783.0,10.6,0.005123561823995
22053,MOONTA (WARBURTO POINT)                 ,-34.0041,137.528,1.0,6.162889868951399,7.919856,1.285088041467746,2003-07-14 16:00:00,29.999913316666667,337498.0,15.947368421052632,0.008584104549594
22803,CAPE WILLOUGHBY                         ,-35.8426,138.1327,55.0,6.960013883673882,7.846968,1.1274357070446888,1995-06-26 14:30:00,29.9963678,334711.0,15.73913043478261,0.012801313191841
22823,CAPE BORDA                              ,-35.7549,136.5959,158.0,6.003549700306341,8.361429,1.3927475630044144,2002-09-09 16:30:00,29.99991686666667,332742.0,30.11764705882353,0.0214339468900894
22841,KINGSCOTE AERO                          ,-35.7114,137.5231,6.2,4.202868747218849,6.6237054,1.5759962505368652,1994-05-24 00:30:00,29.78361411666667,457500.0,43.22727272727273,0.0236861006388133
22843,PARNDANA CFS AWS                        ,-35.7916,137.2496,165.0,4.449554465223351,7.8238273,1.7583394759727675,2011-09-09 14:30:00,29.999852316666665,202175.0,38.0,0.0286102115550409
23000,ADELAIDE (WEST TERRACE / NGAYIRDAPIRA)  ,-34.9257,138.5832,29.3,3.0934348788469164,4.7036448,1.5205248976360328,2017-05-08 12:30:00,29.9997112,103759.0,4.0,0.0070814103967355
23013,PARAFIELD AIRPORT                       ,-34.7977,138.6281,9.5,4.17881294204155,5.23368,1.252432172488304,1992-04-06 10:30:00,29.98665313333333,444372.0,8.777777777777779,0.0048015274799897
23034,ADELAIDE AIRPORT                        ,-34.9524,138.5196,2.0,4.586388576682441,5.6294746,1.2274308087442194,1985-01-30 00:00:00,29.938614366666663,426246.0,11.0,0.0048764085957445
23046,ADELAIDE AIRPORT OLD SITE               ,-34.9566,138.5356,6.0,,5.2303467,,,,,,
23052,OUTER HARBOUR (BLACK POLE)              ,-34.7343,138.4653,6.3,5.499873188672867,7.1756344,1.3046908788612948,2001-12-28 16:00:00,29.99991921666667,350540.0,11.95,0.0078869979000333
23083,EDINBURGH RAAF                          ,-34.7111,138.6222,16.5,4.45023671166396,5.537941,1.2444149239273274,1992-04-06 10:30:00,29.98665313333333,436675.0,9.846153846153848,0.0034458314407803
23090,ADELAIDE (KENT TOWN)                    ,-34.9211,138.6216,48.0,2.918203481807341,4.9347153,1.6910113711261352,1993-10-07 12:30:00,29.9995533,405843.0,27.11764705882353,0.013529342120633
23109,ADELAIDE AIRPORT (ANEMOMETER SOUTH WEST),-34.9573,138.5152,3.0,3.578639495706974,5.7327433,1.601933715346788,2011-10-11 13:30:00,29.99955358333333,201086.0,13.8,0.0125553905090654
23122,ROSEWORTHY AWS                          ,-34.5106,138.6763,65.0,4.641152654176701,6.5599585,1.4134330298408284,1997-08-11 10:30:00,29.999933316666667,361493.0,15.352941176470589,0.0070576309637114
23123,ADELAIDE AIRPORT (ANEMOMETER NORTHEAST) ,-34.9382,138.5435,5.0,3.494359620658701,4.97509,1.4237487170589624,2011-10-20 12:30:00,29.999552616666666,199951.0,9.25,0.0055589038199537
23124,ADELAIDE AIRPORT (ANEMOMETER NORTHWEST) ,-34.9435,138.5232,2.0,4.023032051903127,5.444234,1.3532663483932987,2009-08-23 19:30:00,29.999874466666665,202491.0,8.444444444444445,0.0058020748348138
23373,NURIOOTPA PIRSA                         ,-34.4761,139.0056,275.0,3.937600743689197,7.282921,1.849583365981099,1996-09-03 09:30:00,29.999935666666666,337072.0,33.17948717948718,0.0396716406078793
23842,MOUNT LOFTY                             ,-34.9784,138.7088,685.0,4.59832656865716,9.25294,2.0122407662358786,1993-03-01 10:30:00,29.99982951666667,498911.0,201.0727272727273,0.1077306233818198
23849,GOOLWA (HINDMARSH ISLAND MARINA)        ,-35.5147,138.7989,3.0,6.104465709728856,6.9932194,1.1455907376897974,2003-01-28 10:00:00,29.897610916666668,208.0,0.0,0.003174338499458
23875,PARAWA (SECOND VALLEY FOREST AWS)       ,-35.5695,138.2864,341.0,4.546792593032103,7.6294303,1.6779807167208074,1994-03-08 10:30:00,29.99982355,392059.0,35.878787878787875,0.0337523443040383
23878,MOUNT CRAWFORD AWS                      ,-34.7253,138.9278,525.0,5.832187320990865,8.107694,1.3901634542840289,1994-10-07 10:00:00,29.999939966666663,385258.0,38.75862068965517,0.0181195109113656
23885,NOARLUNGA                               ,-35.1586,138.5057,55.0,4.334770373217394,6.789034,1.56618074436351,2000-09-04 13:30:00,29.999924266666667,357135.0,26.869565217391305,0.0219812252985782
23886,SELLICKS HILL (MOUNT TERRIBLE RADAR)    ,-35.3294,138.5019,385.7,5.135242993137474,9.093616,1.7708247777317874,1998-03-16 10:30:00,29.999795233333334,236379.0,36.83098591549296,0.0697987811975925
23887,KUITPO FOREST RESERVE                   ,-35.1712,138.6783,365.0,4.601645681271333,7.7959957,1.6941755737539557,1998-10-10 09:30:00,29.99993015,363211.0,40.86842105263158,0.0285571998137106
23894,HINDMARSH ISLAND AWS                    ,-35.5194,138.8177,11.0,5.902880705751609,7.1058564,1.2037946848029408,2003-02-03 12:30:00,29.99974565,291002.0,10.1875,0.006765367253472
24024,LOXTON RESEARCH CENTRE                  ,-34.439,140.5978,30.1,3.3549960392678453,6.1853004,1.8436088382205709,1996-12-22 10:30:00,29.9998048,330393.0,29.727272727272727,0.0229613083951207
24048,RENMARK AERO                            ,-34.1983,140.6766,31.5,3.9714055457873534,6.4385605,1.6212296658218428,1995-06-26 12:30:00,29.999938416666662,356538.0,25.58823529411765,0.0178537724826383
24580,STRATHALBYN RACECOURSE                  ,-35.2836,138.8934,58.0,4.400185969231001,6.433199,1.462028871919999,1996-05-14 09:30:00,29.999936400000003,346729.0,19.09523809523809,0.0090346196996056
24584,MURRAY BRIDGE (PALLAMANA AERODROME)     ,-35.065,139.2273,45.0,4.555422733506214,6.1888323,1.358563770053587,2006-03-02 11:30:00,29.99969995,292023.0,15.142857142857142,0.008013896491422
25557,KEITH (MUNKORA)                         ,-36.1058,140.3273,27.0,3.931146179846337,7.2506366,1.8444077747039207,2001-07-04 10:30:00,29.999921383333334,292580.0,42.60869565217392,0.0261571024838007
25562,LAMEROO (AUSTIN PLAINS)                 ,-35.3778,140.5378,110.1,4.899744127261941,7.3393073,1.4978960365218803,2004-06-28 17:30:00,29.9999089,268298.0,23.352941176470587,0.0092760159571956
26021,MOUNT GAMBIER AERO                      ,-37.7473,140.7739,63.0,4.467340417642391,7.405189,1.6576281064407976,1992-04-06 10:00:00,29.998565466666665,463261.0,70.92307692307692,0.0308580448114298
26091,COONAWARRA                              ,-37.2906,140.8254,57.0,4.02631499612805,7.557906,1.877127387719544,1997-08-13 09:30:00,29.9999333,375085.0,64.76,0.0328744819950036
26095,CAPE JAFFA (THE LIMESTONE)              ,-36.9655,139.7164,17.0,6.000326444439729,8.554711,1.4257076545868983,1992-04-06 10:30:00,29.999944816666662,453871.0,42.69230769230769,0.0265091977901625
26099,NARACOORTE AERODROME                    ,-36.9813,140.727,49.7,4.666166631601968,7.5468345,1.617352114630893,1998-06-17 09:30:00,29.999931033333333,359773.0,40.89473684210526,0.0244283601717718
26100,PADTHAWAY SOUTH                         ,-36.6539,140.5212,37.0,3.7001003600346056,7.533033,2.0358996138321146,2000-06-19 17:30:00,29.999924966666665,283750.0,47.77777777777778,0.0500174198691321
26105,ROBE AIRFIELD                           ,-37.1776,139.8054,3.0,4.4508787791151,8.015584,1.800899190877989,2003-07-03 09:30:00,29.99991345,275566.0,40.891891891891895,0.0582440398988671
91104,LAUNCESTON AIRPORT COMPARISON           ,-41.5397,147.2033,166.0,3.9648534080691182,6.223383,1.5696375904247837,1990-10-05 17:00:00,29.98554825,155259.0,25.5,0.0125381210155107
91107,WYNYARD AIRPORT                         ,-40.9964,145.7311,12.0,4.430045509551242,6.9946613,1.5789141028226836,1990-10-02 11:00:00,29.999894766666667,386099.0,59.77272727272727,0.0174587282468838
91126,DEVONPORT AIRPORT                       ,-41.1701,146.4289,8.0,5.233931590064457,6.906388,1.3195410920251762,1990-10-20 11:00:00,29.95438473333333,392616.0,24.666666666666668,0.0071468853112224
91219,SCOTTSDALE (WEST MINSTONE ROAD)         ,-41.1708,147.4883,197.5,3.5448662607117667,5.9942064,1.690954182097766,2003-01-22 13:30:00,29.992384183333336,316994.0,38.91666666666666,0.0102055268661876
91237,LAUNCESTON (TI TREE BEND)               ,-41.4194,147.1219,5.0,2.907445966587426,5.517305,1.897646580783824,1999-10-15 13:00:00,29.99978143333333,360789.0,38.44827586206897,0.0208988063932713
91245,CAPE GRIM BAPS (COMPARISON)             ,-40.6828,144.69,94.0,9.911616333272644,9.765862,0.9852946418155258,1997-05-19 11:00:00,29.999933816666665,367560.0,29.08333333333333,0.0428786279897933
91259,LUNCHEON HILL (FORESTRY)                ,-41.1492,145.1517,344.0,5.750086774740547,7.2476306,1.2604384733807628,1997-11-05 12:00:00,29.999798116666668,340725.0,23.13043478260869,0.0134579306138159
91291,SHEFFIELD SCHOOL FARM                   ,-41.389,146.3173,277.3,3.458793489962906,6.3933864,1.8484440839084963,2003-04-15 13:00:00,28.53402558333333,288331.0,57.72727272727273,0.0228678360708439
91292,SMITHTON AERODROME                      ,-40.8347,145.0847,7.5,5.296839473858947,7.9246025,1.4961001834498773,1998-07-24 05:00:00,29.99993076666667,354933.0,42.72727272727273,0.0340570842404759
91293,LOW HEAD                                ,-41.0547,146.7874,3.0,7.059705383867789,8.850545,1.2536705780568227,2000-06-06 16:00:00,29.99992508333333,290739.0,22.764705882352946,0.0203326432427907
91306,CRESSY RESEARCH STATION                 ,-41.7256,147.0794,148.0,4.204646348778517,6.325494,1.5044056712162348,2000-06-30 12:00:00,28.713203866666667,326787.0,33.35,0.0187072729168207
91311,LAUNCESTON AIRPORT                      ,-41.5476,147.2156,166.9,4.740678231302011,6.3953533,1.3490376282096412,2004-07-14 16:00:00,29.99990868333333,326283.0,16.3125,0.0090517342066087
91331,CAPE GRIM                               ,-40.6764,144.6922,86.0,8.588323580555915,10.401933,1.21117149567114,2010-12-17 12:00:00,29.999583166666664,207856.0,31.705882352941178,0.0682484846694074
91344,BURNIE NTC AWS                          ,-41.05,145.9149,0.0,4.397004221253152,7.120767,1.61945878562682,2013-05-16 10:00:00,29.999827216666667,168524.0,17.857142857142858,0.0212138044759635
91375,CRESSY (BRUMBYS CREEK)                  ,-41.7114,147.082,152.0,3.702076248433822,6.2882853,1.6985833984625285,2022-12-16 06:30:00,29.98389693333333,5587.0,1.8333333333333333,0.0203129854090253
92012,FINGAL (LEGGE STREET)                   ,-41.6428,147.9664,237.0,2.5991882854955763,4.9386673,1.9000806232172005,2001-04-10 11:00:00,30.00008305,292592.0,54.8125,0.017717196224147
92037,SWAN ISLAND LIGHTHOUSE                  ,-40.7314,148.1253,11.0,5.631944444444448,9.959597,1.768411732778301,2001-02-15 15:30:00,29.166666666666668,36.0,0.0,0.0215230869866149
92045,LARAPUNA (EDDYSTONE POINT)              ,-40.9928,148.3467,19.7,6.816842310115612,8.358269,1.2261202999209784,1994-06-27 17:30:00,29.99994055,340619.0,23.48837209302325,0.0201317784204323
92100,STORYS CREEK (STORYS CREEK ROAD)        ,-41.635,147.7292,779.2,1.9338128357810749,7.4738994,3.864851461414929,1992-05-27 10:00:00,30.00030355,71890.0,34.595238095238095,0.320014463506151
92114,FRIENDLY BEACHES                        ,-41.9953,148.2794,55.0,3.955991935745722,6.8681216,1.7361313510105143,1997-11-02 17:00:00,29.999798183333333,367314.0,55.70967741935484,0.0279812550956722
92120,ST HELENS AERODROME                     ,-41.3381,148.2792,48.0,3.4751338728041152,6.887335,1.9818905042788888,2001-01-10 12:30:00,29.99976925,333742.0,54.73170731707317,0.0325090267063685
92123,SWAN ISLAND                             ,-40.7292,148.125,15.0,6.636718630635044,9.807541,1.4777695785207996,2003-12-09 10:30:00,28.86042545,318158.0,42.22077922077922,0.0683128388018839
92124,MARIA ISLAND (POINT LESUEUR)            ,-42.6621,148.0179,28.0,6.527624098605082,7.994164,1.2246667193549123,2004-10-08 17:00:00,29.99972258333333,310052.0,33.1,0.0183633355706268
92133,SPRING BAY NTC AWS                      ,-42.5464,147.9308,0.0,4.732882706549405,6.9264793,1.4634800330070905,2013-05-16 10:00:00,4.592750016666667,24694.0,7.111111111111111,0.0269446232768715
92163,FINGAL (FLEMING ST)                     ,-41.643,147.98,255.0,2.364304642174627,4.9750752,2.1042445868260096,2022-07-22 16:00:00,29.997623566666668,12619.0,4.8125,0.0241157522166534
94008,HOBART AIRPORT WEST                     ,-42.8339,147.5033,4.0,4.3695287723563,7.273921,1.6646923253822412,1984-12-02 01:00:00,29.994277333333333,442901.0,107.51851851851852,0.0282454204661847
94029,HOBART (ELLERSLIE ROAD)                 ,-42.8897,147.3278,50.5,4.309633178999203,5.7155623,1.3262294274717596,1994-10-20 11:00:00,29.9998197,481920.0,39.95454545454545,0.0072173282779403
94041,MAATSUYKER ISLAND LIGHTHOUSE            ,-43.6578,146.2711,146.5,9.713199107029338,11.00239,1.13272566397559,1997-11-17 01:00:00,29.999797866666665,334241.0,36.70873786407767,0.0951884520518278
94087,KUNANYI (MOUNT WELLINGTON PINNACLE)     ,-42.895,147.2358,1260.5,9.05504591216873,14.577116,1.609833473398916,1990-07-05 10:30:00,29.999947766666665,528412.0,150.87218045112783,0.2679623154378868
94155,TASMAN ISLAND                           ,-43.2397,148.0025,240.0,6.135079054234877,13.24206,2.158417127241574,2001-12-14 15:30:00,29.999598733333336,344419.0,118.24137931034484,0.3364018348570766
94191,HARTZ MOUNTAIN (KEOGHS PIMPLE)          ,-43.2006,146.7683,831.0,7.194744819498044,9.149965,1.2717567496567932,1999-06-16 10:30:00,29.99992815,396113.0,144.2340425531915,0.0832902066504447
94195,TUNNACK FIRE STATION                    ,-42.4543,147.4612,461.5,4.567524414927449,8.39643,1.8382890276673725,1998-02-13 12:00:00,29.999591866666663,333787.0,98.48717948717947,0.0677464892783813
94198,CAPE BRUNY (CAPE BRUNY)                 ,-43.4886,147.1444,59.7,6.483686129721597,9.06314,1.397837547058354,1997-11-17 17:30:00,29.99979785,365268.0,61.72222222222222,0.0435287463470932
94212,CAMPANIA (KINCORA)                      ,-42.6867,147.4258,45.0,4.111007489233592,6.586143,1.6020751686937522,2001-05-23 14:00:00,29.887280116666663,296440.0,51.142857142857146,0.0190771233041623
94220,GROVE (RESEARCH STATION)                ,-42.9844,147.0756,65.0,2.605046545468096,5.5539703,2.1320042617188943,2005-03-07 08:00:00,29.055914266666665,295092.0,94.57142857142856,0.0328976625843115
94250,HOBART AIRPORT                          ,-42.8333,147.5119,2.2,4.454453074973911,7.2654095,1.6310441141300036,2022-08-04 13:30:00,3.5156295666666666,11972.0,4.0,0.0218553631971208
94254,DUNALLEY (STROUD POINT)                 ,-42.9017,147.7894,12.4,5.427711631302596,8.562824,1.577612229781004,2012-04-05 20:00:00,29.99984463333333,192827.0,37.53333333333333,0.0474635660254657
94255,DENNES POINT                            ,-43.0639,147.3567,5.7,4.2067458683859416,7.348834,1.7469165639426627,2012-09-28 10:30:00,29.99983753333333,184574.0,45.16666666666666,0.0258767814967667
95003,BUSHY PARK (BUSHY PARK ESTATES)         ,-42.7097,146.8983,27.0,3.050263655191773,4.6503453,1.5245715948372989,1998-07-22 13:30:00,29.95341765,328315.0,33.75,0.0055867636187737
95048,OUSE FIRE STATION                       ,-42.4842,146.7106,90.0,2.9478425554366465,4.970779,1.686243023034133,1999-12-10 11:00:00,29.99978,324163.0,38.40909090909091,0.0129971580790709
96003,BUTLERS GORGE                           ,-42.2753,146.2758,667.0,2.300263195175183,6.9902415,3.0388876986857203,2008-05-21 12:00:00,29.999885066666664,259644.0,131.44444444444446,0.1197435494439947
96033,LIAWENEE                                ,-41.8997,146.6694,1057.0,5.019285543767576,7.8315535,1.5602924740737023,2001-01-11 15:00:00,29.99961538333333,331512.0,54.1025641025641,0.0506512782131868
96075,BARREN TIER                             ,-42.0197,146.7533,1186.0,5.905677055157387,9.670485,1.6374895634365094,1997-01-31 12:30:00,29.99958581666667,60624.0,78.85714285714286,0.0814703988031059
97000,CAPE SORELL                             ,-42.1986,145.17,19.3,6.8170540557184784,9.040999,1.326232612891281,2011-06-02 13:00:00,29.999855683333333,196417.0,33.214285714285715,0.0416909550404311
97024,WARRA                                   ,-43.0609,146.704,495.0,3.607909723161911,7.7259054,2.141379915577584,2004-09-28 15:00:00,29.999723,318298.0,102.88888888888889,0.0894709654889439
97072,STRAHAN AERODROME                       ,-42.155,145.2908,21.0,4.781366575031346,7.043267,1.4730656314879396,1993-05-30 03:30:00,29.989690483333334,368950.0,42.43243243243244,0.0225465231640735
97080,LOW ROCKY POINT                         ,-42.9831,145.5025,34.0,7.7604098984802,9.783088,1.260640592235165,2012-03-28 17:30:00,29.99953485,192894.0,25.5,0.0493964250773708
97083,SCOTTS PEAK DAM                         ,-43.0425,146.2722,408.0,6.433142661984195,6.941533,1.0790267608558028,1998-10-15 14:00:00,26.184982016666662,310949.0,50.3,0.0151994601609842
97085,MOUNT READ                              ,-41.8444,145.5417,1119.5,7.758823830643259,10.757934,1.3865418072968771,1998-01-12 11:00:00,29.999796633333336,256006.0,63.68181818181818,0.1143949829170811
98017,KING ISLAND AIRPORT                     ,-39.8804,143.8857,35.4,6.213606138609599,8.519295,1.3710709286565546,1990-11-21 15:00:00,29.87315065,354193.0,39.85714285714285,0.044837555536883
99005,FLINDERS ISLAND AIRPORT                 ,-40.0911,148.0024,9.0,6.562911716451893,8.648583,1.317796701499147,1993-06-07 16:00:00,29.968839666666668,355979.0,31.79245283018868,0.0398083933885591
200838,HOGAN ISLAND                            ,-39.2225,146.9841,116.0,10.249340960016852,10.713673,1.0453035643690634,2003-05-09 10:00:00,29.9999141,335418.0,33.166666666666664,0.0573075273221296
300000,DAVIS                                   ,-68.5744,77.9672,18.0,6.172717920603,,,2000-05-01 09:30:00,24.114696566666662,500416.0,,
300001,MAWSON                                  ,-67.6017,62.8753,9.9,12.049704269207725,,,2000-09-22 05:30:00,24.97859175,474817.0,,
300004,MACQUARIE ISLAND                        ,-54.4994,158.9369,6.0,10.139079822540983,13.210157,1.302895097545306,1997-11-13 00:00:00,29.999797966666662,389105.0,100.88888888888889,0.1484367057152648
300017,CASEY                                   ,-66.2825,110.5231,40.0,7.121766412810726,,,1998-04-16 15:00:00,29.69494765,442547.0,,
300050,WILKINS RUNWAY EAST                     ,-66.6831,111.5317,753.0,8.65696045413189,,,2007-11-09 20:00:00,29.988209066666663,269699.0,,
300055,DAVIS (WHOOP WHOOP)                     ,-68.4723,78.8735,577.0,10.634593079551564,,,2007-02-15 13:30:00,29.99989403333333,283151.0,,
300060,CASEY SKIWAY SOUTH                      ,-66.2803,110.7615,390.0,7.079892274871054,,,2010-01-05 15:30:00,29.99986953333333,229954.0,,
76031,MILDURA AIRPORT                         ,-34.2358,142.0867,50.0,3.607125896766672,7.036588,1.9507464927391327,1989-01-16 12:00:00,29.9638527,447823.0,77.12,0.0241245636562548
76064,WALPEUP RESEARCH                        ,-35.1201,142.004,105.0,4.237899003181599,7.2197957,1.7036261832732882,1998-11-19 12:00:00,29.99978953333333,400068.0,51.35,0.0149473080686276
77010,HOPETOUN AIRPORT                        ,-35.7151,142.3569,77.3,4.453805123105624,7.087376,1.591308088658422,2004-06-18 18:00:00,29.99990903333333,327483.0,45.6,0.0160171616891399
77094,SWAN HILL AERODROME                     ,-35.3766,143.5416,71.0,4.2088486958062346,6.9382935,1.6485015163278924,1997-05-01 10:00:00,29.99993403333333,413591.0,42.42307692307692,0.0160984923046485
78015,NHILL AERODROME                         ,-36.3093,141.6486,138.9,4.572485952856238,7.3155065,1.599896978078803,2003-06-12 11:30:00,29.9999137,344025.0,43.90476190476191,0.0183899046474778
78018,KELLALAC (WARRACKNABEAL AIRPORT)        ,-36.3204,142.4161,118.3,5.013349961377038,7.216289,1.439414582867936,2016-12-08 15:00:00,29.99919008333333,110452.0,12.090909090909092,0.0110367221071292
78031,NHILL                                   ,-36.3347,141.6367,133.0,4.067460317460321,7.247029,1.7817085508020898,2003-06-11 14:30:00,29.28571428333333,42.0,0.0,0.0031427333457056
78072,DONALD                                  ,-36.3611,143.0038,118.0,2.6348865662976007,6.998784,2.6561993805603907,1999-03-07 16:00:00,29.186405166666667,2648.0,4.888888888888889,0.0492667514852869
79028,LONGERENONG                             ,-36.6722,142.2991,133.0,4.294879330112661,7.2650747,1.6915666707983763,1997-05-01 10:00:00,29.99993403333333,446034.0,73.57142857142857,0.0197441977967913
79097,KANAGULK                                ,-37.1169,141.8031,188.8,3.7338954740446098,7.6156607,2.039601997527274,2004-05-22 10:00:00,29.99990938333333,326555.0,73.81818181818181,0.054224150673782
79099,EDENHOPE AIRPORT                        ,-37.0222,141.2657,155.0,3.5555700014131224,7.620792,2.143339017105572,2005-04-06 15:00:00,29.999905,312563.0,99.96296296296296,0.0457204962655631
79100,HORSHAM AERODROME                       ,-36.6699,142.1733,133.8,5.104634992719305,7.1194725,1.3947074597530575,1997-10-16 14:00:00,29.999597116666667,415621.0,25.8125,0.0076646841687054
79101,PYRENEES (BEN NEVIS)                    ,-37.2281,143.2005,875.0,5.212790615085749,10.447852,2.004272357395028,2007-12-19 10:30:00,29.9996647,264373.0,76.02631578947368,0.1477510687940357
79103,GRAMPIANS (MOUNT WILLIAM)               ,-37.295,142.6039,1150.0,7.206909354304937,12.2171545,1.6952002449664394,2005-12-13 15:30:00,29.9997037,293050.0,76.44791666666667,0.2035735663760307
79105,STAWELL AERODROME                       ,-37.072,142.7402,235.4,3.459596840272149,6.538388,1.8899276642034395,1996-02-11 12:00:00,29.999811,453236.0,77.26086956521739,0.0315932536597904
80091,KYABRAM                                 ,-36.335,145.0638,105.0,2.5793306817825368,7.160724,2.776194697962012,2002-09-04 15:00:00,29.999916916666667,282217.0,87.81395348837209,0.0886208477632338
80128,CHARLTON                                ,-36.2846,143.3341,131.7,3.2836715310529,6.930858,2.1107038477143383,2004-07-15 17:30:00,29.999908666666663,325080.0,70.0,0.0447463802077522
81049,TATURA INST SUSTAINABLE AG              ,-36.4379,145.2673,114.0,3.5591928340379835,6.986043,1.962816655947684,2006-05-03 17:30:00,29.998888816666668,220702.0,34.34615384615385,0.0338194906645398
81123,BENDIGO AIRPORT                         ,-36.7411,144.3274,209.2,3.6149676885883455,5.8997536,1.6320349388407698,1994-01-06 17:00:00,29.84344456666667,404348.0,28.857142857142858,0.015968258141943
81124,YARRAWONGA                              ,-36.0294,146.0305,128.9,3.57640474132182,6.577539,1.8391483746611816,2002-07-11 14:00:00,29.99991753333333,359235.0,47.458333333333336,0.0133442871003065
81125,SHEPPARTON AIRPORT                      ,-36.4288,145.3949,113.9,3.735647232323778,6.377541,1.7072118079117666,1996-09-11 17:00:00,29.7902451,412791.0,38.61904761904762,0.020631469828178
82039,RUTHERGLEN RESEARCH                     ,-36.1048,146.5094,175.0,2.447669493922313,5.584664,2.2816249832003224,1998-01-14 16:30:00,29.99979658333333,380445.0,62.2962962962963,0.0319908359891824
82138,WANGARATTA AERO                         ,-36.4205,146.3056,152.6,2.799958276939237,5.135456,1.8341187893767048,1996-01-26 14:00:00,29.73585665,404347.0,43.44444444444444,0.0099345376643531
82139,HUNTERS HILL                            ,-36.2137,147.5395,981.0,2.1347832757121137,5.3181443,2.491186989305808,1993-04-23 09:00:00,29.999942883333333,446638.0,74.76315789473684,0.0253210850226843
83024,MOUNT BULLER                            ,-37.145,146.4394,1707.0,5.48097396941728,9.939928,1.8135331622212305,1992-10-08 09:30:00,29.9999439,340117.0,79.97872340425532,0.1631599889895799
83084,FALLS CREEK                             ,-36.8708,147.2755,1765.0,5.7656293495984405,7.885991,1.3677589415361602,1991-09-03 08:00:00,29.9948572,421435.0,68.76363636363637,0.0484383880780723
83085,MOUNT HOTHAM                            ,-36.9772,147.1342,1849.0,6.306685323880748,9.82795,1.558338337686121,1991-09-02 22:30:00,29.995885766666667,387334.0,66.80898876404494,0.1324386162454156
83090,OMEO                                    ,-37.1017,147.6008,689.8,3.312458803097466,6.1649613,1.861143550609108,2004-08-12 14:00:00,29.999633216666663,321759.0,52.04761904761905,0.026270606659937
84016,GABO ISLAND LIGHTHOUSE                  ,-37.5679,149.9158,15.0,7.393911388014948,9.341113,1.2633520474232998,2007-08-16 15:00:00,29.99978135,272845.0,32.95744680851064,0.0365364509607097
84084,MALLACOOTA                              ,-37.5976,149.7289,22.0,3.8208190004308817,6.4778376,1.6954055038541516,1993-11-11 17:00:00,29.999825466666667,450883.0,44.77777777777778,0.0120269755968749
84142,GELANTIPY                               ,-37.22,148.2626,755.0,3.700254761283614,6.391124,1.7272118229638889,1992-05-29 09:00:00,29.99994455,450738.0,70.77272727272727,0.0174307433239863
84143,COMBIENBAR AWS                          ,-37.3416,149.0227,640.0,1.3509021142606397,8.180459,6.055552757054651,1994-07-07 09:00:00,29.9999405,425100.0,130.97979797979798,0.275696744090887
84144,MOUNT NOWA NOWA                         ,-37.6924,148.0908,350.0,3.0661446883312826,7.1298523,2.325347633481127,1995-10-19 10:00:00,29.99993771666667,434229.0,97.79166666666669,0.0438906142834971
84145,ORBOST                                  ,-37.6922,148.4667,62.7,2.433802139485458,5.837239,2.398403179084564,2000-11-23 15:00:00,29.9997706,378329.0,75.47222222222223,0.0254470200848407
85072,EAST SALE                               ,-38.1156,147.1323,4.6,4.191188619951764,6.2333097,1.4872415228738411,1993-11-22 07:00:00,24.26493943333333,350360.0,53.82608695652174,0.0096038618472718
85096,WILSONS PROMONTORY LIGHTHOUSE           ,-39.1297,146.4246,95.0,8.753303987114409,9.255765,1.0574024362535486,2000-09-18 12:00:00,29.99977245,360790.0,55.13559322033898,0.0550775661157687
85099,POUND CREEK                             ,-38.6297,145.8107,3.0,4.051072788356742,7.858503,1.939857236686516,2007-04-18 08:30:00,29.999892916666667,276707.0,64.77083333333333,0.0555563155136479
85151,YARRAM AIRPORT                          ,-38.5647,146.7479,17.9,4.476476598622113,7.0969987,1.5853983674891403,2007-10-18 11:30:00,29.99988945,270435.0,43.65625,0.0279714922816194
85279,BAIRNSDALE AIRPORT                      ,-37.8818,147.5669,49.4,4.055669842291072,6.3268437,1.559999700316295,1997-05-02 16:30:00,29.99597676666667,382407.0,39.375,0.0080457306789656
85280,MORWELL (LATROBE VALLEY AIRPORT)        ,-38.2094,146.4746,55.7,3.8240819138576367,6.304288,1.64857554112951,1997-05-01 10:00:00,29.99993403333333,405487.0,64.41666666666667,0.0221164106689445
85291,MOUNT BAW BAW                           ,-37.8384,146.2747,1561.0,3.664464909341774,10.00498,2.730270403674682,1994-01-24 10:00:00,29.98887398333333,401003.0,83.9430894308943,0.228456143815231
85296,MOUNT MOORNAPA                          ,-37.7481,147.1428,480.0,2.561809236547452,6.0984454,2.380522846312981,1994-01-05 23:00:00,29.999824550000003,434241.0,115.94117647058825,0.0392106315707744
85301,CORNER INLET (YANAKIE)                  ,-38.8051,146.1936,13.3,4.652328267362743,8.239087,1.7709599648409675,2013-01-18 10:00:00,29.999498016666667,176576.0,35.204081632653065,0.0630074287358732
85313,NILMA NORTH (WARRAGUL)                  ,-38.1321,145.9865,134.1,2.802998875567446,8.017864,2.8604593092003165,2014-01-13 10:00:00,29.99944448333333,161258.0,40.91549295774648,0.1117891034449694
85314,EAST SALE AIRPORT                       ,-38.1016,147.1398,5.3,4.280931664450717,6.18991,1.4459258918798417,2017-10-03 10:30:00,29.99907005,96611.0,12.61111111111111,0.0090296305684858
86038,ESSENDON AIRPORT                        ,-37.7276,144.9066,78.4,4.848733258884274,5.988158,1.2349943596177737,1999-05-31 11:00:00,29.665745666666663,351166.0,17.7,0.0052871827080166
86068,VIEWBANK                                ,-37.7408,145.0972,66.1,3.072426012360156,5.242183,1.7062032372387936,2000-07-24 13:00:00,29.99992465,385384.0,53.875,0.0120012406981824
86071,MELBOURNE REGIONAL OFFICE               ,-37.8075,144.97,31.2,1.6755933658130122,5.678762,3.389105062683597,1997-03-03 09:00:00,25.420005433333333,180930.0,65.2258064516129,0.0465933321942676
86077,MOORABBIN AIRPORT                       ,-37.98,145.0962,12.1,4.512631413834884,6.3177743,1.4000200141402577,1992-08-11 07:30:00,29.981485183333334,449261.0,34.0,0.0133302448858853
86104,SCORESBY RESEARCH INSTITUTE             ,-37.871,145.2561,80.0,2.6454003183407515,5.621734,2.1250977038626546,1996-09-11 11:00:00,29.9811489,442068.0,93.82142857142856,0.0360272439185526
86220,ST KILDA HARBOUR - RMYS                 ,-37.864,144.9639,6.4,5.472809899621837,6.8685527,1.2550322066290922,2006-03-08 11:30:00,29.999699666666668,295212.0,29.142857142857142,0.0116466152551367
86266,FERNY CREEK                             ,-37.8748,145.3497,512.9,1.686722429612223,7.7567773,4.598727775448402,2011-03-16 12:00:00,29.99957475,211092.0,70.01098901098901,0.2091768390176117
86282,MELBOURNE AIRPORT                       ,-37.6654,144.8322,113.4,4.968562126287974,6.9967537,1.4082049322897865,1970-07-01 11:00:00,29.9997082,430063.0,88.58823529411765,0.0233128552181763
