station no.,station name,latitude,longitude,mean-100m,highWindFrac,scaleFactor,mean-10m,startTime,meanRes,Observations
014015,DARWIN AIRPORT                          ,-12.4239,130.8925,4.5577235,1.7112994850299046e-05,0.8915657772441168,5.112044044887496,1985-01-02 01:30:00,44.14576428333333,455969
014031,CHARLES POINT                           ,-12.3895,130.6306,5.0594335,0.00010458037698823919,1.1366941712070135,4.451006777718558,2006-01-06 13:00:00,46.92356598333333,193461
014041,MIDDLE POINT                            ,-12.605,131.2988,4.4731894,0.00021702141047941215,1.2840167218063574,3.483746962150134,2001-08-07 15:30:00,38.47512883333333,296307
014046,NOONAMAH AWS                            ,-12.6365,131.0714,4.8307443,0.0011029337431897046,1.5951378876835534,3.028417984306785,2008-11-11 13:30:00,37.3826591,64172
014072,DARWIN NTC AWS                          ,-12.4719,130.8458,5.098608,4.1059399287335374e-05,1.0135061114213264,5.030663317676061,2012-08-16 10:00:00,31.395857149999998,178428
014142,PIRLANGIMPI AIRPORT                     ,-11.4021,130.4217,4.577474,0.000547519019783449,1.5725305291184726,2.9108968204547914,2006-01-11 22:30:00,34.69408753333333,261431
014198,JABIRU AIRPORT                          ,-12.6592,132.894,4.524206,9.332012056206818e-05,1.1308355057229857,4.000764159422575,1993-07-01 09:30:00,46.93368293333333,333700
014245,CAPE DON                                ,-11.3081,131.7651,5.2343674,0.0002466631945278186,1.089431014467333,4.804679966968596,2005-12-19 09:30:00,65.84504026666667,77091
014254,POINT STUART                            ,-12.2403,131.8785,5.1842422,0.00015266394662216687,1.063526150046648,4.8745790108760065,2003-03-09 16:30:00,59.4777014,177657
014272,BATCHELOR AIRPORT                       ,-13.0544,131.0252,5.300636,0.001139898408919815,1.5545865853673786,3.409675514094383,1993-07-07 12:30:00,45.89419641666667,341066
014274,MCCLUER ISLAND                          ,-11.0468,132.9791,6.837427,0.0005337750760922022,0.8654287101647553,7.9006243483424035,2001-01-08 10:30:00,58.11325156666667,201410
014277,DUM IN MIRRIE AIRSTRIP                  ,-12.635,130.3725,5.242257,0.00041053402472646106,1.3915527437812756,3.7671997282548393,2000-10-19 22:30:00,43.59254163333333,271159
014299,NGUKURR AIRPORT                         ,-14.7236,134.7456,5.0035133,0.0009996336082314095,1.3923852250470454,3.5934835031107024,2012-07-02 09:30:00,30.600703083333332,185183
014308,CROKER ISLAND AIRPORT                   ,-11.1629,132.4813,5.761167,0.00042614770776561173,1.161234980303516,4.961241391386731,2012-09-26 09:00:00,30.519830183333333,181617
014309,MURGANELLA AIRSTRIP                     ,-11.5485,132.9266,4.490924,0.0010171673714999274,1.5998059140331133,2.8071679458973464,2012-10-10 09:30:00,31.422532233333335,175757
014310,OENPELLI AIRPORT                        ,-12.3272,133.0069,4.7665987,0.0006487607573684162,1.49846704789812,3.1809833310402764,2012-09-26 09:00:00,30.972608700000002,178962
014314,NOONAMAH AIRSTRIP                       ,-12.6099,131.0474,4.6809344,0.0010645723973058407,1.7269317506438462,2.7105497524285624,2013-06-21 11:30:00,30.126714633333332,171172
014401,WARRUWI AIRPORT                         ,-11.65,133.3797,6.4756436,0.0014878594398939349,1.2342528857367179,5.246610082609506,2000-08-15 09:30:00,39.5446761,301302
014402,MILINGIMBI                              ,-12.1239,134.9078,6.1092567,9.022743324216265e-05,1.2019581911160704,5.082753118652201,2000-12-13 14:00:00,52.62901243333333,26044
014404,MILINGIMBI AIRPORT                      ,-12.0932,134.8919,6.0165496,0.0006389023002252303,1.2361080344658368,4.867333129057531,2003-07-23 11:30:00,39.72380113333334,261080
014405,MANINGRIDA AIRPORT                      ,-12.0569,134.2339,5.8682203,0.00039867013943339913,1.1661511166265777,5.032126836408781,2003-10-24 11:30:00,38.353639333333334,266916
014508,GOVE AIRPORT                            ,-12.2741,136.8201,5.5537825,0.0006661972322088427,1.0145061192619151,5.474370590405389,1990-08-01 13:00:00,39.11233383333333,439636
014517,NGAYAWILI                               ,-11.9971,135.5726,5.8002973,0.000285208457917685,0.9871427809114783,5.875844277490151,2000-07-27 16:30:00,53.66066935,222544
014518,GROOTE EYLANDT AIRPORT                  ,-13.9746,136.463,5.281167,0.001294501788679403,1.3323654930447828,3.963752482260485,2000-07-24 12:30:00,41.19412556666667,290003
014626,DALY WATERS AIRSTRIP                    ,-16.2637,133.3782,5.48355,0.0013045959423065856,1.5736667942610159,3.484568710297627,2000-09-13 08:30:00,54.60307385,217446
014627,BULMAN                                  ,-13.6715,134.3415,4.80145,0.0006783504312516397,1.3827060325840799,3.472502225742501,2003-07-30 19:30:00,47.60061748333333,217656
014703,CENTRE ISLAND                           ,-15.7426,136.8192,6.1856475,0.0001885641141841088,0.9697308541638066,6.378726077530275,2000-11-06 04:00:00,65.20904853333333,180891
014704,MCARTHUR RIVER MINE AIRPORT             ,-16.4423,136.076,4.563161,0.00016349054389497297,1.1219256872534407,4.067257705340747,2003-08-14 16:30:00,37.93191498333333,272571
014723,BORROLOOLA AIRPORT                      ,-16.0755,136.3041,5.0281744,0.0008810467389114285,1.223954143461302,4.108139530546527,2000-07-24 12:30:00,40.1391684,297625
014808,BRADSHAW - ANGALLARI VALLEY (DEFENCE)   ,-15.4397,130.5731,4.538152,0.00013244547491186864,1.3641002789257544,3.3268464848045047,2017-12-08 10:30:00,30.25663678333333,92816
014825,VICTORIA RIVER DOWNS                    ,-16.403,131.0145,4.3328457,0.00010502406532830744,1.2082430365423997,3.586071309184129,2000-07-24 12:30:00,46.43967251666666,257246
014829,LAJAMANU AIRPORT                        ,-18.3324,130.6361,5.987253,0.0005153343688015788,1.1635568064593582,5.145647514456822,2000-07-24 12:30:00,39.65037471666667,301294
014850,TIMBER CREEK                            ,-15.6614,130.4808,5.2642922,0.008121213202956556,1.656595460184804,3.177777777777778,2013-02-04 14:00:00,27090.0,5
014901,DOUGLAS RIVER RESEARCH FARM             ,-13.8345,131.1872,4.652643,0.0003611788761591628,1.3335483735115476,3.4889197093644557,1996-09-30 10:30:00,49.176517849999996,283722
014909,CENTRAL ARNHEM PLATEAU                  ,-13.3275,133.0861,6.7005515,0.0014943413160526386,1.294481477326851,5.176243636713944,2003-08-27 10:30:00,69.79394758333333,147875
014932,TINDAL RAAF                             ,-14.5229,132.3826,5.403566,0.0002585904533237704,1.2420397784859272,4.350557830139334,1990-06-01 10:30:00,38.249817416666666,451850
014948,PORT KEATS AIRPORT                      ,-14.2494,129.5282,4.956875,0.0004405782760628085,1.2300184811634227,4.029918999854059,2000-08-30 09:30:00,40.58724161666667,293031
014949,DELAMERE WEAPONS RANGE                  ,-15.7441,131.9181,5.794693,0.00035948295934529195,1.2142092626698988,4.772400583094083,2000-07-24 12:30:00,33.25581523333333,359228
014954,BRADSHAW                                ,-14.9408,130.8091,4.090464,3.1337780216800226e-05,0.9484520554449992,4.312779008342851,2001-11-18 13:30:00,60.641865116666665,185553
014981,BRADSHAW - KOOLENDONG VALLEY (DEFENCE)  ,-15.1853,130.1169,4.3801374,0.0010523256479331167,1.8475360085063164,2.370799499103514,2018-10-24 14:30:00,30.30247478333333,77461
014982,KANGAROO FLATS (DEFENCE)                ,-12.7934,130.8542,4.9007206,0.0016755037124853711,2.119592683303588,2.312104884545664,2017-10-03 09:00:00,31.12196115,93292
014983,MOUNT BUNDEY NORTH (DEFENCE)            ,-12.9141,131.8663,4.9871693,0.0006575360995332291,1.7788511608837094,2.8035899660483743,2017-10-03 09:00:00,30.107012866666665,96437
014984,MOUNT BUNDEY SOUTH (DEFENCE)            ,-13.0889,131.8478,4.622325,0.0005676211468959025,1.7374030214059653,2.660479397464118,2017-10-03 09:00:00,30.097961966666666,96466
014988,KNUCKEY LAGOON                          ,-12.4422,130.9556,4.5741987,0.00039786519314743973,1.3338641856698554,3.429283709677107,2021-07-22 13:30:00,30.01891863333333,30129
015135,TENNANT CREEK AIRPORT                   ,-19.6423,134.1833,7.152781,0.0008899774341594169,1.0718474600112606,6.673319923339583,1990-06-18 13:00:00,39.97949893333334,431685
015590,ALICE SPRINGS AIRPORT                   ,-23.7951,133.889,5.714463,0.0006063405014906653,1.1008824496173755,5.190802374889238,1990-08-08 12:00:00,38.18442996666667,450057
015602,JERVOIS                                 ,-22.9494,136.1442,6.6644716,0.0012916351967445783,1.2438185132416943,5.358073991769507,2000-08-08 08:00:00,58.37677086666667,204278
015635,YULARA AIRPORT                          ,-25.1896,130.9737,6.616568,0.0007516328882741785,1.1395499074928286,5.80629952670426,1991-07-20 14:30:00,39.875213566666666,418475
015643,TERRITORY GRAPE FARM                    ,-22.4518,133.6377,6.7526736,0.0012738317159860513,1.389994085434178,4.858059251264212,2000-08-05 09:30:00,53.71027216666666,222105
015664,WALUNGURRU AIRPORT                      ,-23.2656,129.3844,7.4204946,0.0011558591397350382,1.0054376293132323,7.380362878894434,2001-10-22 13:00:00,50.095788666666664,225392
015666,RABBIT FLAT                             ,-20.1823,130.0148,5.4175606,0.0006363976344563316,1.099869732681356,4.925638388270935,2002-02-14 15:00:00,72.9653847,152476
200731,POINT FAWCETT                           ,-11.7628,130.03,4.5029764,1.772224147533752e-05,0.953007843756554,4.725015063665929,2000-07-24 13:30:00,45.751510833333334,261114
200782,NORTH EAST ISLAND                       ,-13.6449,136.9445,6.2364793,0.00015446510027650184,1.0271831026428517,6.071438739922063,2010-10-13 12:30:00,30.134529133333334,65562
200786,CAPE WESSEL                             ,-11.0047,136.7586,7.033756,0.0018770790438491503,0.8734342376144851,8.05298839495562,2011-12-06 14:30:00,32.374271666666665,184326
200867,BAYU UNDAN (CUQ RIG)                    ,-11.0681,126.6144,,,,6.127814742781956,2009-07-02 07:30:00,148.32818096666668,48845
200868,CP DILI AIRPORT                         ,-8.5478,125.5276,,,,4.886636636636753,2023-02-07 23:30:00,58.06949806666667,1554
001006,WYNDHAM AERO                            ,-15.51,128.1503,4.3224816,3.233541625990988e-05,0.8824591634131356,4.898222842986147,2000-09-23 11:30:00,44.227085566666666,268128
001007,TROUGHTON ISLAND                        ,-13.7542,126.1485,5.733217,0.00014808224838469553,0.858370463009721,6.6791869124203505,1990-10-22 10:30:00,65.61216256666667,260274
001019,KALUMBURU                               ,-14.2964,126.6453,4.847704,0.0007288818431692157,1.3017875365093279,3.723882582802009,1998-09-01 14:00:00,48.88922885,264735
001020,TRUSCOTT                                ,-14.09,126.3867,5.505253,0.00036502209634825533,1.1774065581230624,4.675745009362651,2004-05-13 14:00:00,38.338087333333334,259430
002012,HALLS CREEK METEOROLOGICAL OFFICE       ,-18.2291,127.6636,5.939624,0.0006982643273322209,1.2842818230737396,4.6248601560730815,1993-12-09 08:00:00,36.51546551666667,333904
002056,KUNUNURRA AERO                          ,-15.7814,128.71,4.243469,4.9620290518248567e-05,1.0219287087238684,4.15241220063215,1993-12-09 19:30:00,34.83928655,442869
002064,ARGYLE AERODROME                        ,-16.638,128.4516,3.8016253,2.132302995061508e-06,0.8860325841297697,4.290615627306577,1994-11-16 15:30:00,38.80647423333333,384910
002079,HALLS CREEK AIRPORT                     ,-18.2337,127.6666,5.8280983,0.0014383876948779184,1.1929175720453864,4.885583408018909,2015-09-18 12:30:00,30.121095066666665,132045
003003,BROOME AIRPORT                          ,-17.9475,122.2352,5.4844546,0.0002476852536026364,0.992358776850632,5.526685267208484,1993-12-09 08:00:00,34.71370623333333,444491
003032,DERBY AERO                              ,-17.3706,123.6611,5.1533012,7.086173898562809e-05,0.9531145369573883,5.406801637360888,1994-12-18 12:30:00,51.218279,290738
003080,CURTIN AERO                             ,-17.5768,123.8297,5.472941,0.00015890427902442994,1.1477652493552375,4.768345203740832,1993-12-09 08:00:00,47.03099853333333,328080
003092,SOUTH EAST WATERBANK                    ,-17.8578,122.2725,5.50385,7.168953342995277e-05,1.0878593988322864,5.059339459789741,1996-12-29 07:30:00,34.91292646666667,39392
003093,FITZROY CROSSING AERO                   ,-18.1814,125.5619,5.1495304,0.00017520338458920648,1.1000008427654648,4.681387695867931,1997-08-08 10:00:00,46.618965083333336,289648
003102,BROOME NTC AWS                          ,-18.0015,122.2176,6.2127037,0.0003112670579848986,0.9743152373318131,6.376482135132804,2013-05-16 08:00:00,32.03035258333333,162622
003108,YAMPI SOUND (DEFENCE)                   ,-16.7671,123.981,4.1932726,0.00022487416166461216,1.4586966176027458,2.874670812309501,2018-10-15 13:00:00,30.075691916666663,78476
004019,MANDORA                                 ,-19.7419,120.8433,6.626556,0.000772935583123191,1.1826821644418237,5.60298964411514,2009-12-21 08:00:00,38.02085426666667,184039
004032,PORT HEDLAND AIRPORT                    ,-20.3725,118.6317,6.5734153,0.0004978119800698177,1.023503010902381,6.422467945251001,1993-12-09 08:00:00,34.59570231666667,446008
004083,KARRATHA AERO                           ,-20.7097,116.7742,6.541017,0.000480722254160737,0.96948463216723,6.746901228222038,1993-12-09 08:00:00,35.18604411666667,438525
004090,ROEBOURNE AERO                          ,-20.7594,117.1583,6.4048057,0.0009488090585950681,1.0062747609224474,6.364867637519347,2001-06-07 10:00:00,44.105343966666666,260480
004095,LEGENDRE ISLAND                         ,-20.3583,116.8431,7.083266,0.0009227370714396388,0.9526225684651901,7.435542696426699,2009-10-20 14:00:00,35.9537883,197093
004100,BEDOUT ISLAND                           ,-19.5894,119.1,6.850964,0.0005988575777340355,0.8645416435323573,7.924388744739563,2011-02-21 20:30:00,45.99747728333333,138740
004106,MARBLE BAR                              ,-21.1756,119.7497,6.2912726,0.0021454481829350502,1.347374844020668,4.669281653986236,2000-10-07 01:30:00,48.64125655,243394
005007,LEARMONTH AIRPORT                       ,-22.2406,114.0967,6.2204165,0.00031455416015635507,0.929961586353476,6.688896226627103,1993-12-09 08:00:00,33.797385999999996,456543
005008,MARDIE                                  ,-21.1906,115.9797,6.1964803,0.0011059861135996885,1.138864277244386,5.440929527786701,2000-06-15 09:00:00,53.667337350000004,223650
005017,ONSLOW AIRPORT                          ,-21.6689,115.1092,7.028846,0.0005412994163649376,1.0027740053799263,7.009401669108168,1997-11-21 14:00:00,43.40569956666666,307602
005084,THEVENARD ISLAND                        ,-21.4609,115.0188,7.2975717,0.0007275446198873325,0.9369970419788344,7.788254745902366,2000-01-12 15:00:00,41.62296873333333,293721
005094,BARROW ISLAND AIRPORT                   ,-20.874,115.4066,6.7804503,0.0005998016067650935,0.8734537679427431,7.762803931862101,1999-04-22 17:00:00,34.374219499999995,366758
005098,KARIJINI NORTH                          ,-22.2999,118.4498,6.4429693,0.0011954975135797241,1.0462808908068164,6.1579728530033995,2018-08-31 06:30:00,30.6153516,79223
006011,CARNARVON AIRPORT                       ,-24.8878,113.67,8.334216,0.002776317145552043,1.0374388791202738,8.033452654990263,1993-12-09 08:00:00,33.990131166666664,453955
006105,SHARK BAY AIRPORT                       ,-25.8925,113.5772,8.2293215,0.0024174980273263813,1.063888974292879,7.735131840488372,2000-06-08 15:00:00,43.85706461666667,273900
007045,MEEKATHARRA AIRPORT                     ,-26.6136,118.5372,7.837349,0.0020344806299035234,1.2435874165683252,6.302209907861095,1993-12-09 08:00:00,33.524653550000004,460258
007176,NEWMAN AERO                             ,-23.4213,119.8023,6.0545077,0.0007241307667329444,1.1648058787764635,5.197868454056172,1993-12-16 11:00:00,49.53875463333333,311266
007185,PARABURDOO AERO                         ,-23.1726,117.7493,5.4277015,0.00011147507346054297,0.9809885638258528,5.532889651708133,1995-12-13 11:00:00,45.09879288333333,318697
007600,MOUNT MAGNET AERO                       ,-28.1156,117.8425,7.472603,0.0019483721601387671,1.1839584548236977,6.31154143440871,1995-04-05 08:00:00,47.41482106666667,310787
008051,GERALDTON AIRPORT COMPARISON            ,-28.7953,114.6975,7.0812526,0.0009653043674158202,0.9753757517565542,7.260025238650875,1993-12-09 08:00:00,37.28990456666667,289547
008290,NORTH ISLAND                            ,-28.3009,113.5937,9.134532,0.0033458111985487093,0.9363623383412297,9.755338933189417,2000-09-13 17:00:00,59.76486991666666,198656
008296,MORAWA AIRPORT                          ,-29.2039,116.0247,7.0085483,0.00231600383665842,1.2334313929883958,5.6821549212839315,1997-02-26 01:00:00,41.48083175,331199
008297,DALWALLINU                              ,-30.2761,116.6714,7.452438,0.0018396704286895993,1.1254251206599144,6.621886912640754,1997-05-08 13:30:00,58.42507808333333,233383
008315,GERALDTON AIRPORT                       ,-28.8047,114.6989,7.053227,0.0012570829081695045,0.9599673389559518,7.3473613752895215,2011-07-20 10:00:00,30.158720066666667,204511
009021,PERTH AIRPORT                           ,-31.9275,115.9764,5.9152794,0.00027089291657611536,0.8830318468112014,6.698829051057389,1985-01-03 04:00:00,45.72075315,440227
009037,BADGINGARRA RESEARCH STN                ,-30.3381,115.5394,8.427701,0.005106223000940546,1.1638120187770409,7.241462418694505,1997-04-21 23:00:00,44.83962353333333,304627
009053,PEARCE RAAF                             ,-31.6669,116.0189,7.203873,0.0034503757371514565,1.1833350145085246,6.087771484133097,1993-12-09 08:00:00,54.38697533333333,283708
009091,INNER DOLPHIN PYLON                     ,-31.9889,115.8311,6.440106,0.0009108547870217976,1.015174681098861,6.343840163644134,1999-08-18 14:00:00,31.73762375,391880
009172,JANDAKOT AERO                           ,-32.1011,115.8794,6.084481,0.0008436194625829341,0.9879642970591597,6.158603889425114,1993-12-12 08:00:00,34.13377175,451919
009178,GINGIN AERO                             ,-31.4628,115.8642,6.61079,0.0017506449683847292,1.1218927223885837,5.892532899022271,1996-03-18 08:00:00,47.65319683333333,298717
009193,ROTTNEST ISLAND                         ,-32.0069,115.5022,8.700188,0.0024864300123299543,0.9024502015338477,9.64062910985915,1993-12-09 08:00:00,36.381603133333336,424116
009214,OCEAN REEF                              ,-31.7594,115.7278,7.435816,0.0009010958658350887,0.9353013197584338,7.9501821007562805,1996-10-17 08:00:00,30.710156233333333,453534
009215,SWANBOURNE                              ,-31.956,115.7619,7.3583064,0.0010360512083446016,1.0257721219537719,7.173431847526931,1993-12-09 08:00:00,30.989638666666668,497909
009225,PERTH METRO                             ,-31.9192,115.8728,5.5442276,0.0007454059563343218,1.087044904876482,5.100274676074795,1993-12-09 08:00:00,31.274806483333336,493369
009240,BICKLEY                                 ,-32.0072,116.1369,7.341633,0.0004984489466403064,0.9869991005841059,7.438337926217765,1997-10-14 11:00:00,49.08555695,273128
009254,ARMAMENT JETTY                          ,-32.1758,115.6808,8.399639,0.006850604302000685,1.0512498537629227,7.9901453489599765,2019-03-21 09:00:00,81.30890251666666,26251
009255,COLPOYS POINT                           ,-32.2272,115.6994,8.217571,0.0025080179124457036,1.0239500064030544,8.025363745454447,2019-03-21 09:00:00,30.015187299999997,71112
009256,GARDEN ISLAND HSF                       ,-32.2433,115.6839,8.269043,0.002374641372799302,1.054798442931153,7.8394531430776135,2001-11-14 16:00:00,51.5259807,218489
009265,HILLARYS BOAT HARBOUR NTC AWS           ,-31.8256,115.7386,7.548451,0.002293981555994362,1.3003846755453667,5.8047830682425765,2013-05-16 08:00:00,30.084728133333332,173142
009280,LANCELIN (DEFENCE)                      ,-30.8392,115.2283,8.128227,0.003420774104142099,1.1679090877820295,6.959640368346646,2018-07-05 08:00:00,30.017956966666667,83533
009281,MILLENDON (SWAN VALLEY)                 ,-31.8112,116.0227,6.8647814,0.008742218748186037,1.8038257989019866,3.8056786768868665,2017-05-03 09:30:00,30.098861066666664,103782
009518,CAPE LEEUWIN                            ,-34.3728,115.1358,8.973011,0.003784047847611993,0.8516396151453717,10.536159729152622,1994-01-24 16:30:00,47.290899683333336,324868
009519,CAPE NATURALISTE                        ,-33.5372,115.0189,9.5697565,0.005307303804331309,1.0097945734345144,9.476933982052278,1995-11-29 19:00:00,45.43172893333334,316796
009538,DWELLINGUP                              ,-32.7103,116.0594,6.313399,0.0001531377298348291,0.934404519582335,6.756601349558122,1999-02-10 16:00:00,50.94191213333333,243717
009542,ESPERANCE AERO                          ,-33.6825,121.8275,7.8832874,0.002136674873272182,1.0797370843148484,7.301117600134984,1994-01-24 08:00:00,34.483725283333335,445538
009569,BUSSELTON                               ,-33.655,115.3194,7.1716185,0.0021228306885877624,0.9220736387445942,7.777706855791979,1998-05-12 12:30:00,6024.076595733333,1175
009573,MANJIMUP                                ,-34.2508,116.145,7.470299,0.001140138657563683,1.2216998292304817,6.1146761163052625,2000-10-23 09:00:00,56.16976063333333,210355
009603,BUSSELTON AERO                          ,-33.6818,115.4026,7.2008467,0.002526274652362881,1.2012299125431756,5.994561571325578,1997-10-27 08:00:00,44.36652063333334,301762
009617,BRIDGETOWN                              ,-33.9486,116.1311,6.1171193,0.0047748557349696075,1.626262156379596,3.761459545922399,1998-07-07 08:00:00,44.02925635,295799
009741,ALBANY AIRPORT COMPARISON               ,-34.9414,117.8022,6.969145,0.0017092514337760933,1.1290226807669153,6.172723488985214,1994-01-01 16:00:00,36.4222898,290985
009746,WITCHCLIFFE                             ,-34.0281,115.1042,7.083374,0.006089491867513064,1.2234119388986995,5.789851969087262,1999-04-22 17:00:00,43.2806012,273584
009778,MARGARET RIVER CALM                     ,-33.935,115.0831,6.9852233,,,,,,
009789,ESPERANCE                               ,-33.83,121.8925,7.538822,0.0012734695773624072,1.0436865416342882,7.223262802898055,1994-01-15 01:00:00,32.85106645,468088
009812,HARVEY                                  ,-33.0789,115.8806,7.2699857,0.0003943850837294649,1.692774705394888,4.294715447154461,2000-10-20 17:30:00,30.487804866666668,123
009887,MANDURAH                                ,-32.5211,115.75,6.8524065,0.0008760203641366981,1.1330656508250927,6.047669432728926,1993-12-15 08:00:00,57.48806615,72064
009937,BUSSELTON JETTY                         ,-33.6294,115.3383,7.714862,0.002215274373589149,1.0373693003989457,7.436948314206978,1997-10-27 10:00:00,46.00659101666667,291002
009961,HOPETOUN NORTH                          ,-33.9306,120.1283,7.5548863,0.002267484793312846,1.1061193683925998,6.830082319301258,1995-12-07 16:00:00,41.67197903333333,345106
009964,ROCKY GULLY                             ,-34.5714,117.0106,6.6117506,0.0012983048917640794,1.2723845429210776,5.196346214284588,1995-11-29 08:00:00,46.96938731666667,304351
009965,BUNBURY                                 ,-33.3567,115.6447,6.8466163,0.0033990140851571926,1.2425366273952965,5.5101927115906255,1999-04-22 18:00:00,41.69108308333333,302392
009968,SHANNON                                 ,-34.5683,116.3367,6.4221954,0.0009969462800903939,1.1941376702334043,5.378103040091717,1996-11-28 13:00:00,64.43097551666666,215228
009977,MANDURAH                                ,-32.5219,115.7119,7.3162775,0.002049509227462387,1.1694244106301568,6.256306467918547,2001-10-31 08:00:00,39.288020816666666,287073
009994,COLLIE EAST                             ,-33.3608,116.1717,5.6183434,0.0034047336460153454,1.5440905322805232,3.638610065805889,2002-12-10 07:00:00,41.9688747,254841
009998,NORTH WALPOLE                           ,-34.9469,116.7222,6.9777637,0.003344650627700063,1.188958271101845,5.868804500880423,2004-01-19 10:00:00,42.181532233333336,239726
009999,ALBANY AIRPORT                          ,-34.9411,117.8158,7.027893,0.0016076668335025524,1.1405060718406015,6.162082990986897,2012-01-13 12:00:00,30.175453816666668,195949
010286,CUNDERDIN AIRFIELD                      ,-31.6219,117.2217,6.7435317,0.001856301582002673,1.0906961969933144,6.182777314653376,1996-08-29 11:00:00,46.67725908333333,299900
010692,NEWDEGATE RESEARCH STATION              ,-33.1129,118.84,7.2213135,0.003886618859435087,1.1545727192964292,6.254533262281657,1996-05-31 12:00:00,48.98887975,288393
010905,JACUP                                   ,-33.8878,119.1092,7.7393856,0.002843140712345038,1.136670435545217,6.808821064432905,1994-01-21 12:30:00,49.53714835,310229
010911,LAKE GRACE                              ,-33.1006,118.4647,7.1642747,0.0026202675937484488,1.160436121492382,6.173777737392185,1997-06-22 05:30:00,49.32276938333334,275150
010916,KATANNING                               ,-33.6856,117.6064,7.3056407,0.0029711490305079913,1.2173656775439958,6.001188330049022,1999-01-06 16:00:00,40.54543316666666,314704
010917,WANDERING                               ,-32.6722,116.6706,6.900251,0.003075281850360545,1.4159995716002627,4.873060027775623,1998-12-14 14:00:00,56.802964233333334,225218
011003,EUCLA                                   ,-31.6797,128.8958,8.031095,0.0017186929278460994,1.1583527348469222,6.93320290917062,1995-04-15 07:00:00,32.8557942,448068
011052,FORREST                                 ,-30.8453,128.1092,7.4454994,0.0011217064535989918,0.9990381636472009,7.452667666853325,1993-11-18 17:00:00,49.70181641666667,311050
011053,RED ROCKS POINT                         ,-32.2028,127.5297,7.7389417,0.0012105645646456331,0.9825823545545681,7.876125226136784,1999-12-03 13:00:00,75.12844193333333,163498
012009,NORSEMAN AERO                           ,-32.2147,121.7547,6.3928466,0.0011553009127386327,1.0473210145901517,6.103999151417565,1999-12-07 08:00:00,45.03796603333333,272612
012038,KALGOORLIE-BOULDER AIRPORT              ,-30.7847,121.4533,7.0208,0.0014228744085241773,1.1519805947814539,6.094547204599325,1994-01-24 09:00:00,34.47121143333333,445698
012044,MUNGLINUP WEST                          ,-33.5547,120.6997,7.671911,0.0022414478134220595,1.1443528424991123,6.704147949711426,2002-04-30 16:00:00,37.74093763333334,291922
012071,SALMON GUMS RES.STN.                    ,-32.9869,121.6239,7.328426,0.003941859874498355,1.2588442103634998,5.821551089416134,1999-11-23 21:00:00,41.938857983333335,293219
012241,LEONORA AERO                            ,-28.8789,121.3186,7.4244933,0.0031412818886706884,1.217790292432454,6.0966928041492015,2007-02-26 11:00:00,39.3717873,215357
012305,LAVERTON AERO                           ,-28.6133,122.4236,8.42566,0.004717016258807383,1.2117283761482505,6.953423142688678,1993-12-09 08:00:00,51.793464566666664,297915
012314,LEINSTER AERO                           ,-27.8386,120.7031,8.061392,0.0028607754301912536,1.3121246857580868,6.14376965691094,1994-10-30 16:00:00,51.678047766666666,289515
012320,SOUTHERN CROSS AIRFIELD                 ,-31.2353,119.3564,6.976134,0.002601600546135119,1.1021887922080194,6.329345637256442,1996-10-03 11:00:00,46.519751049999996,299832
012322,MOUNT WALTON EAST IWDF                  ,-30.3803,120.1481,8.141989,0.006252718256222978,0.9431742052388798,8.632539682539687,1997-01-09 17:30:00,31553.142857133334,70
013011,WARBURTON AIRFIELD                      ,-26.1317,126.5839,7.912096,0.004124687672159011,1.2237715284618922,6.465337556515927,1997-05-20 08:00:00,44.354975816666666,307035
013017,GILES METEOROLOGICAL OFFICE             ,-25.0341,128.301,8.361547,0.003190707480953847,1.3112008350961082,6.377015058474921,1992-11-29 20:00:00,34.9752075,456590
013030,TELFER AERO                             ,-21.7125,122.2281,7.036537,0.0008847672584182398,1.0775897753022683,6.529884870554176,1996-01-13 19:00:00,48.708796799999995,294152
013044,WILUNA AERO                             ,-26.6273,120.2195,7.177479,0.00193238312134425,1.192649141152106,6.018097479489833,2017-11-03 08:30:00,30.036247483333334,95179
109521,WITCHCLIFFE WEST                        ,-34.0258,115.0637,7.616189,0.004284208809640422,1.153498893772673,6.602684271400517,2022-06-07 09:00:00,30.00608353333333,14794
200100,VARANUS ISLAND                          ,-20.655,115.5769,7.2129545,0.000827955454766327,0.8631141578999533,8.356895151307759,1999-04-22 17:00:00,35.818095549999995,351976
200284,COCOS ISLAND AIRPORT                    ,-12.1892,96.8344,,,,8.217455069310109,1995-12-04 14:00:00,39.34149568333333,365662
200713,ROWLEY SHOALS                           ,-17.5217,118.9531,6.1025844,0.0003921204529886424,0.8763798224059662,6.963401262795304,2008-12-24 11:30:00,45.58699051666667,164926
200735,ADELE ISLAND                            ,-15.5114,123.1556,4.9060793,5.1231611771895835e-05,0.8732976072722337,5.617877859097337,2013-06-18 09:00:00,30.857506683333334,167264
200784,BROWSE ISLAND                           ,-14.1093,123.5476,4.723534,2.8865695178126316e-05,0.7897353035785564,5.9811611381741825,2013-06-19 15:30:00,34.06869891666666,145388
200790,CHRISTMAS ISLAND AERO                   ,-10.4515,105.689,,,,6.567528310672509,1996-03-24 17:00:00,48.362451416666666,294147
200865,COCOS ISLAND NTC AWS                    ,-12.1168,96.8919,,,,6.664163483030234,2015-02-04 07:30:00,31.6556077,135938
027045,WEIPA AERO                              ,-12.6778,141.9208,6.013942,0.0009349080879157423,1.2476838717335939,4.820084559140349,1995-11-02 13:30:00,34.64245591666667,416592
027054,COCONUT ISLAND                          ,-10.0511,143.0686,8.057411,0.0050728301522695585,1.9363972709609405,4.161032095366026,2003-07-13 00:00:00,67.97556168333332,152220
027058,HORN ISLAND                             ,-10.5844,142.29,7.685066,0.0036927498440945117,1.0096028235191303,7.611969820326985,1995-10-17 21:30:00,40.34994765,358225
027073,COEN AIRPORT                            ,-13.7606,143.1183,4.6395698,0.00016954745848207775,0.9771056239285567,4.748278636157076,2002-04-17 17:00:00,38.93068293333333,283480
027075,SCHERGER RAAF                           ,-12.6167,142.0869,5.8297615,0.002452262650238679,1.503459001556636,3.877565998867275,2005-12-14 10:00:00,35.386775400000005,257475
028004,PALMERVILLE                             ,-15.9999,144.0754,4.628964,0.00023166731618728953,1.297334215348461,3.5680581707719883,2001-07-16 11:00:00,44.11204315,259168
028008,LOCKHART RIVER AIRPORT                  ,-12.785,143.3047,5.7626348,0.0020835614162789673,1.0233127398583746,5.631352498336384,2001-06-26 11:00:00,41.32123631666666,277369
029038,KOWANYAMA AIRPORT                       ,-15.4818,141.7483,5.3420243,0.0005073339939931643,1.288295314372848,4.14658368056318,1999-06-23 16:00:00,41.34113838333334,302795
029039,MORNINGTON ISLAND                       ,-16.664,139.1837,5.4709964,0.0007330595463028722,1.1153446047210043,4.905207194883797,1995-10-12 00:00:00,39.30548016666667,269006
029058,JULIA CREEK AIRPORT                     ,-20.6672,141.7214,6.41938,0.00029707555341518255,1.048161626354159,6.1244182448435325,2001-08-31 17:00:00,40.168188683333334,282956
029063,NORMANTON AIRPORT                       ,-17.6872,141.0733,5.5416284,7.255398311689643e-05,1.0269524847839084,5.396187694033733,2001-04-09 19:00:00,39.37262065,293937
029077,BURKETOWN AIRPORT                       ,-17.7483,139.5356,6.119577,0.00032511004604884874,1.025417971790639,5.967885388543977,2001-10-10 19:00:00,38.980175716666665,290099
029127,MOUNT ISA AERO                          ,-20.6778,139.4875,6.055494,0.0010324110513734164,1.1340642514251262,5.339639111298025,1995-10-16 21:00:00,32.60590955,443350
029141,CLONCURRY AIRPORT                       ,-20.6664,140.505,6.374381,0.0004941351367622193,1.1122446498837253,5.731096181074042,2001-03-23 11:00:00,39.92904505,290466
029167,CENTURY MINE                            ,-18.7569,138.7056,6.0982304,0.0011171285966661282,1.348922413622739,4.520816245880844,2003-04-07 10:00:00,30.758254083333334,342194
029181,LAKE JULIUS AWS                         ,-20.1167,139.7256,5.397233,0.0008881392294585178,1.3299477386788614,4.058229396818151,2013-08-19 08:30:00,30.985063683333333,163695
029182,MORNINGTON ISLAND AIRPORT               ,-16.662,139.1655,5.56237,0.000285433522105083,0.9618179731225991,5.7831834909439745,2013-10-24 09:00:00,30.09159833333333,165396
030022,HUGHENDEN AIRPORT                       ,-20.8192,144.2333,6.97717,0.001398115280961565,1.2148889365931426,5.743051714756173,2001-02-23 11:00:00,40.23045918333333,289292
030024,HUGHENDEN POST OFFICE                   ,-20.8447,144.1986,6.97508,0.00047709185693267653,1.3554811361830243,5.145833333333334,2001-02-21 17:00:00,102.5,24
030124,GEORGETOWN AIRPORT                      ,-18.3039,143.5306,5.753821,0.0006043789997376425,1.2308813743015932,4.674553548601239,2004-06-01 18:00:00,37.11525723333333,267237
030161,RICHMOND AIRPORT                        ,-20.7001,143.1137,6.192665,0.0002537838659066871,1.0431518382739393,5.936494451607741,1998-11-07 19:00:00,41.9743175,306045
031011,CAIRNS AERO                             ,-16.8736,145.7458,5.5744467,0.0001971782316328996,0.8949270156154158,6.228939992752631,1985-01-16 16:30:00,44.89086536666667,447933
031037,LOW ISLES LIGHTHOUSE                    ,-16.3842,145.5592,6.7347097,0.0002922734072469124,0.8404857912049513,8.012877564568857,1998-11-07 19:00:00,40.40902798333333,317900
031192,GREEN ISLAND                            ,-16.7614,145.9719,8.389779,0.003182160130439704,0.867458008245807,9.671683252826666,1997-03-24 00:00:00,31.11456893333333,223647
031209,COOKTOWN AIRPORT                        ,-15.4461,145.1861,6.8821993,0.003333196462004917,1.063542334698346,6.471015833484954,2000-07-24 13:00:00,40.31012746666667,296362
031210,MAREEBA AIRPORT                         ,-17.0704,145.4293,7.0785985,0.0035715614838724985,1.379371208754864,5.131757466279025,2000-07-24 13:00:00,40.03398281666667,298386
031213,CAPE FLATTERY                           ,-14.9672,145.3106,9.06652,0.009083457035292342,1.0404800125293951,8.713785587483844,2003-06-20 11:00:00,37.90771458333334,274843
031222,CAIRNS RACECOURSE                       ,-16.9463,145.7474,6.042963,0.0013126020161664531,1.3748387619921008,4.395397624080679,2013-08-02 10:00:00,30.098329866666667,169328
032037,SOUTH JOHNSTONE EXP STN                 ,-17.6053,145.9972,3.976634,2.5516593973429202e-05,1.032290988216927,3.8522413456718803,1999-11-04 16:00:00,40.762031066666665,302363
032040,TOWNSVILLE AERO                         ,-19.2483,146.7661,4.715243,7.148378239230091e-05,0.8005855157927865,5.889742906517747,1995-10-16 13:00:00,32.14391966666667,449737
032141,LUCINDA POINT                           ,-18.5203,146.3861,5.588445,2.1615742302527607e-05,0.7741956300804432,7.2183889568510216,1996-10-22 00:00:00,50.384760150000005,276302
032182,CAPE FERGUSON NTC AWS                   ,-19.2774,147.0586,6.481217,0.0004325005481191635,1.058708828488231,6.121812469209298,2013-05-16 10:00:00,30.641140266666664,169994
032194,COWLEY BEACH (DEFENCE)                  ,-17.6905,146.1126,5.4761376,0.0003359173870433052,1.6113668760337265,3.3984424773402275,2017-04-03 13:30:00,30.012225966666666,105513
032195,MOUNT STUART (DEFENCE)                  ,-19.4082,146.762,4.9605384,0.0002474265633504169,1.1068641868292837,4.481614317569088,2017-10-03 09:30:00,30.0310302,96680
032196,TOWNSVILLE- AIR WEAPONS RANGE (DEFENCE) ,-19.3048,146.2438,4.7159257,7.12484221765397e-05,1.0155168271038533,4.643867602825731,2017-10-03 09:30:00,31.26574916666667,92862
032197,INNISFAIL AERODROME                     ,-17.5581,146.0119,4.3555098,0.00014632732689934258,1.0424154903957437,4.178285720161425,2016-06-21 13:30:00,30.088537233333334,118933
033002,AYR DPI RESEARCH STN                    ,-19.6169,147.3758,6.0373373,0.0013518717405359704,1.3225647007783283,4.564871041551807,2003-08-17 03:00:00,49.53667935,208646
033045,MACKAY AERO                             ,-21.1706,149.1794,6.210302,0.0003896383957645577,0.9694265115376657,6.406160551786006,1995-11-14 01:00:00,33.150592616666664,434842
033106,HAMILTON ISLAND AIRPORT                 ,-20.3658,148.9536,7.59709,0.0020232602144836243,0.827501090826234,9.180761030623655,2002-07-19 12:00:00,39.75673615,274229
033119,MACKAY M.O                              ,-21.1172,149.2169,6.8704095,0.0002913969339357614,1.0274324626246896,6.686969449190617,1995-10-15 13:00:00,41.18888011666666,351011
033195,WILLIAMSON                              ,-22.4703,150.1786,5.7563014,0.0019603834411050514,1.3099502681602713,4.394290029903162,2005-06-01 18:00:00,40.67840871666667,230908
033208,ROSSLYN BAY NTC AWS                     ,-23.161,150.7901,7.0841346,0.0016199214370453685,1.2579337428529966,5.631564157455543,2012-07-11 11:30:00,31.13465646666667,181588
033210,ST LAWRENCE                             ,-22.3472,149.5242,4.921065,0.0002549685521481271,1.1176528450750585,4.4030352316937265,2004-08-09 18:00:00,37.183977033333335,264071
033247,PROSERPINE AIRPORT                      ,-20.4925,148.555,6.4205017,0.002035114713190178,1.1959575284385635,5.368503108439771,1996-03-22 08:00:00,45.0386002,315931
033255,HAMILTON ISLAND                         ,-20.3528,148.9511,7.22885,0.0016016007454539016,0.7540283574695638,9.586973508671644,2002-03-14 17:00:00,62.61406516666667,2915
033294,YEPPOON THE ESPLANADE                   ,-23.1364,150.7506,6.531303,0.0003403487680633255,1.030232599911879,6.3396391547726365,1995-10-15 08:00:00,32.02126621666667,451514
033295,ALVA BEACH                              ,-19.4569,147.4833,6.9345994,0.00032728180006258434,0.992348046952277,6.988071796850266,1997-03-24 00:00:00,39.928455050000004,343141
033298,DOTSWOOD                                ,-19.6264,146.2939,5.2020316,7.294053981332649e-05,1.0037872243894068,5.182404682985063,1996-12-17 02:30:00,95.11329223333334,46561
033307,WOOLSHED                                ,-19.4168,146.5362,5.982709,0.0006393062443621478,1.3646511013403395,4.384057525834342,1998-11-07 19:00:00,42.27781653333333,303848
033308,SAMUEL HILL AERO                        ,-22.7433,150.6578,4.478383,0.00038723967556764105,1.0276105326885039,4.3580548484194415,2000-11-08 10:00:00,39.81447468333333,296186
033317,HAY POINT                               ,-21.2894,149.3008,7.2941017,0.000780075449699047,0.9362002696251862,7.791176687022459,2005-11-24 14:00:00,30.418649683333335,300466
033327,BOWEN AIRPORT AWS                       ,-20.0153,148.2138,7.54576,0.002831594287456052,1.2664679716817708,5.958113685815473,2015-03-19 12:30:00,30.47228308333333,139175
033328,TOWNSVILLE- FANNING RIVER (DEFENCE)     ,-19.783,146.5,6.373766,0.0025348301801777495,1.7754650344916796,3.5899135277870435,2017-10-03 09:30:00,30.01954153333333,96717
033329,OORALEA RACECOURSE (MACKAY TURF CLUB)   ,-21.17,149.1515,5.663748,0.0013593373334758185,1.2287311290170566,4.609428095149174,2016-06-27 10:00:00,30.29505108333333,117844
034035,MORANBAH AIRPORT                        ,-22.0644,148.0758,5.8115926,0.0003663554996498064,1.0431631358553564,5.571125339012907,2012-02-27 09:00:00,30.03898545,194688
035124,CLERMONT AIRPORT                        ,-22.7756,147.6217,5.030926,0.0007174217728527221,1.4100364258373952,3.5679406115922174,2010-04-15 11:00:00,30.2635356,225738
035129,ROLLESTON AIRPORT                       ,-24.4617,148.6264,5.2263927,0.0003725114048204192,1.3925134186057768,3.7532081746145685,2010-07-12 15:00:00,30.39412305,220591
035134,BLACKWATER AIRPORT                      ,-23.6015,148.8074,6.0975394,0.00022610191916372369,1.0689106080572703,5.704442802732054,2013-05-29 11:00:00,30.1910928,171906
035139,LOCHINGTON                              ,-23.9424,147.525,5.0824065,0.00042207690037554535,1.3874193594113633,3.663208593975368,2010-10-29 10:00:00,30.2877984,216193
035264,EMERALD AIRPORT                         ,-23.5694,148.1756,5.6529646,0.000147486641916994,1.0497819583248706,5.384894022183782,1998-11-07 19:00:00,41.61870666666667,308660
036031,LONGREACH AERO                          ,-23.4397,144.2828,6.8744073,0.0005210188966671137,1.133391724105347,6.065340998354941,1995-12-11 16:00:00,33.88336035,424264
036034,BLACKALL AIRPORT                        ,-24.4303,145.4306,6.916158,0.0011633204235260708,1.324390668779047,5.222143558053225,2001-03-13 11:00:00,37.49755395,309685
037010,CAMOOWEAL TOWNSHIP                      ,-19.9225,138.1214,6.5459895,0.0010037654581607214,1.175695438995793,5.567759554284229,1999-06-24 09:30:00,56.029078016666666,223399
037034,THE MONUMENT AIRPORT                    ,-21.8125,139.9267,6.7238216,0.0014666718048436111,1.20966433657538,5.55841933726022,2000-12-14 14:00:00,40.6826758,288585
037036,TREPELL AIRPORT                         ,-21.84,140.8925,6.4832687,0.0005207759979296567,1.1532503646907757,5.621735692692667,2001-08-19 17:00:00,40.32031368333333,282317
037039,WINTON AIRPORT                          ,-22.3617,143.0836,6.6207323,0.0005914760225774751,1.140136333818924,5.806965457593762,2002-10-17 14:00:00,39.17926243333333,274960
037053,CARTERS BORE                            ,-20.9358,139.2964,7.2164125,0.0018145187630678183,1.391693651951985,5.185345592493558,2014-07-29 14:00:00,30.202542166666667,151524
037058,URANDANGI AERODROME                     ,-21.5979,138.3665,6.712587,0.001535756344314021,1.2657989506328355,5.303043485992993,2012-09-11 11:30:00,30.674413716666667,181402
037059,NEW MAY DOWNS                           ,-20.59,139.3411,6.8670926,0.0015572580029349359,1.4538907942269086,4.723252005359194,2013-08-19 08:30:00,30.09023331666667,168563
038026,BIRDSVILLE AIRPORT                      ,-25.8975,139.3472,7.1079936,0.0011721614867536978,1.1543744480225961,6.157441907111194,2000-07-24 13:00:00,40.391902933333334,295762
038076,WINDORAH AIRPORT                        ,-25.4117,142.6647,6.504609,0.0003581244070059997,1.164823606047676,5.584200967596942,2016-08-18 18:30:00,30.25688136666667,115384
039039,GAYNDAH POST OFFICE                     ,-25.6258,151.6094,5.5911803,0.00011547310355974894,0.919196894274787,6.082679738562087,2003-01-24 15:00:00,63.52941175,85
039059,LADY ELLIOT ISLAND                      ,-24.1116,152.7161,7.827855,0.0017731312977502522,0.9720997272750562,8.052522689324405,1998-12-22 02:30:00,66.6032014,191916
039066,GAYNDAH AIRPORT                         ,-25.6167,151.6156,5.511694,0.0014602246247072959,1.4417353990041823,3.8229580533811838,2003-01-28 10:00:00,37.46720408333333,283572
039083,ROCKHAMPTON AERO                        ,-23.3753,150.4775,4.8656754,0.00010067514867062588,0.9817312028705063,4.956219620140908,1995-10-31 20:00:00,32.32271456666667,446568
039089,THANGOOL AIRPORT                        ,-24.4935,150.5709,5.087457,0.0003787642376595901,1.2364621000217375,4.114527392253878,2009-10-01 14:30:00,31.879949266666664,223139
039122,HERON ISLAND RES STN                    ,-23.4417,151.9125,7.675639,0.0013200711199757853,0.9252316452313741,8.295910750661145,1999-02-16 14:00:00,57.12989618333334,222316
039123,GLADSTONE RADAR                         ,-23.8553,151.2628,6.699093,0.0003543672660121233,0.9663293561376363,6.932515112410669,1994-08-10 15:00:00,31.701080016666666,475639
039128,BUNDABERG AERO                          ,-24.9069,152.323,6.6078773,0.0010228853437194152,1.1528723839010901,5.731664099825469,1998-11-07 19:00:00,36.75071878333333,349545
039304,HERON ISLAND                            ,-23.4483,151.9178,7.637577,0.0009069989806618217,0.8026822650931041,9.515068899645955,1995-10-11 22:00:00,73.52779168333333,23964
039322,RUNDLE ISLAND                           ,-23.5322,151.2771,7.608096,0.0013556415471559502,0.8932157717791567,8.517646422193678,1996-01-20 04:00:00,34.823724250000005,411174
039326,GLADSTONE AIRPORT                       ,-23.8697,151.2214,5.8156376,0.00025247861794963633,1.025046145994718,5.673537343879682,1996-01-09 08:30:00,31.907905866666667,449236
040004,AMBERLEY AMO                            ,-27.6297,152.7111,4.7296977,0.0003475583848630004,1.0976728668865876,4.308840864155077,1995-10-14 14:00:00,40.774853416666666,354609
040043,CAPE MORETON LIGHTHOUSE                 ,-27.0314,153.4661,8.288787,0.0018062678566349577,0.8527303872121716,9.720290272780192,1996-03-22 06:00:00,36.13290435,393802
040068,DOUBLE ISLAND POINT LIGHTHOUSE          ,-25.9319,153.1906,7.680221,0.001332869976625961,0.8250573284951531,9.308712031912032,1995-10-11 22:00:00,36.53298406666667,395888
040082,UNIVERSITY OF QUEENSLAND GATTON         ,-27.5436,152.3375,5.0312443,0.00025905342567755785,1.1235823486346053,4.477859841842609,2002-07-16 12:00:00,36.77464056666667,296584
040093,GYMPIE                                  ,-26.1831,152.6414,4.9575768,0.0016857664275763407,1.6698294805223342,2.9689119814546694,2000-07-24 13:00:00,40.46372913333333,295237
040126,MARYBOROUGH                             ,-25.5132,152.7152,5.6644917,0.0010090868224722493,1.1880681794586128,4.767816991802287,2007-12-19 13:30:00,30.11522365,267393
040211,ARCHERFIELD AIRPORT                     ,-27.5716,153.0071,4.8365245,9.367296023632399e-05,0.9657587280685017,5.008004945722521,1994-09-21 12:30:00,35.3203729,425192
040223,BRISBANE AERO                           ,-27.4178,153.1142,5.7996655,0.0002563032970550605,0.9835406011205375,5.896721949701218,1985-01-06 16:30:00,222.68367203333335,35675
040282,NAMBOUR DPI                             ,-26.6431,152.9392,4.5757565,0.00023752758780037908,1.253324994301092,3.650893878795455,1997-07-14 14:00:00,86.36916196666667,63506
040284,BEERBURRUM FOREST STATION               ,-26.9586,152.9619,4.767545,0.0011000185700908993,1.7921857572055317,2.6601847515348442,1999-06-23 16:00:00,37.3424239,335219
040405,HERVEY BAY AIRPORT                      ,-25.322,152.8817,5.8742266,0.0006132483905501029,1.062949072681004,5.526348082992568,1999-06-23 16:00:00,37.79453456666667,331209
040555,TOOLARA (KELLY)                         ,-25.9713,152.8609,5.1647787,3.893778748653709e-06,0.9389849924237271,5.500384725085104,1998-11-07 20:00:00,61.5093601,132851
040651,JIMNA FORESTRY                          ,-26.6644,152.4606,5.4292564,0.0006043764781231697,1.3127961755463002,4.135643095509233,2000-07-24 13:00:00,54.26036055,107113
040717,COOLANGATTA                             ,-28.1681,153.5053,6.196159,0.00046122512100799096,1.0564538402184058,5.865054061117188,1994-07-17 00:00:00,35.509998366666665,425619
040764,GOLD COAST SEAWAY                       ,-27.939,153.4283,7.0408583,0.0007978902708132285,1.0564005429141665,6.6649513917467464,1994-07-17 00:00:00,32.94402423333334,458770
040842,BRISBANE AERO                           ,-27.3917,153.1292,6.2941155,0.000300260517191675,1.0612748287658296,5.9307121706495085,1995-10-11 22:00:00,30.575293633333334,473028
040861,SUNSHINE COAST AIRPORT                  ,-26.599,153.0912,6.060612,0.0002772289490415858,0.9763946863267036,6.20713353581564,1995-12-23 15:00:00,32.783010133333335,437979
040908,TEWANTIN RSL PARK                       ,-26.3911,153.0403,5.5303464,0.0007180992414775877,1.1782003662390916,4.693892950685889,1996-03-21 00:00:00,44.71265595,318277
040913,BRISBANE                                ,-27.4808,153.0389,4.860663,0.00015375160108033192,1.3069237818373345,3.7191632784667514,1999-12-10 14:30:00,30.872740166666667,397541
040922,KINGAROY AIRPORT                        ,-26.5737,151.8398,6.441113,0.003005663531193914,1.4088877212474862,4.571771687700197,2001-01-19 12:00:00,40.15200386666667,291111
040925,BANANA BANK NORTH BEACON                ,-27.5327,153.3333,7.2326503,0.0014997998395405165,1.0826585506795705,6.680453662384082,2002-08-23 12:00:00,31.074932266666668,349222
040926,INNER RECIPROCAL MARKER                 ,-27.2633,153.2419,7.549843,0.0018900482930701568,1.0050506178675385,7.511903082544739,2002-03-20 09:00:00,31.461051683333334,352082
040927,SPITFIRE CHANNEL BEACON                 ,-27.0481,153.2664,7.3743234,0.001039439941077025,0.9966176576576043,7.399350504590412,2002-07-23 10:00:00,30.339635616666666,314013
040958,REDCLIFFE                               ,-27.2169,153.0922,6.241101,0.00021371283923454776,0.926971840729262,6.732783579711,2004-02-27 12:00:00,30.475048933333333,329966
040959,REDCLIFFE JETTY                         ,-27.2261,153.1172,7.0661044,0.0002699306095521603,0.9411393413252943,7.5080321285140466,2004-11-04 10:30:00,30.27108433333333,332
040983,BEAUDESERT DRUMLEY STREET               ,-27.9707,152.9898,4.631388,0.0008436911358958854,1.6723701996070515,2.7693558450734543,2007-08-13 10:00:00,31.83444186666667,258749
040988,NAMBOUR DAFF - HILLSIDE                 ,-26.6442,152.9383,4.614295,0.0009192566884715925,1.807072877152061,2.5534637059410956,2007-12-19 08:00:00,32.62527801666667,246831
041097,INGLEWOOD FOREST                        ,-28.3661,150.9539,5.4786572,8.564835927260539e-06,1.0020622376483614,5.467382204216469,2000-07-24 13:00:00,52.14789945,145058
041175,APPLETHORPE                             ,-28.6217,151.9533,7.269514,0.006931179863169601,1.721798695323431,4.222046458512831,1997-03-24 00:00:00,40.32258443333333,339787
041359,OAKEY AERO                              ,-27.4034,151.7413,5.9872656,0.00040232776384530045,1.0007605686481333,5.982715321149054,1995-11-06 15:00:00,38.416543716666666,375514
041522,DALBY AIRPORT                           ,-27.1605,151.2633,6.016582,0.00048227577999715443,1.0306444973550204,5.837688968036099,2006-07-06 15:00:00,35.768355449999994,246507
041525,WARWICK                                 ,-28.2061,152.1003,5.808574,0.0024127205525540374,1.3290786717314305,4.370376504582314,1998-11-13 00:30:00,43.617628466666666,294342
041529,TOOWOOMBA AIRPORT                       ,-27.5425,151.9134,7.552426,0.001124037490202956,1.0119666813007353,7.463117117305782,1996-06-25 15:00:00,38.328849983333335,367657
041560,GOONDIWINDI AIRPORT                     ,-28.5226,150.3223,5.778338,0.000585333048502501,1.2922914386749267,4.471389179363265,2021-09-29 11:30:00,30.071706,26776
042112,MILES CONSTANCE STREET                  ,-26.6569,150.1819,5.759771,0.002492061248045241,1.4704745438406492,3.9169470116532046,1998-11-10 13:00:00,47.07866073333333,272779
043091,ROMA AIRPORT                            ,-26.5477,148.771,6.437793,0.0017651454509602926,1.2703435372222867,5.067757334438772,1997-03-24 00:00:00,39.994658066666666,342573
043109,ST GEORGE AIRPORT                       ,-28.0478,148.5957,6.4078445,0.0015139734492158885,1.2672183104889605,5.0566224386266505,1998-11-09 07:00:00,43.24957655,296971
044021,CHARLEVILLE AERO                        ,-26.4139,146.2558,5.9635735,0.0009402466746342153,1.2392494408698587,4.812246234805297,1995-10-13 21:00:00,33.13925906666667,436345
045009,BALLERA GAS FIELD                       ,-27.4008,141.8114,7.179987,0.00034716319265659656,1.0772902997338847,6.664858075403606,2002-08-15 17:00:00,45.626354516666666,238092
045025,THARGOMINDAH AIRPORT                    ,-27.9867,143.815,6.581221,0.0005539237434932787,1.2031803101560044,5.469854391828347,1999-09-14 09:00:00,41.981979833333334,295336
140007,REDLAND (ALEXANDRA HILLS)               ,-27.5433,153.2394,5.814766,0.0005681182717128808,1.3073048479185203,4.447903592979099,2015-08-19 15:30:00,30.09544055,133591
140008,CANUNGRA (DEFENCE)                      ,-28.0437,153.1871,4.423792,0.0014942078443108686,2.2854192139569203,1.9356588315877195,2018-03-21 10:00:00,30.030820983333335,88576
140009,GREENBANK (DEFENCE)                     ,-27.6932,152.9935,4.908845,0.002153502082735348,1.9873519507388957,2.470043087229636,2018-03-21 10:00:00,30.029464883333333,88580
140010,TIN CAN BAY (DEFENCE)                   ,-25.9351,152.9647,5.0545983,0.0006428579739804485,1.4167855135031053,3.567652466288672,2018-03-21 10:00:00,30.023702833333335,88597
200001,MIDDLE PERCY ISLAND                     ,-21.6628,150.2711,8.471742,0.002929232572218332,1.013668062534896,8.35751069748133,2004-07-19 15:00:00,36.462420083333335,270131
200283,WILLIS ISLAND                           ,-16.2878,149.9652,8.290417,0.0017091197195520103,0.8789417939733641,9.432270457923558,1996-02-25 14:00:00,36.16495341666667,394475
200601,CATO ISLAND                             ,-23.2503,155.542,7.3083787,0.0017248485931186108,0.7960777920650306,9.180483075006617,2011-08-19 08:30:00,49.47765533333334,123788
200701,FREDERICK REEF                          ,-20.9375,154.4019,7.7917237,0.00566460189344431,0.8686568924873691,8.969851958313022,2008-10-16 14:30:00,50.6870808,150288
200704,MARION REEF                             ,-19.0964,152.3892,,,,9.201483017193848,2009-03-06 14:00:00,43.98323633333334,168579
200732,HOLMES REEF                             ,-16.4683,147.8734,7.975161,0.0030258549633240817,0.8795509124144993,9.067310331927263,2004-03-04 08:00:00,63.81355931666667,156232
200736,CREAL REEF                              ,-20.5303,150.3773,7.5786285,0.0012964210234918117,0.8387985014093636,9.035100238383022,2008-04-10 15:00:00,49.206623416666666,160340
200783,FLINDERS REEF                           ,-17.7195,148.4478,7.5321856,0.0018793487470321057,0.8351222260272895,9.019261276681988,2006-03-18 00:00:00,53.84922253333333,166696
200831,GANNET CAY                              ,-21.9769,152.4707,7.768302,0.0027375656655331815,0.876848916988801,8.859339178388206,2004-03-04 09:00:00,62.25460065,161390
200840,BOUGAINVILLE REEF                       ,-15.4877,147.1183,8.515772,0.0049504658849841565,0.9047958173787823,9.41181612721768,2009-02-01 11:00:00,45.73303016666667,163172
200869,WILLIS ISLAND COMPARISON                ,-16.2878,149.965,8.290417,0.0,1.7979216977774377,4.611111111111112,2005-10-25 15:00:00,0.0,1
200879,ARLINGTON REEF                          ,-16.7226,146.1124,7.972325,0.003047772038776375,0.9290057016512384,8.58156718952837,2010-05-04 11:00:00,30.15007975,225680
200880,LIHOU REEF LIGHTHOUSE                   ,-17.133,152.145,,,,8.24020898686842,2013-09-30 09:30:00,32.6390309,153545
200892,TORRES STRAIT NTC AWS                   ,-10.5865,142.2219,7.4860168,0.0025168375382246255,1.011421069771065,7.40148388645903,2016-12-01 16:30:00,38.22459501666666,87473
200897,HOPE BANKS BEACON                       ,-27.4344,153.2904,7.476102,0.0027845519675404606,1.200155370467531,6.229278357845281,2021-04-16 14:00:00,30.366460166666666,34383
046012,WILCANNIA AERODROME AWS                 ,-31.5194,143.385,6.71817,0.00042967690145290227,1.138190165564938,5.90250238428398,2000-01-19 14:00:00,36.24347635,337043
046126,TIBOOBURRA AIRPORT                      ,-29.4448,142.0567,6.8355446,0.0006421646195661213,1.0698297510309678,6.389376047538779,1997-09-21 16:00:00,43.207681216666664,311044
046128,FOWLERS GAP AWS                         ,-31.0863,141.7008,7.20423,0.004199443864438157,1.1936815760788144,6.0353028613887965,2004-10-26 18:00:00,39.30328698333334,246974
046129,WHITE CLIFFS AWS                        ,-30.8522,143.0743,7.044349,0.0007563306803157754,1.111798365108163,6.3359952799423995,2005-07-05 18:00:00,37.8252527,247031
047048,BROKEN HILL AIRPORT AWS                 ,-32.0012,141.4694,7.2803807,0.0022108002232622548,1.0817465756970053,6.730209172300457,1989-01-01 13:30:00,43.68660343333333,412621
048027,COBAR MO                                ,-31.484,145.8294,7.035547,0.0007968218631323465,1.329837195867839,5.290532406142572,1989-01-18 16:30:00,46.35098911666667,388371
048237,COBAR AIRPORT AWS                       ,-31.5388,145.7964,6.9146757,0.0038626570728884646,1.3451248408567666,5.140545696993597,1993-09-19 07:30:00,42.726145933333335,363869
048244,COBAR COMPARISON                        ,-31.4861,145.8281,7.022478,4.705420972639374e-06,0.6065374017811945,11.577980324074097,2000-01-15 00:30:00,2291.5625,192
048245,BOURKE AIRPORT AWS                      ,-30.0362,145.9521,6.5867133,0.000727212355229212,1.2616188349491524,5.220842564800377,1999-02-04 14:00:00,38.00961733333334,334604
049000,IVANHOE AERODROME AWS                   ,-32.8833,144.3092,6.7661037,0.0004530312110970769,1.1892766004757362,5.68925996004651,2000-07-24 13:00:00,41.098787300000005,290675
050017,WEST WYALONG AIRPORT AWS                ,-33.9382,147.1962,6.160394,0.0016673481409112956,1.2007510645053177,5.130450743576802,1999-04-30 18:00:00,41.43852583333333,303957
050137,CONDOBOLIN AIRPORT AWS                  ,-33.0682,147.2133,6.2185802,0.0020887025092016787,1.187310135241486,5.237536563862387,1993-06-15 00:00:00,40.79971595,384449
051049,TRANGIE RESEARCH STATION AWS            ,-31.9861,147.9489,6.804929,0.0017963767313381451,1.315803794945146,5.171689583009402,1997-10-10 10:00:00,41.30020691666667,324756
051161,COONAMBLE AIRPORT AWS                   ,-30.9776,148.3798,6.300622,0.0005746814763982755,1.116049340767178,5.64546902743393,1997-09-17 10:00:00,41.89329145,320949
052088,WALGETT AIRPORT AWS                     ,-30.0372,148.1223,6.490273,0.0011604822509458934,1.228505026405134,5.283065888465861,1997-05-23 10:00:00,37.90314631666667,359181
053000,MOREE AUTOSONDE                         ,-29.4917,149.8461,5.68134,0.00021866325011876686,1.1911930547874967,4.7694537797686,2000-06-30 11:00:00,43.09932785,16068
053115,MOREE AERO                              ,-29.4898,149.8471,5.6745696,0.00018257580162184261,0.9934867985833313,5.711771525170434,1989-01-06 12:30:00,38.91552525,463026
054038,NARRABRI AIRPORT AWS                    ,-30.3154,149.8302,5.81251,0.0004857186218168996,1.0288204645346009,5.649683510338882,2001-07-13 15:00:00,36.69276155,311683
055024,GUNNEDAH RESOURCE CENTRE                ,-31.0261,150.2687,4.7722683,,,,,,
055202,GUNNEDAH AIRPORT AWS                    ,-30.9537,150.2494,4.8859096,0.0001937909328816323,0.9794331447962378,4.988507468122287,2001-09-14 09:00:00,39.56289051666667,286633
055325,TAMWORTH AIRPORT AWS                    ,-31.0742,150.8362,4.44476,2.5255984874461568e-05,0.8998371521179,4.939515817136736,1989-01-01 18:00:00,52.06705313333334,346203
056018,INVERELL RESEARCH CENTRE                ,-29.7752,151.082,4.4586205,3.0872478160026695e-05,1.0649039340697752,4.186875835089319,2002-12-18 10:30:00,36.970879833333335,288975
056238,ARMIDALE AIRPORT AWS                    ,-30.5273,151.6158,6.852955,0.0008425869303277933,1.1000259581500975,6.229811954643778,1993-06-19 11:00:00,36.28950613333333,432053
056243,GLEN INNES AIRPORT AWS                  ,-29.678,151.694,6.608227,0.0013320875138911337,1.1229106111776694,5.884909012652903,1996-10-16 10:00:00,41.629284500000004,334607
058009,BYRON BAY (CAPE BYRON LIGHTHOUSE)       ,-28.6388,153.6361,7.9893312,0.0013673801818206988,0.9406081693939353,8.493793170614445,1994-06-28 03:00:00,198.9247988333333,22247
058012,YAMBA PILOT STATION                     ,-29.4325,153.3632,7.1609964,0.00045970333448397405,1.2463844681328693,5.74541533544637,2007-10-10 14:00:00,34.70168881666667,234956
058077,GRAFTON RESEARCH STN                    ,-29.6224,152.9605,4.9202986,0.00020087164222970522,1.2162012514652525,4.0456286082810005,2002-08-30 09:00:00,32.08695496666667,337899
058161,GRAFTON AIRPORT AWS                     ,-29.7583,153.0297,4.696321,0.0004123735334254919,1.3053620296180073,3.597715349483469,2006-04-07 12:00:00,31.731315533333333,281959
058198,BALLINA AIRPORT AWS                     ,-28.8353,153.5585,5.639257,0.0010502962865638343,1.026897202518021,5.491549631613834,1995-07-23 13:30:00,41.35725348333334,352506
058208,CASINO AIRPORT AWS                      ,-28.8824,153.0618,5.3796363,0.0004704528347011516,1.263743664725574,4.256904653885972,1995-07-20 10:00:00,39.37768331666667,370342
058212,EVANS HEAD RAAF BOMBING RANGE AWS       ,-29.183,153.3964,6.419108,0.00025109660000410816,0.9951156248700711,6.450615138124345,1998-03-01 11:00:00,37.945265283333335,348079
058214,LISMORE AIRPORT AWS                     ,-28.8305,153.2601,4.5676584,0.0001573756111394875,1.0290103489571423,4.438884826577854,2002-02-22 10:00:00,38.33451753333333,289928
058216,BYRON BAY (CAPE BYRON AWS)              ,-28.6399,153.6358,7.869695,0.0013811865487857178,0.9441027509273912,8.335634208124695,2002-11-26 10:00:00,36.06982121666667,297073
059007,KEMPSEY AIRPORT AWS                     ,-31.0711,152.7717,4.549746,0.00020658050165889286,1.1249924624381502,4.044245795806544,2001-02-16 10:00:00,35.792059583333334,325449
059040,COFFS HARBOUR MO                        ,-30.3107,153.1187,6.163791,0.0006199135212879847,1.0533265908935523,5.851737944285778,1989-01-10 17:30:00,44.60900235,313851
059151,COFFS HARBOUR AIRPORT                   ,-30.3189,153.1162,6.177133,0.0009080655771968038,1.078679546123477,5.726569216541356,2015-02-06 13:30:00,30.218630299999997,142295
060139,PORT MACQUARIE AIRPORT AWS (COMPARISON) ,-31.4335,152.8655,5.4161415,0.0005551055450377929,1.135050947599913,4.771716654183938,1995-07-20 10:00:00,40.72818363333333,325948
060141,TAREE AIRPORT AWS                       ,-31.8895,152.512,5.3712063,0.0005034869836665345,1.1949803448834746,4.494807221363206,1997-06-19 10:00:00,41.998347933333335,323232
060168,PORT MAQUARIE (PORT MACQUARIE AIRPORT AW,-31.4343,152.8662,5.437029,0.0013988187474027747,1.250398253358494,4.348237747680921,2020-10-15 15:00:00,30.168893183333335,43341
061055,NEWCASTLE NOBBYS SIGNAL STATION AWS     ,-32.9184,151.7985,7.647431,0.0018966348466136207,1.080121627531321,7.080157180296138,2001-10-16 16:00:00,32.9344642,343095
061078,WILLIAMTOWN RAAF                        ,-32.7939,151.8364,6.0903215,0.0010529675610969624,1.021974630890175,5.959366658179803,1989-02-20 13:30:00,44.1489168,406670
061087,GOSFORD (NARARA RESEARCH STATION) AWS   ,-33.3949,151.3289,5.132375,0.001617746143150578,1.6774271367598856,3.059670760664128,1999-04-30 18:00:00,50.954307166666666,145362
061250,PATERSON (TOCAL AWS)                    ,-32.6296,151.5919,5.5844955,0.0016790463388663968,1.386757518273952,4.027016598680076,2002-07-18 10:00:00,37.53725665,290485
061260,CESSNOCK AIRPORT AWS                    ,-32.7914,151.3369,5.59944,0.0010967728998668713,1.2289243779455215,4.5563748252515035,1994-06-28 00:00:00,40.06162271666667,377945
061287,MERRIWA (ROSCOMMON)                     ,-32.1852,150.1737,6.1609936,0.0013649422638083442,1.1993614856807882,5.136894630689818,2007-08-02 16:00:00,30.207100266666664,273201
061363,SCONE AIRPORT AWS                       ,-32.0335,150.8264,4.981134,0.0004572184293948345,1.026801135522106,4.851118454697555,1989-01-01 11:00:00,43.5929066,413512
061366,NORAH HEAD AWS                          ,-33.2814,151.5766,7.2648263,0.001359818483923303,1.0603917759667922,6.8510775568175655,1989-10-25 10:00:00,32.705017649999995,538100
061375,MANGROVE MOUNTAIN AWS                   ,-33.2894,151.2107,5.8208604,0.001063300172771453,1.4306152469163096,4.068781175401029,1994-06-28 00:00:00,39.33353421666666,384941
061379,WILLIAMTOWN COMPARISON AWS              ,-32.8081,151.8419,6.257231,0.001331165992656702,1.1089941003061574,5.642258361678147,1995-07-20 10:00:00,68.18686223333333,31360
061392,MURRURUNDI GAP AWS                      ,-31.7416,150.7937,7.8514023,0.002475141855772134,0.9913137896720838,7.920198795289638,2003-06-20 11:00:00,33.89022976666667,307424
061412,COORANBONG (LAKE MACQUARIE AWS)         ,-33.0887,151.4636,4.5537534,0.001378879465094629,1.7887240973581033,2.5458109401739764,2008-07-31 09:00:00,30.034507816666668,257333
061425,GOSFORD AWS                             ,-33.4351,151.3614,5.557721,0.0026167805612550277,1.5526339938729086,3.579543639990287,2013-06-04 14:30:00,30.0243385,172566
061428,MAITLAND AIRPORT AWS                    ,-32.7023,151.4881,5.980704,0.002470687296181495,1.2701325270047472,4.708724250077126,2016-07-11 11:00:00,30.203947916666667,117530
061430,SINGLETON DEFENCE AWS                   ,-32.6976,151.1564,5.506022,0.0003393813802892165,1.1539311715409093,4.771534136753101,2017-04-03 13:30:00,30.017631333333334,105494
062100,NULLO MOUNTAIN AWS                      ,-32.7244,150.229,7.790032,0.0030870844241430717,1.2837573801563067,6.068149660019197,1989-01-03 10:00:00,40.00712535,450504
062101,MUDGEE AIRPORT AWS                      ,-32.5628,149.6149,4.7964463,0.00018285146020224907,1.0215458423634756,4.695282506654415,1989-01-01 11:00:00,44.1297046,408482
063291,BATHURST AIRPORT AWS                    ,-33.4119,149.654,4.5955534,0.00010043036945839301,0.9441516713857897,4.86738893485953,1989-01-01 11:00:00,42.8782552,420404
063292,MOUNT BOYCE AWS                         ,-33.6185,150.2741,7.1276574,0.00138779183867499,1.0905337381245523,6.535934803576522,1989-09-25 00:00:00,40.23620771666666,438470
063303,ORANGE AIRPORT AWS                      ,-33.3768,149.1263,6.7261634,0.0021986571502046193,1.1611725889401003,5.7925612879288835,1996-03-14 14:00:00,38.94588148333333,365642
063308,MARRANGAROO (DEFENCE)                   ,-33.4346,150.135,5.7547545,0.0032020259942733276,1.67379188482018,3.438154166891956,2017-12-07 12:00:00,30.03848825,93535
064017,COONABARABRAN AIRPORT AWS               ,-31.333,149.2699,6.5363307,0.0001691242477744881,1.0882255338203604,6.00641181150565,2001-07-02 11:00:00,35.02128321666667,327018
065068,PARKES AIRPORT AWS                      ,-33.1281,148.2428,6.213931,0.0016240837720857826,1.1940007731214717,5.204294020207493,1997-09-25 10:00:00,38.00663145,353467
065070,DUBBO AIRPORT AWS                       ,-32.2206,148.5753,6.046174,0.00038564065667390235,1.0201886617935094,5.92652543182372,1989-01-02 09:00:00,49.577304016666666,363571
065091,COWRA AIRPORT COMPARISON                ,-33.8451,148.6534,4.434647,2.269159581347324e-06,1.1085305527154228,4.000473484848473,2004-07-06 09:00:00,67.5,176
065103,FORBES AIRPORT AWS                      ,-33.3627,147.9205,5.9218216,0.0015260679700586088,1.2295319469443466,4.816321860489507,1996-01-10 11:00:00,43.779407533333334,327382
065111,COWRA AIRPORT AWS                       ,-33.8382,148.654,4.4077425,0.00013736648827467057,1.0604984796469321,4.156293087541841,2004-07-14 16:00:00,35.67067278333333,276327
066022,FORT DENISON                            ,-33.8551,151.2254,6.0842576,0.0004130747748900543,0.9630326568121347,6.317810262875175,1990-08-13 00:00:00,31.723504316666666,541513
066037,SYDNEY AIRPORT AMO                      ,-33.9465,151.1731,6.1535954,0.0003034957866372423,0.8342694255113665,7.376028965424963,1970-01-02 04:30:00,60.93414813333333,459820
066043,KURNELL AWS                             ,-34.0039,151.2111,6.999187,0.001009463690897494,0.9416197390472372,7.433135375568145,2000-03-17 13:00:00,30.60297095,396437
066051,LITTLE BAY (THE COAST GOLF CLUB)        ,-33.9829,151.2502,7.291409,0.0014543192951694817,1.089127407907219,6.694725486402102,1999-04-30 18:00:00,30.848563066666667,408302
066059,TERREY HILLS AWS                        ,-33.6908,151.2253,6.041613,0.0003160874589874796,1.216833443418988,4.965028808695342,2004-09-23 10:00:00,33.44438158333333,291675
066062,SYDNEY (OBSERVATORY HILL)               ,-33.8607,151.205,5.9411345,0.014768972879100395,35037.57038393887,0.00016956468121839932,1993-09-06 00:00:00,79.01405845,32436
066137,BANKSTOWN AIRPORT AWS                   ,-33.9176,150.9837,4.4226813,0.00016674267212957172,0.9389188162173596,4.71039801870439,1989-05-31 11:30:00,40.94666175,434960
066161,HOLSWORTHY AERODROME AWS                ,-33.9925,150.9489,4.692504,8.25002435587141e-05,0.9991883047057094,4.696315906660121,2012-08-31 10:00:00,30.057687950000002,185654
066193,MARSFIELD (MACQUARIE UNIVERSITY NO:2)   ,-33.7654,151.1176,4.9263644,,,,,,
066194,CANTERBURY RACECOURSE AWS               ,-33.9057,151.1134,4.9800696,0.0004972295535634608,1.0026734257988168,4.966791289328355,1996-01-10 11:00:00,32.50528993333333,440931
066195,SYDNEY OLYMPIC PARK (SYDNEY OLYMPIC PK (,-33.8521,151.0646,4.6605263,3.7116933061187574e-05,0.9395022901711734,4.960633225051146,1996-01-10 11:00:00,32.36430996666667,224298
066196,SYDNEY HARBOUR (WEDDING CAKE WEST)      ,-33.8405,151.2643,6.9473424,0.0011433705811192407,0.9736312906864445,7.135496221453964,1996-02-28 19:30:00,35.734560099999996,399096
066197,MANLY (NORTH HEAD)                      ,-33.8152,151.2986,8.081692,0.002171846915920095,1.1941417877939111,6.767782372706083,1997-08-28 10:00:00,31.026010016666664,434294
066198,SYDNEY HARBOUR (SHARK ISLAND)           ,-33.8614,151.2569,6.568132,0.0005601579673705226,0.9542514217336749,6.883020317373609,1997-08-28 17:00:00,32.21398595,58144
066199,MIDDLE HEAD                             ,-33.8283,151.2636,6.8600187,0.0009093527342706187,1.1936358775251266,5.747161977392195,1997-09-08 14:30:00,31.545024983333334,58834
066200,SYDNEY HARBOUR (CLARKE ISLAND)          ,-33.8642,151.2394,6.2827954,0.0004504848331023936,0.9970232441894398,6.301553615570443,1997-08-28 10:00:00,32.25790343333333,58076
066201,SOUTH HEAD                              ,-33.8361,151.28,7.2493324,0.0011388924535351563,1.0360729524402001,6.996932417649356,1997-08-28 17:00:00,31.5538171,59312
066202,SYDNEY HARBOUR (CANNAE POINT)           ,-33.8153,151.2842,7.2391496,0.0032049931964547307,1.0225777394155302,7.079314649077667,1997-08-28 14:00:00,38.87098448333334,48157
066203,SYDNEY HARBOUR (BOMBORA)                ,-33.8167,151.2722,6.909982,0.0012269960456757767,1.1063234379740876,6.245896965801335,1998-10-30 16:00:00,57.51984576666667,17636
066208,WATTAMOLLA AWS                          ,-34.1407,151.1185,7.072532,0.0009438543710629244,0.8569608555211489,8.253039950897609,2007-06-26 09:00:00,31.12469648333333,266872
066212,SYDNEY OLYMPIC PARK AWS (ARCHERY CENTRE),-33.8338,151.0718,4.684545,0.0005682649898097747,1.2053044983123495,3.8866071160356985,2011-08-31 15:00:00,30.028617083333334,203375
067033,RICHMOND RAAF                           ,-33.6022,150.7794,4.3324103,1.0800249583553523e-11,0.30110738825080663,14.388256497818318,1985-01-02 17:00:00,2922.635173583333,1757
067105,RICHMOND RAAF                           ,-33.6004,150.7761,4.3344035,0.00019577883877208713,1.0573550852070899,4.099288475085112,1989-01-18 16:30:00,41.69109268333333,431780
067108,BADGERYS CREEK AWS                      ,-33.8969,150.7281,4.821594,0.00016698601492937115,1.1469050000897918,4.204004898316569,1996-01-10 11:00:00,32.270338833333334,442282
067113,PENRITH LAKES AWS                       ,-33.7195,150.6783,3.816948,1.776231652117488e-05,1.0020846440670188,3.809007512100389,1996-01-10 11:00:00,31.794876900000002,450783
067117,HOLSWORTHY CONTROL RANGE                ,-33.9795,150.9254,4.415331,9.697262071117763e-06,0.9220515500327235,4.788594397660435,1998-04-30 17:00:00,31.90194035,269693
067119,HORSLEY PARK EQUESTRIAN CENTRE AWS      ,-33.851,150.8567,4.9068336,0.0002785665490167011,1.1567970433856136,4.241741173819691,1997-09-04 13:30:00,31.338289433333333,429638
068072,NOWRA RAN AIR STATION AWS               ,-34.9469,150.5353,5.3677278,0.00034986658830482575,0.9619058099883117,5.580304953730832,2000-11-29 10:00:00,30.978887816666667,379686
068076,NOWRA RAN AIR STATION                   ,-34.9449,150.545,5.51312,7.894063074331825e-07,0.3460425593790026,15.931913647562995,1989-06-10 16:00:00,2193.0752453500004,2751
068151,JERVIS BAY (POINT PERPENDICULAR AWS)    ,-35.0936,150.8049,7.490162,0.0023720095477141045,1.0963119700441162,6.8321445906045755,2004-10-08 10:00:00,40.4166113,240824
068192,CAMDEN AIRPORT AWS                      ,-34.039,150.689,4.4065576,0.0003574149200549215,1.1407179497469229,3.8629685462078247,1994-09-19 15:00:00,38.34601265,391714
068228,BELLAMBI AWS                            ,-34.3691,150.9291,6.8187523,0.001100631059962054,1.0134824391001818,6.728041873988832,1989-01-01 11:00:00,32.9824404,546539
068239,MOSS VALE AWS                           ,-34.5253,150.4217,7.361471,0.0037999659301313216,1.1016844626480682,6.682014157168951,2001-02-26 16:00:00,34.97656448333333,332615
068241,ALBION PARK (SHELLHARBOUR AIRPORT)      ,-34.5639,150.7924,4.9378114,0.00026573282511099805,0.9008518905913158,5.481268814813882,1999-06-04 15:00:00,37.17944081666667,337426
068242,KIAMA (BOMBO HEADLAND)                  ,-34.6532,150.8609,6.930965,0.0018099168275221844,1.0718048862164138,6.466629361257977,2001-12-17 16:00:00,38.387208333333334,292034
068253,PORT KEMBLA NTC AWS                     ,-34.4734,150.9118,6.519816,0.0007010432890934837,1.0989842036291089,5.932583835375845,2012-07-11 14:30:00,30.02565205,188289
068257,CAMPBELLTOWN (MOUNT ANNAN)              ,-34.0615,150.7735,4.621676,0.0004111464527020159,1.3182892723422355,3.505813227136959,2006-11-14 12:00:00,30.997309316666666,278369
068262,HIGH RANGE AWS (WANGANDERRY)            ,-34.3335,150.267,7.0253158,0.0008712740233500771,0.958631823908096,7.32848168228523,2014-07-01 12:30:00,30.193252183333335,152909
068263,HOLSWORTHY DEFENCE AWS                  ,-34.081,150.9009,5.021655,0.00019155646518886904,1.2333438145966087,4.071577627642358,2017-12-13 11:00:00,30.08700415,93099
068264,JERVIS BAY NSW (JERVIS BAY AIRFIELD AWS),-35.144,150.6974,6.817914,0.001417352300318031,1.0171680165962647,6.7028395484837695,2018-10-12 14:30:00,30.0121849,78786
069017,MONTAGUE ISLAND LIGHTHOUSE              ,-36.2519,150.2275,7.69899,0.0023653602765015824,0.9179246122652518,8.387387989482619,1998-04-15 10:00:00,40.855994466666665,321696
069128,NERRIGA AWS                             ,-35.1103,150.0826,5.4236255,0.0009568456504527312,1.0483620455943439,5.173427912618649,2013-06-25 13:00:00,30.197150883333332,170580
069132,BRAIDWOOD RACECOURSE AWS                ,-35.4253,149.7835,5.866378,0.0028115623195641426,1.2291894929584912,4.772557741594261,1989-01-01 11:00:00,42.952123150000006,419681
069137,GREEN CAPE AWS                          ,-37.2622,150.0504,8.582402,0.007243188076739293,1.019289119642708,8.419988071998135,2000-07-28 14:30:00,42.785059583333336,279082
069138,ULLADULLA AWS                           ,-35.3635,150.4828,7.3889804,0.0028335770715675057,1.3217694794503454,5.590218645171053,1992-09-22 00:00:00,40.43272471666667,397412
069139,BEGA AWS                                ,-36.6722,149.8191,4.388587,0.00036934689631373807,1.0614234833699483,4.134623990089583,1992-04-03 00:00:00,41.32768826666667,394799
069147,MERIMBULA AIRPORT AWS                   ,-36.9077,149.8989,5.189962,0.001215212454217185,1.2133954229998167,4.277222257371731,1998-04-28 10:00:00,37.74963183333333,347672
069148,MORUYA AIRPORT AWS                      ,-35.9004,150.1437,5.545583,0.000629741471305123,1.1881204128968623,4.667525876253645,1999-10-01 11:00:00,40.12084053333333,308423
070014,CANBERRA AIRPORT COMPARISON             ,-35.3049,149.2014,4.76841,0.00010212980135992922,0.8702105237481127,5.479605308957752,1985-01-02 16:00:00,61.40473813333333,215485
070217,COOMA AIRPORT AWS                       ,-36.2939,148.9725,5.915596,0.0007801685424700944,0.9904328801916521,5.97273790744517,1992-04-20 14:00:00,43.235666450000004,376791
070328,BOMBALA AWS                             ,-37.0016,149.2336,6.2685394,0.0016268248328114021,1.1613001045631464,5.397863484279125,1989-02-20 21:00:00,42.81412606666667,419338
070330,GOULBURN AIRPORT AWS                    ,-34.8085,149.7311,6.5079293,0.0033652690674139674,1.0994624095749155,5.9191922055979305,1989-01-03 10:00:00,42.58840403333333,423199
070339,TUGGERANONG (ISABELLA PLAINS) AWS       ,-35.4184,149.0937,4.302654,0.00016350175409762802,0.9924249063883663,4.335495574348779,1996-08-09 13:00:00,32.3713598,433321
070349,MOUNT GININI AWS                        ,-35.5293,148.7721,9.463778,0.010408754520817576,1.2264407374503976,7.716457267872686,2004-06-28 11:30:00,30.97378535,318982
070351,CANBERRA AIRPORT                        ,-35.3088,149.2004,4.7843604,0.0002043893408351094,0.9327519900420769,5.129295310929472,2010-03-01 10:30:00,30.252275566666665,227965
071032,THREDBO AWS                             ,-36.4917,148.2859,10.605777,0.03423265006701315,1.0716508081895308,9.89667222359662,1998-04-27 10:00:00,41.78608946666667,314122
071075,PERISHER VALLEY AWS                     ,-36.4069,148.4055,7.636665,0.007430515213193933,1.1541823193918057,6.61651520656221,2010-05-25 15:00:00,30.259316166666668,223858
072150,WAGGA WAGGA AMO                         ,-35.1583,147.4575,5.133038,0.00018837157541051752,1.0592188688975854,4.846059860431109,1989-01-17 17:00:00,40.22035101666667,447604
072160,ALBURY AIRPORT AWS                      ,-36.069,146.9509,4.232577,0.00014776203396038579,1.0923119780497035,3.8748790932729484,1993-09-02 11:00:00,41.86222636666666,371958
072161,CABRAMURRA SMHEA AWS                    ,-35.9371,148.3779,6.377395,0.0011187316185863327,0.8633858130218507,7.386495187736255,1996-12-12 11:00:00,42.43332688333333,326331
072162,KHANCOBAN AWS                           ,-36.2304,148.1405,2.0612864,1.4078593513211501e-08,0.7304476002713031,2.8219497862225427,1996-12-21 11:00:00,47.2204018,292974
073138,YOUNG AIRPORT                           ,-34.2493,148.2475,5.8227196,0.0010597261018842064,1.2893218413098804,4.516110242931311,1989-01-01 11:00:00,44.64259798333333,403789
073151,TEMORA AIRPORT                          ,-34.4277,147.5117,6.0901575,0.0017704779959430983,1.1950960528415087,5.0959565085751,2005-01-31 19:00:00,37.73175261666667,253557
074023,FINLEY AIRPORT AWS                      ,-35.6613,145.561,6.8267584,0.0011902743678873229,1.680485162316626,4.06237349652858,2001-03-15 16:00:00,63.85407725,20970
074037,YANCO AGRICULTURAL INSTITUTE            ,-34.6222,146.4326,6.437553,0.0010836963422543588,1.2387612537423986,5.19676645477584,1999-08-05 17:00:00,41.05915315,303365
074148,NARRANDERA AIRPORT AWS                  ,-34.705,146.514,6.2357206,0.003228361124630097,1.256578174786609,4.962461357025713,2007-03-13 09:00:00,30.901222150000002,273695
074253,FINLEY (CSIRO)                          ,-35.7111,145.6236,6.868836,0.002033721337230454,1.834550622835353,3.744151750601418,1989-05-04 00:00:00,70.2362435,88849
074258,DENILIQUIN AIRPORT AWS                  ,-35.5575,144.9458,6.8295126,0.0010155247586369764,1.1445711525319375,5.96687465084422,1997-05-23 10:00:00,39.15740516666666,347676
074272,KAPOOKA (DEFENCE)                       ,-35.1327,147.2512,5.4974,0.0015387626275394917,1.3332298144410584,4.123369990252612,2017-10-03 10:30:00,30.007751683333332,96753
075019,HAY AIRPORT AWS                         ,-34.5412,144.8345,6.8656693,0.001582127628928287,1.109519619963335,6.187965608679513,2007-06-26 09:00:00,35.583577149999996,233431
075041,GRIFFITH AIRPORT AWS                    ,-34.2487,146.0695,6.419528,0.0018636838874084294,1.1442574473023988,5.610213001140121,2000-06-13 18:00:00,36.13717226666667,332210
075174,GRIFFITH CSIRO                          ,-34.3229,146.0684,6.6753535,0.002005925345459514,2.0262205472185677,3.2944851616634128,1989-03-01 12:00:00,68.23844,112565
075175,HAY CSIRO AWS                           ,-34.5471,144.867,6.8976617,0.0012001964255874409,1.6174663343946367,4.2644854729079515,1996-09-13 12:00:00,67.02016446666667,86092
200288,NORFOLK ISLAND AERO                     ,-29.0389,167.9408,,,,7.640372780379063,1994-07-25 05:00:00,37.37874481666667,404024
200839,LORD HOWE ISLAND AERO                   ,-31.5421,159.0786,7.7876163,0.0033001243467307706,0.9783972924238705,7.959564394956794,1994-07-23 03:30:00,37.5731133,402013
091104,LAUNCESTON AIRPORT COMPARISON           ,-41.5397,147.2033,6.223383,0.0005410026190119099,1.0343852488826322,6.01650396363613,1990-10-05 17:00:00,63.345120083333335,155259
091107,WYNYARD AIRPORT                         ,-40.9964,145.7311,6.9946613,0.0015347504835180326,1.1083022392334139,6.311149687845797,1990-10-02 11:00:00,44.304699049999996,386099
091126,DEVONPORT AIRPORT                       ,-41.1701,146.4289,6.906388,0.0008588579201979085,1.0062304653237282,6.863624233158924,1990-10-20 11:00:00,43.503235966666665,392617
091219,SCOTTSDALE (WEST MINSTONE ROAD)         ,-41.1708,147.4883,5.9942064,0.0005000766479860141,1.1377916462338185,5.268281278359826,2003-01-22 13:30:00,33.543473999999996,316994
091237,LAUNCESTON (TI TREE BEND)               ,-41.4194,147.1219,5.517305,0.0010897091199331133,1.1942050784290772,4.620064842268227,1999-10-15 13:00:00,34.24127608333333,360790
091245,CAPE GRIM BAPS (COMPARISON)             ,-40.6828,144.69,9.765862,0.009900869510332977,0.7657126041568431,12.75395286937763,1997-05-19 11:00:00,37.00350961666666,367560
091259,LUNCHEON HILL (FORESTRY)                ,-41.1492,145.1517,7.2476306,0.000636394944341534,0.8580343503008865,8.446783737293694,1997-11-05 12:00:00,39.254325333333334,340725
091291,SHEFFIELD SCHOOL FARM                   ,-41.389,146.3173,6.3933864,0.0021934641133509736,1.2619140076243323,5.066419997999138,2003-04-15 13:00:00,36.463613,288331
091292,SMITHTON AERODROME                      ,-40.8347,145.0847,7.9246025,0.005636616606282563,1.0943312943251942,7.2415022303017755,1998-07-24 05:00:00,36.62525038333333,354933
091293,LOW HEAD                                ,-41.0547,146.7874,8.850545,0.005852140312766929,1.0312855353622805,8.582050873423029,2000-06-06 16:00:00,41.32686016666666,290739
091306,CRESSY RESEARCH STATION                 ,-41.7256,147.0794,6.325494,0.001920561381710928,1.0525662285289505,6.009592214830455,2000-06-30 12:00:00,35.887045683333334,326787
091311,LAUNCESTON AIRPORT                      ,-41.5476,147.2156,6.3953533,0.0010633099120183065,1.0059461480526508,6.35755038144051,2004-07-14 16:00:00,30.209266183333334,326283
091331,CAPE GRIM                               ,-40.6764,144.6922,10.401933,0.013667514239559475,0.901482058397371,11.538701873736551,2010-12-17 12:00:00,31.162583700000003,207856
091344,BURNIE NTC AWS                          ,-41.05,145.9149,7.120767,0.0016075820766812132,1.1071028313324356,6.431893149416434,2013-05-16 10:00:00,30.9084166,168524
091375,CRESSY (BRUMBYS CREEK)                  ,-41.7114,147.082,6.2882853,0.0017946720595857224,1.1619039040433246,5.412052781257937,2022-12-16 06:30:00,29.994630383333334,5587
092012,FINGAL (LEGGE STREET)                   ,-41.6428,147.9664,4.9386673,0.00038076903671302453,1.0955858382513937,4.50778672463093,2001-04-10 11:00:00,37.034300316666666,292592
092037,SWAN ISLAND LIGHTHOUSE                  ,-40.7314,148.1253,9.959597,0.00021744739535201063,1.1520561618661929,8.645061728395063,2001-02-15 15:30:00,29.166666666666668,36
092045,LARAPUNA (EDDYSTONE POINT)              ,-40.9928,148.3467,8.358269,0.00343712659122708,0.9412776503925733,8.87970593406423,1994-06-27 17:30:00,44.44834256666666,340619
092100,STORYS CREEK (STORYS CREEK ROAD)        ,-41.635,147.7292,7.4738994,0.012989384930925496,1.4190758677413653,5.266736990156185,1992-05-27 10:00:00,41.241340933333326,71890
092114,FRIENDLY BEACHES                        ,-41.9953,148.2794,6.8681216,0.0014794284517557488,1.1096869881976958,6.1892422791654225,1997-11-02 17:00:00,36.42364181666667,367315
092120,ST HELENS AERODROME                     ,-41.3381,148.2792,6.887335,0.0011377809903295732,1.2011415210143053,5.733991126867699,2001-01-10 12:30:00,35.06187413333334,333742
092123,SWAN ISLAND                             ,-40.7292,148.125,9.807541,0.015528844282471144,1.0994985715706145,8.920012401239218,2003-12-09 10:30:00,31.968455916666667,318158
092124,MARIA ISLAND (POINT LESUEUR)            ,-42.6621,148.0179,7.994164,0.004145302489942271,0.9709329916555128,8.233486820125567,2004-10-08 17:00:00,31.391089233333332,310052
092133,SPRING BAY NTC AWS                      ,-42.5464,147.9308,6.9264793,0.0031012126109714044,1.0200512730468683,6.790324685258599,2013-05-16 10:00:00,32.2924597,24694
092163,FINGAL (FLEMING ST)                     ,-41.643,147.98,4.9750752,0.0008955837404074352,1.2356786796935322,4.026188463604035,2022-07-22 16:00:00,30.009509466666668,12619
094008,HOBART AIRPORT WEST                     ,-42.8339,147.5033,7.273921,0.002005403517131521,1.108129093854497,6.564145868219142,1984-12-02 01:00:00,44.73264965,442902
094029,HOBART (ELLERSLIE ROAD)                 ,-42.8897,147.3278,5.7155623,0.0001640187155691475,0.8498847101545512,6.725103152588825,1994-10-20 11:00:00,31.072904649999998,481972
094041,MAATSUYKER ISLAND LIGHTHOUSE            ,-43.6578,146.2711,11.00239,0.03564766938120845,0.8972569404248909,12.262251103487475,1997-11-17 01:00:00,39.965982716666666,334242
094087,KUNANYI (MOUNT WELLINGTON PINNACLE)     ,-42.895,147.2358,14.577116,0.12575970511571133,1.2186050637751302,11.962133135582608,1990-07-05 10:30:00,32.6151185,528412
094155,TASMAN ISLAND                           ,-43.2397,148.0025,13.24206,0.0654032510346304,1.2963070374131886,10.215218559691264,2001-12-14 15:30:00,32.561269833333334,344419
094191,HARTZ MOUNTAIN (KEOGHS PIMPLE)          ,-43.2006,146.7683,9.149965,0.01188166144327707,0.8574076645980395,10.671662575519976,1999-06-16 10:30:00,31.628096016666667,396113
094195,TUNNACK FIRE STATION                    ,-42.4543,147.4612,8.39643,0.008547478036350142,1.2264325126853035,6.846222624333221,1998-02-13 12:00:00,39.638841533333334,333787
094198,CAPE BRUNY (CAPE BRUNY)                 ,-43.4886,147.1444,9.06314,0.006798968604695421,1.0181513748675195,8.901564285217994,1997-11-17 17:30:00,36.56854691666667,365268
094212,CAMPANIA (KINCORA)                      ,-42.6867,147.4258,6.586143,0.001402690540042384,1.0865286260270546,6.06163782439653,2001-05-23 14:00:00,38.82745243333333,296440
094220,GROVE (RESEARCH STATION)                ,-42.9844,147.0756,5.5539703,0.0013678852981672263,1.2489527009943662,4.446902058414393,2005-03-07 08:00:00,32.25234841666666,295092
094250,HOBART AIRPORT                          ,-42.8333,147.5119,7.2654095,0.0025129732584173725,1.1685222055753153,6.217604967145155,2022-08-04 13:30:00,30.0801871,11972
094254,DUNALLEY (STROUD POINT)                 ,-42.9017,147.7894,8.562824,0.010465653955303411,1.178920843722061,7.263273267977205,2012-04-05 20:00:00,30.0416954,192827
094255,DENNES POINT                            ,-43.0639,147.3567,7.348834,0.0033044646709949888,1.2483068402571613,5.887041391415305,2012-09-28 10:30:00,30.01495335,184574
095003,BUSHY PARK (BUSHY PARK ESTATES)         ,-42.7097,146.8983,4.6503453,0.00013895514547235255,0.9710534913763161,4.7889692656156715,1998-07-22 13:30:00,39.60184578333334,328315
095048,OUSE FIRE STATION                       ,-42.4842,146.7106,4.970779,0.0004757163753204008,1.0532540067092198,4.719449354518788,1999-12-10 11:00:00,37.86178556666667,324163
096003,BUTLERS GORGE                           ,-42.2753,146.2758,6.9902415,0.008231767643798626,1.6249809561274111,4.301737507260537,2008-05-21 12:00:00,30.160257883333333,259644
096033,LIAWENEE                                ,-41.8997,146.6694,7.8315535,0.005328477177339863,1.0387833328090017,7.539159718697034,2001-01-11 15:00:00,35.29293056666667,331512
096075,BARREN TIER                             ,-42.0197,146.7533,9.670485,0.010452947861140371,1.1145022904487754,8.676953493700472,1997-01-31 12:30:00,35.84214431666667,60625
097000,CAPE SORELL                             ,-42.1986,145.17,9.040999,0.010643744495870244,1.0309032287870223,8.76997875268507,2011-06-02 13:00:00,31.75280143333333,196417
097024,WARRA                                   ,-43.0609,146.704,7.7259054,0.005538776594437134,1.2330805819684927,6.265531654113264,2004-09-28 15:00:00,30.623472333333332,318298
097072,STRAHAN AERODROME                       ,-42.155,145.2908,7.043267,0.002333638102845925,1.0326550070777742,6.820541928281586,1993-05-30 03:30:00,42.575525133333336,368950
097080,LOW ROCKY POINT                         ,-42.9831,145.5025,9.783088,0.01183243001073997,0.9719037833087477,10.065901479570526,2012-03-28 17:30:00,30.091760233333332,192894
097083,SCOTTS PEAK DAM                         ,-43.0425,146.2722,6.941533,0.0020187301277998504,0.7973545322744284,8.705704686826799,1998-10-15 14:00:00,41.419814816666666,310949
097085,MOUNT READ                              ,-41.8444,145.5417,10.757934,0.029606931040797146,1.0131602224906966,10.61819579749339,1998-01-12 11:00:00,51.862339150000004,256006
098017,KING ISLAND AIRPORT                     ,-39.8804,143.8857,8.519295,0.007070211143164862,0.9872613831644312,8.629219053887189,1990-11-21 15:00:00,48.09088085,354200
099005,FLINDERS ISLAND AIRPORT                 ,-40.0911,148.0024,8.648583,0.007589061420205878,0.9822209741736212,8.805130046674867,1993-06-07 16:00:00,44.092404316666666,355979
200838,HOGAN ISLAND                            ,-39.2225,146.9841,10.713673,0.023616088782554057,0.8747917655459739,12.247111895541048,2003-05-09 10:00:00,31.242241016666664,335418
300000,DAVIS                                   ,-68.5744,77.9672,,,,7.996862964354913,2000-05-01 09:30:00,31.62850065,381535
300001,MAWSON                                  ,-67.6017,62.8753,,,,14.872244992050284,2000-09-22 05:30:00,31.833727433333333,372569
300004,MACQUARIE ISLAND                        ,-54.4994,158.9369,13.210157,0.04910227029457492,1.0132979042687424,13.036795338032832,1997-11-13 00:00:00,34.34581925,389105
300017,CASEY                                   ,-66.2825,110.5231,,,,8.863777838091629,1998-04-16 15:00:00,35.326181033333334,372002
300050,WILKINS RUNWAY EAST                     ,-66.6831,111.5317,,,,10.413655050994542,2007-11-09 20:00:00,75.74184545,106781
300055,DAVIS (WHOOP WHOOP)                     ,-68.4723,78.8735,,,,12.742167664556156,2007-02-15 13:30:00,80.47387168333333,105556
300060,CASEY SKIWAY SOUTH                      ,-66.2803,110.7615,,,,8.61786415801078,2010-01-05 15:30:00,80.02261969999999,86208
016001,WOOMERA AERODROME                       ,-31.1558,136.8054,7.554833,0.0015063694624454227,1.0613565503392823,7.118091401912213,1992-04-07 16:00:00,36.52364945,446543
016090,COOBER PEDY AIRPORT                     ,-29.0347,134.7222,7.636268,0.0009047312974040933,1.0419332463702848,7.328941816078399,1994-10-07 09:30:00,39.82389371666667,376534
016092,PORT AUGUSTA ARID LANDS                 ,-32.4783,137.7386,6.2530103,0.0004669605325571258,0.9409832183801963,6.64518787459742,1994-10-31 13:00:00,104.00148191666668,33740
016096,ROXBY DOWNS (OLYMPIC DAM AERODROME)     ,-30.4869,136.8739,7.5228577,0.0036352661453294965,1.2473496459096283,6.031073717529771,1998-09-06 09:30:00,41.398429283333336,312472
016097,ERNABELLA (PUKATJA)                     ,-26.2635,132.1771,6.9297357,0.0016436213386062937,1.1199568528277524,6.18750235159172,1997-08-11 10:30:00,45.25844813333333,298261
016098,TARCOOLA AERO                           ,-30.7051,134.5786,7.225655,0.0021806491118014915,1.174995565100931,6.149516894786972,1997-09-29 09:30:00,43.88085013333333,306018
017043,OODNADATTA AIRPORT                      ,-27.5553,135.4456,6.5099835,0.0009535628603901669,0.9791330446378178,6.648722127429933,1995-03-05 10:30:00,43.703093716666665,338201
017110,LEIGH CREEK AIRPORT                     ,-30.5963,138.4219,7.4333596,0.003899337970781902,1.1177464371970096,6.650309386443741,1992-07-29 09:30:00,47.96618878333334,336634
017123,MOOMBA AIRPORT                          ,-28.0997,140.1956,7.9937577,0.002294436077384332,1.2605095474711687,6.341687566586878,1995-10-19 11:30:00,41.47096294999999,348486
017126,MARREE AERO                             ,-29.6587,138.0684,6.9300995,0.0007538871992616158,1.05560727838747,6.565035718483303,1998-10-10 09:30:00,43.511213,296174
018012,CEDUNA AMO                              ,-32.1297,133.6976,7.64024,0.002448298137351812,1.0592815772598525,7.212662200901377,1992-04-14 09:30:00,35.40770685,460343
018083,WUDINNA AERO                            ,-33.043,135.4519,7.041612,0.002192663377938442,1.1060334332245267,6.366545473906531,1999-07-13 17:30:00,41.1483274,303511
018106,NULLARBOR                               ,-31.4492,130.8976,8.068025,0.002169602459411668,1.0421327877031317,7.741839361082695,1992-04-06 10:00:00,44.46300793333333,366849
018115,NEPTUNE ISLAND                          ,-35.3365,136.1174,8.759283,0.002911697908269506,0.8806718237116796,9.946137516786926,1995-08-15 13:00:00,40.14137911666667,362359
018116,CLEVE AERODROME                         ,-33.7081,136.5026,7.49255,0.001710701233600731,1.022098682748851,7.330554302339607,1996-07-16 17:30:00,43.45139578333333,323614
018120,WHYALLA AERO                            ,-33.0539,137.5206,6.8054705,0.0012538167422293522,0.9842213932444192,6.9145727915748685,1992-04-06 10:30:00,34.54799619999999,472131
018191,COULTA (COLES POINT)                    ,-34.3749,135.3741,7.9129443,0.002878620133729859,1.1456279873794488,6.907080137736833,1992-04-06 10:30:00,37.821600266666664,349440
018192,NORTH SHIELDS (PORT LINCOLN AWS)        ,-34.5993,135.8784,6.7399406,0.0009625832345487861,0.9487465765574368,7.104047392473003,1992-04-06 10:30:00,35.221571049999994,463102
018195,MINNIPA PIRSA                           ,-32.8427,135.1515,7.5427666,0.0011901173339047277,1.1117310386162382,6.78470449150483,1996-07-19 04:30:00,42.72982041666667,328996
018200,THEVENARD WIND                          ,-32.1803,133.6343,8.405201,0.004027195222931823,1.0670041527588368,7.87738354768305,2002-07-12 12:00:00,31.42446491666667,269259
018201,PORT AUGUSTA AERO                       ,-32.5073,137.7169,6.0209565,0.0004232531830777875,0.8618933123762729,6.985732955353676,2001-07-02 17:30:00,37.970226450000006,301610
018207,CEDUNA (THEVENARD NTC AWS)              ,-32.149,133.6416,8.236557,0.0036801362800436,1.146628259501771,7.183284502699121,2021-06-04 14:00:00,30.0240555,32425
018217,CUMMINS AERO                            ,-34.2524,135.7135,6.980287,0.0033363767624536855,1.1463238508943598,6.089280153768691,2007-05-25 08:30:00,35.46614918333333,235504
018229,CULTANA (DEFENCE)                       ,-32.6845,137.3689,7.730015,0.0017173235952998578,1.040844533610717,7.426675695946412,2017-12-06 14:30:00,30.01665846666667,93646
018230,COFFIN BAY (POINT AVOID)                ,-34.675,135.3362,8.706226,0.004334133047309008,1.180328396355088,7.37610513799567,2017-06-13 08:30:00,30.5667039,100264
020062,YUNTA AIRSTRIP                          ,-32.5707,139.5645,6.627433,0.0021418407500647385,1.13648097296145,5.831538741833347,1998-07-05 09:30:00,41.96605756666667,310408
021131,CLARE HIGH SCHOOL                       ,-33.8226,138.5933,7.7164545,0.01025199925481557,1.5212023297322284,5.072602345592456,1993-10-02 21:30:00,45.4309414,341775
021133,SNOWTOWN (RAYVILLE PARK)                ,-33.7676,138.2182,5.9311748,0.00033575787391915135,0.9203218176307416,6.444674722984983,1998-10-10 09:30:00,36.87708895,349456
021139,PORT PIRIE AERODROME AWS                ,-33.2371,137.9971,5.8863773,0.00023193553231160013,0.88275199061627,6.668211906818027,2015-01-22 11:00:00,30.404815,142139
022031,MINLATON AERO                           ,-34.748,137.5276,7.4820786,0.0010696514123730294,0.9569671966801016,7.818531897647929,2001-03-29 14:30:00,34.75662641666667,333438
022046,EDITHBURGH                              ,-35.1121,137.7395,7.637971,0.0017086850243674956,1.0464500537331975,7.298935001368747,1993-01-20 10:30:00,35.794838066666664,444059
022049,STENHOUSE BAY                           ,-35.2795,136.9392,7.8783484,0.0020997917040771474,1.0038036039938343,7.848495780628114,1996-06-25 19:30:00,41.556128316666666,339098
022050,KADINA AWS                              ,-33.9703,137.6628,6.9595814,0.0005770113962390022,0.9954791858950368,6.991187232975344,2005-07-19 18:30:00,31.522501283333334,295783
022053,MOONTA (WARBURTO POINT)                 ,-34.0041,137.528,7.919856,0.001446731284820868,1.022680703200713,7.744211899848279,2003-07-14 16:00:00,30.767026766666667,337498
022803,CAPE WILLOUGHBY                         ,-35.8426,138.1327,7.846968,0.0022117345646143205,0.8819271624657454,8.89752409035876,1995-06-26 14:30:00,43.67187311666667,334712
022823,CAPE BORDA                              ,-35.7549,136.5959,8.361429,0.0019829803341608887,1.0010675659223158,8.35251235691957,2002-09-09 16:30:00,32.53962528333333,332742
022841,KINGSCOTE AERO                          ,-35.7114,137.5231,6.6237054,0.002949538253870898,1.1154792551756436,5.937990649653551,1994-05-24 00:30:00,33.205377033333335,457500
022843,PARNDANA CFS AWS                        ,-35.7916,137.2496,7.8238273,0.0037994393611364696,1.2664616188570572,6.1777057829465685,2011-09-09 14:30:00,30.142896,202175
023000,ADELAIDE (WEST TERRACE / NGAYIRDAPIRA)  ,-34.9257,138.5832,4.7036448,0.00012080361683441954,0.9275040146384418,5.071293146193021,2017-05-08 12:30:00,30.03440665,103759
023013,PARAFIELD AIRPORT                       ,-34.7977,138.6281,5.23368,0.0002079340258119844,0.8597290185613828,6.087592320869958,1992-04-06 10:30:00,36.70597288333333,444374
023034,ADELAIDE AIRPORT                        ,-34.9524,138.5196,5.6294746,0.00030734192765280444,0.8777675094744936,6.413400563507826,1985-01-30 00:00:00,47.12978625,426247
023046,ADELAIDE AIRPORT OLD SITE               ,-34.9566,138.5356,5.2303467,,,,,,
023052,OUTER HARBOUR (BLACK POLE)              ,-34.7343,138.4653,7.1756344,0.0014467555897325068,1.0396414029481846,6.902028299187411,2001-12-28 16:00:00,31.786700516666667,350540
023083,EDINBURGH RAAF                          ,-34.7111,138.6222,5.537941,0.00020497345729686423,0.8988358774868872,6.161237126501659,1992-04-06 10:30:00,37.35313446666667,436675
023090,ADELAIDE (KENT TOWN)                    ,-34.9211,138.6216,4.9347153,0.0002306826360732872,0.9834399508710073,5.0178104587123435,1993-10-07 12:30:00,34.75144328333333,405843
023109,ADELAIDE AIRPORT (ANEMOMETER SOUTH WEST),-34.9573,138.5152,5.7327433,0.0007710338723855292,1.079068124081531,5.31267964951162,2011-10-11 13:30:00,30.077280366666667,201086
023122,ROSEWORTHY AWS                          ,-34.5106,138.6763,6.5599585,0.0006387314632888552,1.0440507830188612,6.283179481920151,1997-08-11 10:30:00,37.341657983333334,361496
023123,ADELAIDE AIRPORT (ANEMOMETER NORTHEAST) ,-34.9382,138.5435,4.97509,0.00025326543913850585,0.966675545647491,5.146597583083674,2011-10-20 12:30:00,30.18349495,199951
023124,ADELAIDE AIRPORT (ANEMOMETER NORTHWEST) ,-34.9435,138.5232,5.444234,0.00040169423429514683,0.96321169963783,5.652167531182594,2009-08-23 19:30:00,35.40661065,202491
023373,NURIOOTPA PIRSA                         ,-34.4761,139.0056,7.282921,0.0034925040573422494,1.2199584914501067,5.969810357027379,1996-09-03 09:30:00,41.508639099999996,337072
023842,MOUNT LOFTY                             ,-34.9784,138.7088,9.25294,0.010584172001127379,1.2522907722309338,7.3888112753825785,1993-03-01 10:30:00,31.743978383333335,498911
023849,GOOLWA (HINDMARSH ISLAND MARINA)        ,-35.5147,138.7989,6.9932194,0.0004878487595404435,0.9265721787944863,7.547409188034177,2003-01-28 10:00:00,42.1153846,208
023875,PARAWA (SECOND VALLEY FOREST AWS)       ,-35.5695,138.2864,7.6294303,0.002877040419859034,1.1319235518474693,6.740234604699663,1994-03-08 10:30:00,39.02917671666667,392059
023878,MOUNT CRAWFORD AWS                      ,-34.7253,138.9278,8.107694,0.0011806020833260433,0.9738719319018393,8.325215468883012,1994-10-07 10:00:00,38.92209895,385258
023885,NOARLUNGA                               ,-35.1586,138.5057,6.789034,0.001437315943114914,1.0442289413050378,6.501480299220428,2000-09-04 13:30:00,33.281196183333336,357135
023886,SELLICKS HILL (MOUNT TERRIBLE RADAR)    ,-35.3294,138.5019,9.093616,0.009489746685423572,1.2106547735761564,7.51132009752023,1998-03-16 10:30:00,55.78490475,236379
023887,KUITPO FOREST RESERVE                   ,-35.1712,138.6783,7.7959957,0.00120651379668546,1.0931785470281041,7.131493508973745,1998-10-10 09:30:00,35.48053335,363211
023894,HINDMARSH ISLAND AWS                    ,-35.5194,138.8177,7.1058564,0.0009517026532249728,0.9387366983986383,7.569594787048678,2003-02-03 12:30:00,36.480367816666664,291002
024024,LOXTON RESEARCH CENTRE                  ,-34.439,140.5978,6.1853004,0.001611883915155321,1.2146481201309123,5.092256965352706,1996-12-22 10:30:00,41.86813885,330393
024048,RENMARK AERO                            ,-34.1983,140.6766,6.4385605,0.0015827263164056582,1.1251869361979212,5.722214041691732,1995-06-26 12:30:00,40.99877151666667,356538
024580,STRATHALBYN RACECOURSE                  ,-35.2836,138.8934,6.433199,0.0006972647923312314,1.0452613236712924,6.154632131836231,1996-05-14 09:30:00,40.81769911666667,346729
024584,MURRAY BRIDGE (PALLAMANA AERODROME)     ,-35.065,139.2273,6.1888323,0.000776759772225355,0.9961737875984548,6.212603021747708,2006-03-02 11:30:00,30.815380966666666,292023
