station no.,station name,latitude,longitude,meanSpeed-100m,meanDuration,highWindFrac,scaleFactor,meanSpeed-10m,startTime,meanRes,Observations
014015,DARWIN AIRPORT                          ,-12.4239,130.8925,4.5577235,2.857142857142857,0.0010081719572304637,1.3114549376022344,3.475318435659923,1985-01-02 01:30:00,29.9985693,671002
014031,CHARLES POINT                           ,-12.3895,130.6306,5.0594335,9.72,0.006216408819765817,1.8312749610009216,2.7627929000188245,2006-01-06 13:00:00,29.99990085,302597
014041,MIDDLE POINT                            ,-12.605,131.2988,4.4731894,8.88888888888889,0.005466681437859,1.9392466549240934,2.306663436847832,2001-08-07 15:30:00,29.99992105,380016
014046,NOONAMAH AWS                            ,-12.6365,131.0714,4.8307443,17.833333333333332,0.03250492310330122,2.857012195747465,1.6908378178085333,2008-11-11 13:30:00,29.999624833333332,79965
014072,DARWIN NTC AWS                          ,-12.4719,130.8458,5.098608,8.11111111111111,0.0025001952310382825,1.5439652302477798,3.3022816298457283,2012-08-16 10:00:00,29.999839333333334,186731
014142,PIRLANGIMPI AIRPORT                     ,-11.4021,130.4217,4.577474,43.88235294117647,0.020768740944036468,2.763132087739307,1.6566251528801048,2006-01-11 22:30:00,29.999900766666666,302338
014198,JABIRU AIRPORT                          ,-12.6592,132.894,4.524206,14.0,0.007742282655767596,1.9330457946401618,2.340454723857801,1993-07-01 09:30:00,29.999942533333336,522060
014245,CAPE DON                                ,-11.3081,131.7651,5.2343674,1.0,0.00750792575975523,1.6710039316229341,3.132468614554173,2005-12-19 09:30:00,29.976791283333334,169333
014254,POINT STUART                            ,-12.2403,131.8785,5.1842422,4.166666666666667,0.003597430151741854,1.5277712364472318,3.3933367279455364,2003-03-09 16:30:00,29.999914816666667,352222
014272,BATCHELOR AIRPORT                       ,-13.0544,131.0252,5.300636,75.28571428571429,0.034095231152548866,2.7474870804271614,1.9292668753305438,1993-07-07 12:30:00,29.983047916666667,522060
014274,MCCLUER ISLAND                          ,-11.0468,132.9791,6.837427,1.25,0.0028646875143168993,1.0482283716469483,6.522841132929311,2001-01-08 10:30:00,29.406301016666664,398030
014277,DUM IN MIRRIE AIRSTRIP                  ,-12.635,130.3725,5.242257,14.727272727272727,0.018045449243940026,2.3739812400281606,2.2082133716283763,2000-10-19 22:30:00,29.715452866666666,397790
014299,NGUKURR AIRPORT                         ,-14.7236,134.7456,5.0035133,26.785714285714285,0.020593924640490258,2.2609150598776915,2.2130479047949354,2012-07-02 09:30:00,29.999841166666666,188892
014308,CROKER ISLAND AIRPORT                   ,-11.1629,132.4813,5.761167,9.142857142857142,0.009997686068213385,1.755470380349739,3.2818366597903936,2012-09-26 09:00:00,29.999837616666664,184765
014309,MURGANELLA AIRSTRIP                     ,-11.5485,132.9266,4.490924,76.88888888888889,0.03384029624492124,2.961678844408386,1.5163439783518635,2012-10-10 09:30:00,29.999837033333332,184092
014310,OENPELLI AIRPORT                        ,-12.3272,133.0069,4.7665987,40.166666666666664,0.018014835786497096,2.49548414840426,1.9100897533350625,2012-09-26 09:00:00,29.999837616666664,184765
014314,NOONAMAH AIRSTRIP                       ,-12.6099,131.0474,4.6809344,56.31578947368421,0.02640579880660121,2.978139824157278,1.571764492452352,2013-06-21 11:30:00,29.999825466666667,171896
014401,WARRUWI AIRPORT                         ,-11.65,133.3797,6.4756436,9.727272727272727,0.026025734169564663,1.916044685047723,3.3796934306022477,2000-08-15 09:30:00,29.981882366666664,397403
014402,MILINGIMBI                              ,-12.1239,134.9078,6.1092567,2.6666666666666665,0.0063545655754738695,1.9014713353398844,3.212910250520683,2000-12-13 14:00:00,29.9993434,45690
014404,MILINGIMBI AIRPORT                      ,-12.0932,134.8919,6.0165496,9.090909090909092,0.016675690843322766,1.9416333501200833,3.098705317807635,2003-07-23 11:30:00,29.999913216666666,345704
014405,MANINGRIDA AIRPORT                      ,-12.0569,134.2339,5.8682203,4.125,0.008312926227779904,1.7131140053175047,3.425469823414972,2003-10-24 11:30:00,29.999912083333335,341241
014508,GOVE AIRPORT                            ,-12.2741,136.8201,5.5537825,7.555555555555555,0.012241260871269866,1.526101245929488,3.6391965984479233,1990-08-01 13:00:00,29.847215866666666,576107
014517,NGAYAWILI                               ,-11.9971,135.5726,5.8002973,3.8333333333333335,0.0046918459421924075,1.3759341778905614,4.21553396484186,2000-07-27 16:30:00,29.999246366666668,398072
014518,GROOTE EYLANDT AIRPORT                  ,-13.9746,136.463,5.281167,20.2,0.024490129305722363,2.15809597402838,2.44714187593634,2000-07-24 12:30:00,29.99992465,398215
014626,DALY WATERS AIRSTRIP                    ,-16.2637,133.3782,5.48355,69.53333333333333,0.03241992041068276,2.6920133604727656,2.0369698576656763,2000-09-13 08:30:00,29.997953516666666,395801
014627,BULMAN                                  ,-13.6715,134.3415,4.80145,12.428571428571429,0.018871882245521387,2.304411787536144,2.083590181956788,2003-07-30 19:30:00,28.847365033333332,359151
014703,CENTRE ISLAND                           ,-15.7426,136.8192,6.1856475,2.9,0.0016723231797397542,1.2194036778014863,5.072682328458073,2000-11-06 04:00:00,29.63460866666667,398039
014704,MCARTHUR RIVER MINE AIRPORT             ,-16.4423,136.076,4.563161,7.8,0.006632959673786631,1.7838586367171498,2.558028311424325,2003-08-14 16:30:00,29.999912950000002,344639
014723,BORROLOOLA AIRPORT                      ,-16.0755,136.3041,5.0281744,8.2,0.014831612459497934,1.8815500265410952,2.6723575400081283,2000-07-24 12:30:00,29.99992465,398215
014808,BRADSHAW - ANGALLARI VALLEY (DEFENCE)   ,-15.4397,130.5731,4.538152,19.5,0.011282652749990518,2.4198000031455766,1.8754245028373,2017-12-08 10:30:00,29.999679516666667,93611
014825,VICTORIA RIVER DOWNS                    ,-16.403,131.0145,4.3328457,16.0,0.006850937644432675,2.0217733395663413,2.1430917121479016,2000-07-24 12:30:00,29.99992465,398215
014829,LAJAMANU AIRPORT                        ,-18.3324,130.6361,5.987253,14.857142857142858,0.00896225619066604,1.6869631606876332,3.549130964215255,2000-07-24 12:30:00,29.99992465,398215
014850,TIMBER CREEK                            ,-15.6614,130.4808,5.2642922,,0.04317155217445168,2.4359192884979635,2.1611111111111114,2013-02-04 14:00:00,29.993356950000003,4516
014901,DOUGLAS RIVER RESEARCH FARM             ,-13.8345,131.1872,4.652643,26.071428571428573,0.012058347308754658,2.1830408411214317,2.131267137148603,1996-09-30 10:30:00,29.999935483333335,465083
014909,CENTRAL ARNHEM PLATEAU                  ,-13.3275,133.0861,6.7005515,17.818181818181817,0.01796121616444868,1.866629056692603,3.5896534910527897,2003-08-27 10:30:00,29.999476783333332,344032
014932,TINDAL RAAF                             ,-14.5229,132.3826,5.403566,27.7,0.008284397454735748,1.9212172032559265,2.812574171457001,1990-06-01 10:30:00,29.999947916666667,576107
014948,PORT KEATS AIRPORT                      ,-14.2494,129.5282,4.956875,10.454545454545455,0.011051086498014229,1.92298208324899,2.577702044439843,2000-08-30 09:30:00,29.999924316666668,396445
014949,DELAMERE WEAPONS RANGE                  ,-15.7441,131.9181,5.794693,15.666666666666666,0.00925784689469289,1.8338284188282281,3.159888315432875,2000-07-24 12:30:00,29.99992465,398215
014954,BRADSHAW                                ,-14.9408,130.8091,4.090464,4.5,0.0018862163644667307,1.4569431141648115,2.8075661124817968,2001-11-18 13:30:00,29.99992,375077
014981,BRADSHAW - KOOLENDONG VALLEY (DEFENCE)  ,-15.1853,130.1169,4.3801374,45.64,0.0495212209628183,3.786687290798519,1.1567201374631644,2018-10-24 14:30:00,29.999616566666667,78243
014982,KANGAROO FLATS (DEFENCE)                ,-12.7934,130.8542,4.9007206,76.32,0.07306088379258924,4.506021064022294,1.0875938054179566,2017-10-03 09:00:00,29.999690016666666,96782
014983,MOUNT BUNDEY NORTH (DEFENCE)            ,-12.9141,131.8663,4.9871693,45.23809523809524,0.03443569030507765,3.3712109047650727,1.4793406306018722,2017-10-03 09:00:00,29.999690016666666,96782
014984,MOUNT BUNDEY SOUTH (DEFENCE)            ,-13.0889,131.8478,4.622325,38.9,0.02992448346287946,3.28823231874053,1.405717265534614,2017-10-03 09:00:00,29.999690016666666,96782
014988,KNUCKEY LAGOON                          ,-12.4422,130.9556,4.5741987,4.5,0.011217162193986607,2.1417469056878176,2.1357326165345203,2021-07-22 13:30:00,29.99900493333333,30149
015135,TENNANT CREEK AIRPORT                   ,-19.6423,134.1833,7.152781,28.5,0.01344495519129163,1.5317613548546782,4.669644515449127,1990-06-18 13:00:00,29.99973925,575290
015590,ALICE SPRINGS AIRPORT                   ,-23.7951,133.889,5.714463,18.333333333333332,0.009840202835185163,1.6065536143588743,3.5569701396042226,1990-08-08 12:00:00,29.839664383333332,575917
015602,JERVOIS                                 ,-22.9494,136.1442,6.6644716,22.2,0.02068189996995151,1.8700817455583745,3.563732784468115,2000-08-08 08:00:00,29.947263066666668,398203
015635,YULARA AIRPORT                          ,-25.1896,130.9737,6.616568,28.789473684210527,0.014345551005916835,1.6944165211496072,3.904924206028377,1991-07-20 14:30:00,29.873090933333334,558589
015643,TERRITORY GRAPE FARM                    ,-22.4518,133.6377,6.7526736,32.0,0.017141532866002174,2.0226570353052953,3.3385163713267936,2000-08-05 09:30:00,29.970831416666666,398031
015664,WALUNGURRU AIRPORT                      ,-23.2656,129.3844,7.4204946,7.333333333333333,0.01465664157266755,1.4113804252468152,5.257614760477738,2001-10-22 13:00:00,29.950106100000003,377000
015666,RABBIT FLAT                             ,-20.1823,130.0148,5.4175606,11.166666666666666,0.010642410011640346,1.6298745821763208,3.3239125492457697,2002-02-14 15:00:00,29.90468535,372031
200731,POINT FAWCETT                           ,-11.7628,130.03,4.5029764,3.7777777777777777,0.0009866977561199253,1.3972313987940155,3.222785017161891,2000-07-24 13:30:00,29.99992465,398213
200782,NORTH EAST ISLAND                       ,-13.6449,136.9445,6.2364793,3.0,0.006138334691427216,1.546869783377275,4.031676970742209,2010-10-13 12:30:00,29.99954446666667,65857
200786,CAPE WESSEL                             ,-11.0047,136.7586,7.033756,2.4,0.009769130647667379,1.1002064496952362,6.393123564413525,2011-12-06 14:30:00,29.999849166666667,198915
200867,BAYU UNDAN (CUQ RIG)                    ,-11.0681,126.6144,,,,,4.917883099601628,2009-07-02 07:30:00,29.999875766666666,241504
200868,CP DILI AIRPORT                         ,-8.5478,125.5276,,,,,3.354247104247196,2023-02-07 23:30:00,29.990029900000003,3009
001006,WYNDHAM AERO                            ,-15.51,128.1503,4.3224816,5.0,0.0010575372617556145,1.2519575698223304,3.4525783751969197,2000-09-23 11:30:00,29.999924099999998,395285
001007,TROUGHTON ISLAND                        ,-13.7542,126.1485,5.733217,2.5,0.0010596869433124878,1.0515367949502072,5.452226484204203,1990-10-22 10:30:00,29.642511833333334,576103
001019,KALUMBURU                               ,-14.2964,126.6453,4.847704,23.666666666666668,0.024097779242285067,2.265401601808392,2.1398872190458706,1998-09-01 14:00:00,29.99993045,431424
001020,TRUSCOTT                                ,-14.09,126.3867,5.505253,5.083333333333333,0.008937373281403205,1.7810819153760515,3.0909599331776976,2004-05-13 14:00:00,29.9999095,331536
002012,HALLS CREEK METEOROLOGICAL OFFICE       ,-18.2291,127.6636,5.939624,77.76470588235294,0.02659933041031992,2.1994983432773876,2.700444785901604,1993-12-09 08:00:00,27.747924466666667,439408
002056,KUNUNURRA AERO                          ,-15.7814,128.71,4.243469,8.0,0.002269549846559138,1.5470692011946945,2.742908484639415,1993-12-09 19:30:00,29.99860011666667,514332
002064,ARGYLE AERODROME                        ,-16.638,128.4516,3.8016253,3.0,0.0003437691549358357,1.351925450147103,2.8120080521868753,1994-11-16 15:30:00,29.098694383333335,513322
002079,HALLS CREEK AIRPORT                     ,-18.2337,127.6666,5.8280983,13.454545454545455,0.017111227667320983,1.7493317140204228,3.331614153226916,2015-09-18 12:30:00,29.999773716666667,132579
003003,BROOME AIRPORT                          ,-17.9475,122.2352,5.4844546,5.5,0.005727147036344138,1.4498115833788514,3.78287406079599,1993-12-09 08:00:00,29.999941666666665,514332
003032,DERBY AERO                              ,-17.3706,123.6611,5.1533012,2.6,0.0013137856473551812,1.283494940771072,4.015053799836387,1994-12-18 12:30:00,29.9651673,496947
003080,CURTIN AERO                             ,-17.5768,123.8297,5.472941,8.23076923076923,0.0067859385567409225,1.7861878886645064,3.064034280220904,1993-12-09 08:00:00,29.999941666666665,514332
003092,SOUTH EAST WATERBANK                    ,-17.8578,122.2725,5.50385,2.0,0.002100964809793493,1.5388069606531436,3.5766994327080726,1996-12-29 07:30:00,26.381423716666667,52131
003093,FITZROY CROSSING AERO                   ,-18.1814,125.5619,5.1495304,9.5,0.004334619046773014,1.604283133989169,3.20986383367499,1997-08-08 10:00:00,29.999933333333335,450104
003102,BROOME NTC AWS                          ,-18.0015,122.2176,6.2127037,3.466666666666667,0.0031385474920964107,1.2670716845099053,4.903198280559017,2013-05-16 08:00:00,29.999827216666667,173629
003108,YAMPI SOUND (DEFENCE)                   ,-16.7671,123.981,4.1932726,10.75,0.015423671747586964,2.656732830023002,1.5783568988383756,2018-10-15 13:00:00,29.99961868333333,78675
004019,MANDORA                                 ,-19.7419,120.8433,6.626556,7.9,0.014775678653360935,1.7615698543270264,3.761733265002292,2009-12-21 08:00:00,29.999871366666664,233245
004032,PORT HEDLAND AIRPORT                    ,-20.3725,118.6317,6.5734153,6.588235294117647,0.004845615927213109,1.3440838380516722,4.89062891264058,1993-12-09 08:00:00,29.999941666666665,514333
004083,KARRATHA AERO                           ,-20.7097,116.7742,6.541017,3.8823529411764706,0.0035890650941549085,1.2265027750892417,5.333063396481547,1993-12-09 08:00:00,29.999941666666665,514333
004090,ROEBOURNE AERO                          ,-20.7594,117.1583,6.4048057,3.0,0.007860723810451886,1.3341797712785635,4.800556715164394,2001-06-07 10:00:00,27.221947083333337,422033
004095,LEGENDRE ISLAND                         ,-20.3583,116.8431,7.083266,2.230769230769231,0.00420999315107784,1.1471040957846323,6.174911071656101,2009-10-20 14:00:00,29.999872983333333,236209
004100,BEDOUT ISLAND                           ,-19.5894,119.1,6.850964,1.5,0.0023564924925533193,1.0113857876252998,6.773838581865275,2011-02-21 20:30:00,29.999858966666668,212724
004106,MARBLE BAR                              ,-21.1756,119.7497,6.2912726,29.307692307692307,0.030403098331360012,2.098527911529231,2.9979456578415102,2000-10-07 01:30:00,29.967953816666668,395055
005007,LEARMONTH AIRPORT                       ,-22.2406,114.0967,6.2204165,3.230769230769231,0.004350357117565262,1.2618451412654281,4.929619604216917,1993-12-09 08:00:00,29.999941666666665,514333
005008,MARDIE                                  ,-21.1906,115.9797,6.1964803,6.055555555555555,0.011211603543118787,1.581970415244501,3.9169381516169146,2000-06-15 09:00:00,29.99977505,400093
005017,ONSLOW AIRPORT                          ,-21.6689,115.1092,7.028846,2.5714285714285716,0.00455338797687177,1.284985754381437,5.469979541082046,1997-11-21 14:00:00,29.999932583333337,445057
005084,THEVENARD ISLAND                        ,-21.4609,115.0188,7.2975717,1.25,0.005944462182305044,1.2057474152671293,6.052322042482987,2000-01-12 15:00:00,29.99992638333333,407519
005094,BARROW ISLAND AIRPORT                   ,-20.874,115.4066,6.7804503,2.7777777777777777,0.003031788404966873,1.0548480932064435,6.4278926868749595,1999-04-22 17:00:00,29.999928599999997,420235
005098,KARIJINI NORTH                          ,-22.2999,118.4498,6.4429693,9.285714285714286,0.019024408598204645,1.56850788247085,4.107706052490514,2018-08-31 06:30:00,29.999628933333334,80849
006011,CARNARVON AIRPORT                       ,-24.8878,113.67,8.334216,8.5,0.017941021136175572,1.3537836715171268,6.156239208084916,1993-12-09 08:00:00,29.999941666666665,514334
006105,SHARK BAY AIRPORT                       ,-25.8925,113.5772,8.2293215,6.666666666666667,0.021875621505745735,1.4595029255803413,5.638441236097655,2000-06-08 15:00:00,29.971182633333335,400800
007045,MEEKATHARRA AIRPORT                     ,-26.6136,118.5372,7.837349,54.2962962962963,0.029994630773752307,1.853639910770724,4.2280859904066235,1993-12-09 08:00:00,29.999941666666665,514334
007176,NEWMAN AERO                             ,-23.4213,119.8023,6.0545077,15.409090909090908,0.016929844341214917,1.8168924611486699,3.332342371305562,1993-12-16 11:00:00,29.999941616666668,513992
007185,PARABURDOO AERO                         ,-23.1726,117.7493,5.4277015,3.4285714285714284,0.0033141882257502475,1.4239461602081607,3.811732230411458,1995-12-13 11:00:00,29.999686899999997,479100
007600,MOUNT MAGNET AERO                       ,-28.1156,117.8425,7.472603,15.0,0.02109862155530251,1.6786761202619054,4.451485759547478,1995-04-05 08:00:00,29.999938916666668,491198
008051,GERALDTON AIRPORT COMPARISON            ,-28.7953,114.6975,7.0812526,6.4,0.009545019346534511,1.314698882576718,5.386216318250681,1993-12-09 08:00:00,29.99991663333333,359907
008290,NORTH ISLAND                            ,-28.3009,113.5937,9.134532,3.8333333333333335,0.019282542781045242,1.194000125282739,7.650360985204608,2000-09-13 17:00:00,29.999924183333334,395756
008296,MORAWA AIRPORT                          ,-29.2039,116.0247,7.0085483,30.470588235294116,0.026221154334569396,1.8100478461733844,3.872023755919963,1997-02-26 01:00:00,29.998886366666667,457964
008297,DALWALLINU                              ,-30.2761,116.6714,7.452438,6.333333333333333,0.018690684576722516,1.5718026311326159,4.741331850478531,1997-05-08 13:30:00,29.994192716666664,454602
008315,GERALDTON AIRPORT                       ,-28.8047,114.6989,7.053227,5.888888888888889,0.009808707616197565,1.2658713149194316,5.571835671332309,2011-07-20 10:00:00,29.999854066666668,205594
009021,PERTH AIRPORT                           ,-31.9275,115.9764,5.9152794,26.3,0.009455804283759806,1.3695474272645964,4.319148990876752,1985-01-03 04:00:00,29.996020883333333,671006
009037,BADGINGARRA RESEARCH STN                ,-30.3381,115.5394,8.427701,23.714285714285715,0.03305843983361689,1.5811621890103997,5.330067373843263,1997-04-21 23:00:00,29.9999341,455313
009053,PEARCE RAAF                             ,-31.6669,116.0189,7.203873,27.166666666666668,0.032761219224356486,1.7303660758719162,4.163207576680705,1993-12-09 08:00:00,29.999941666666665,514335
009091,INNER DOLPHIN PYLON                     ,-31.9889,115.8311,6.440106,18.727272727272727,0.010709214193718175,1.4195540409561627,4.536710635356824,1999-08-18 14:00:00,29.999927633333336,414579
009172,JANDAKOT AERO                           ,-32.1011,115.8794,6.084481,21.714285714285715,0.011488180588766772,1.4181139854138598,4.290544219339326,1993-12-12 08:00:00,29.99994165,514191
009178,GINGIN AERO                             ,-31.4628,115.8642,6.61079,17.636363636363637,0.016830089379556212,1.5772571308408212,4.191320265151845,1996-03-18 08:00:00,29.999936766666668,474495
009193,ROTTNEST ISLAND                         ,-32.0069,115.5022,8.700188,25.925925925925927,0.01664614585291857,1.169868970682906,7.436890712663977,1993-12-09 08:00:00,29.999941666666665,514335
009214,OCEAN REEF                              ,-31.7594,115.7278,7.435816,24.5,0.009107265794227604,1.2514705645852078,5.941662570083525,1996-10-17 08:00:00,29.999935366666666,464271
009215,SWANBOURNE                              ,-31.956,115.7619,7.3583064,43.266666666666666,0.017037457597383954,1.4962210222161512,4.917927430955085,1993-12-09 08:00:00,29.999941666666665,514335
009225,PERTH METRO                             ,-31.9192,115.8728,5.5442276,56.833333333333336,0.028627427219807156,1.898654121161482,2.9200829884202566,1993-12-09 08:00:00,29.999941666666665,514335
009240,BICKLEY                                 ,-32.0072,116.1369,7.341633,25.16,0.022725635553314527,1.603948698203458,4.57722422870554,1997-10-14 11:00:00,29.999932866666665,446889
009254,ARMAMENT JETTY                          ,-32.1758,115.6808,8.399639,4.111111111111111,0.026069874511552293,1.3149421698470305,6.387839193426899,2019-03-21 09:00:00,29.999578333333332,71149
009255,COLPOYS POINT                           ,-32.2272,115.6994,8.217571,5.533333333333333,0.013812076384063898,1.2987387819800091,6.327347248394875,2019-03-21 09:00:00,29.999578333333332,71149
009256,GARDEN ISLAND HSF                       ,-32.2433,115.6839,8.269043,8.333333333333334,0.013778365061993147,1.344608654885721,6.149776694284919,2001-11-14 16:00:00,29.99992005,375263
009265,HILLARYS BOAT HARBOUR NTC AWS           ,-31.8256,115.7386,7.548451,28.492957746478872,0.07870812836522612,2.380492502781806,3.1709618652387523,2013-05-16 08:00:00,29.999827216666667,173632
009280,LANCELIN (DEFENCE)                      ,-30.8392,115.2283,8.128227,12.068965517241379,0.03677708680975267,1.706629562197497,4.762736691037169,2018-07-05 08:00:00,29.999641066666666,83584
009281,MILLENDON (SWAN VALLEY)                 ,-31.8112,116.0227,6.8647814,70.02631578947368,0.12071292157692326,3.3944416491056324,2.022359518687982,2017-05-03 09:30:00,29.999711883333337,104125
009518,CAPE LEEUWIN                            ,-34.3728,115.1358,8.973011,14.931034482758621,0.018437129545572972,1.0688424630214324,8.395073481156949,1994-01-24 16:30:00,29.91564665,513554
009519,CAPE NATURALISTE                        ,-33.5372,115.0189,9.5697565,18.914893617021278,0.035597726222383996,1.3524913127959517,7.075650998519434,1995-11-29 19:00:00,29.999937466666665,479754
009538,DWELLINGUP                              ,-32.7103,116.0594,6.313399,16.77777777777778,0.009032965760048417,1.4855603416670409,4.249843416631969,1999-02-10 16:00:00,29.305956816666665,423648
009542,ESPERANCE AERO                          ,-33.6825,121.8275,7.8832874,42.25,0.01950125195647745,1.4823464678280842,5.318113950350667,1994-01-24 08:00:00,29.92981095,513328
009569,BUSSELTON                               ,-33.655,115.3194,7.1716185,,0.011250614759097943,1.1731463977473857,6.1131487727187785,1998-05-12 12:30:00,28.693521316666665,246686
009573,MANJIMUP                                ,-34.2508,116.145,7.470299,18.0625,0.028169743730006802,1.9191212023304016,3.8925622613197177,2000-10-23 09:00:00,29.99992381666667,393854
009603,BUSSELTON AERO                          ,-33.6818,115.4026,7.2008467,15.333333333333334,0.01985502383085025,1.6504820016489092,4.362875005522096,1997-10-27 08:00:00,29.999932766666667,446272
009617,BRIDGETOWN                              ,-33.9486,116.1311,6.1171193,92.41379310344827,0.0893346391493054,3.0706073734415105,1.992152876722354,1998-07-07 08:00:00,29.99993088333333,434128
009741,ALBANY AIRPORT COMPARISON               ,-34.9414,117.8022,6.969145,33.375,0.019138924726234574,1.6146426505207512,4.316214995881174,1994-01-01 16:00:00,29.990407216666664,353391
009746,WITCHCLIFFE                             ,-34.0281,115.1042,7.083374,43.59375,0.060465254802470114,1.9295687710405736,3.670962201371861,1999-04-22 17:00:00,29.999923983333336,394697
009778,MARGARET RIVER CALM                     ,-33.935,115.0831,6.9852233,,,,,,,
009789,ESPERANCE                               ,-33.83,121.8925,7.538822,51.526315789473685,0.01657437360233338,1.4794749969441636,5.095606339845962,1994-01-15 01:00:00,29.955876149999998,513328
009812,HARVEY                                  ,-33.0789,115.8806,7.2699857,,0.012783169480175771,2.5724826449397167,2.826058201058197,2000-10-20 17:30:00,21.06741571666667,178
009887,MANDURAH                                ,-32.5211,115.75,6.8524065,22.2,0.029425746016164656,1.8754881580370037,3.6536655656318042,1993-12-15 08:00:00,29.99978275,138095
009937,BUSSELTON JETTY                         ,-33.6294,115.3383,7.714862,13.666666666666666,0.011120535465684367,1.2996275592876045,5.936209812325726,1997-10-27 10:00:00,29.999798316666666,446270
009961,HOPETOUN NORTH                          ,-33.9306,120.1283,7.5548863,23.93103448275862,0.02517387768004642,1.593182792026168,4.742008499531221,1995-12-07 16:00:00,29.99993741666667,479376
009964,ROCKY GULLY                             ,-34.5714,117.0106,6.6117506,16.444444444444443,0.02878596321738136,2.0362818138422294,3.24697227946389,1995-11-29 08:00:00,29.79552956666667,479776
009965,BUNBURY                                 ,-33.3567,115.6447,6.8466163,25.9,0.03854182974521658,1.9010235987064958,3.6015419655056196,1999-04-22 18:00:00,29.999928599999997,420236
009968,SHANNON                                 ,-34.5683,116.3367,6.4221954,12.166666666666666,0.02526961051429244,1.920768950734112,3.343554378112875,1996-11-28 13:00:00,29.999935083333334,462246
009977,MANDURAH                                ,-32.5219,115.7119,7.3162775,19.8125,0.024343213590407475,1.7012994963994714,4.300405378036623,2001-10-31 08:00:00,29.999920200000002,375952
009994,COLLIE EAST                             ,-33.3608,116.1717,5.6183434,65.78125,0.07524898508289968,2.943491022762743,1.9087346656821602,2002-12-10 07:00:00,29.999915849999997,356514
009998,NORTH WALPOLE                           ,-34.9469,116.7222,6.9777637,35.76,0.046859985582585084,1.8932138750266878,3.6856710933956953,2004-01-19 10:00:00,29.999910983333333,337068
009999,ALBANY AIRPORT                          ,-34.9411,117.8158,7.027893,18.333333333333332,0.014505052055177714,1.562550010084906,4.4977076068268484,2012-01-13 12:00:00,29.999847783333333,197096
010286,CUNDERDIN AIRFIELD                      ,-31.6219,117.2217,6.7435317,14.133333333333333,0.01825803262422221,1.5406124420261658,4.3771759334100215,1996-08-29 11:00:00,29.975460316666666,466999
010692,NEWDEGATE RESEARCH STATION              ,-33.1129,118.84,7.2213135,20.571428571428573,0.03148540726014659,1.648710913621056,4.3799755414382275,1996-05-31 12:00:00,29.993312666666668,471040
010905,JACUP                                   ,-33.8878,119.1092,7.7393856,28.045454545454547,0.0325160741752315,1.6669397060269695,4.64287075103914,1994-01-21 12:30:00,29.982792116666666,512556
010911,LAKE GRACE                              ,-33.1006,118.4647,7.1642747,22.571428571428573,0.03739477255381196,1.794087851192868,3.993268605978218,1997-06-22 05:30:00,29.7886874,455581
010916,KATANNING                               ,-33.6856,117.6064,7.3056407,29.136363636363637,0.03214209695849557,1.7955289977686377,4.068795717896066,1999-01-06 16:00:00,29.99992945,425328
010917,WANDERING                               ,-32.6722,116.6706,6.900251,17.63157894736842,0.04524091677205477,2.265619632491848,3.0456352040538186,1998-12-14 14:00:00,29.999929633333334,426436
011003,EUCLA                                   ,-31.6797,128.8958,8.031095,45.714285714285715,0.029295726281287293,1.7343427859701845,4.630627011023004,1995-04-15 07:00:00,29.932719833333334,491824
011052,FORREST                                 ,-30.8453,128.1092,7.4454994,15.357142857142858,0.009963143274382968,1.3267453101569353,5.611852827492051,1993-11-18 17:00:00,29.979463916666667,515678
011053,RED ROCKS POINT                         ,-32.2028,127.5297,7.7389417,3.75,0.008995002318410217,1.2663213746347077,6.111356741251045,1999-12-03 13:00:00,29.915319866666668,410604
012009,NORSEMAN AERO                           ,-32.2147,121.7547,6.3928466,12.421052631578947,0.015006629029260421,1.513432676337622,4.224070673424477,1999-12-07 08:00:00,29.999926683333335,409264
012038,KALGOORLIE-BOULDER AIRPORT              ,-30.7847,121.4533,7.0208,40.21052631578947,0.022859787214595473,1.7288317410382934,4.061008337029641,1994-01-24 09:00:00,29.9801547,512464
012044,MUNGLINUP WEST                          ,-33.5547,120.6997,7.671911,24.25,0.022748517084639763,1.6148198708756678,4.7509390373222375,2002-04-30 16:00:00,29.9999183,367248
012071,SALMON GUMS RES.STN.                    ,-32.9869,121.6239,7.328426,28.869565217391305,0.04226316277180442,1.904048358285521,3.8488654200178116,1999-11-23 21:00:00,29.9999268,409910
012241,LEONORA AERO                            ,-28.8789,121.3186,7.4244933,21.7,0.031206098089984202,1.7671371804024527,4.201424425434147,2007-02-26 11:00:00,29.999681566666666,282636
012305,LAVERTON AERO                           ,-28.6133,122.4236,8.42566,28.57894736842105,0.036462296452628884,1.6911612393320272,4.982174341158489,1993-12-09 08:00:00,29.999941666666665,514336
012314,LEINSTER AERO                           ,-27.8386,120.7031,8.061392,30.1,0.03189271122603232,1.9015261702936068,4.239432491849223,1994-10-30 16:00:00,29.863890033333334,500992
012320,SOUTHERN CROSS AIRFIELD                 ,-31.2353,119.3564,6.976134,15.133333333333333,0.022429257745153808,1.5487184045205198,4.504455944368126,1996-10-03 11:00:00,29.999935466666667,464938
012322,MOUNT WALTON EAST IWDF                  ,-30.3803,120.1481,8.141989,,0.0670727070940228,1.4744879733541452,5.5219092331768405,1997-01-09 17:30:00,29.292203216666667,75403
013011,WARBURTON AIRFIELD                      ,-26.1317,126.5839,7.912096,29.55,0.036942384347590895,1.7612322470281394,4.492363819087601,1997-05-20 08:00:00,29.9999339,453952
013017,GILES METEOROLOGICAL OFFICE             ,-25.0341,128.301,8.361547,33.49230769230769,0.034619670120273116,1.8953607006170046,4.411586389530396,1992-11-29 20:00:00,29.999830916666667,532314
013030,TELFER AERO                             ,-21.7125,122.2281,7.036537,8.846153846153847,0.011204321598955125,1.5007286519576017,4.688747137086679,1996-01-13 19:00:00,29.92412343333333,478804
013044,WILUNA AERO                             ,-26.6273,120.2195,7.177479,8.333333333333334,0.018097421118475343,1.6582567922791378,4.328327689475855,2017-11-03 08:30:00,29.999685183333334,95295
109521,WITCHCLIFFE WEST                        ,-34.0258,115.0637,7.616189,4.666666666666667,0.0440880515794041,1.7290001999003806,4.40496710378029,2022-06-07 09:00:00,29.997972683333334,14798
200100,VARANUS ISLAND                          ,-20.655,115.5769,7.2129545,3.1538461538461537,0.003769881816426346,1.0336261612365405,6.9783010450802125,1999-04-22 17:00:00,29.999928599999997,420238
200284,COCOS ISLAND AIRPORT                    ,-12.1892,96.8344,,,,,6.056377616831897,1995-12-04 14:00:00,29.9540248,480259
200713,ROWLEY SHOALS                           ,-17.5217,118.9531,6.1025844,2.7777777777777777,0.0018270052970896788,1.0426431789015889,5.85299408802446,2008-12-24 11:30:00,28.380725883333334,264915
200735,ADELE ISLAND                            ,-15.5114,123.1556,4.9060793,2.25,0.0005453221131950237,1.0965169025093169,4.474239549860179,2013-06-18 09:00:00,29.999825616666666,172046
200784,BROWSE ISLAND                           ,-14.1093,123.5476,4.723534,1.0,0.0002410678123226928,0.9558873712665736,4.941517431022712,2013-06-19 15:30:00,28.8055969,171952
200790,CHRISTMAS ISLAND AERO                   ,-10.4515,105.689,,,,,4.353655552062432,1996-03-24 17:00:00,29.620891266666668,480258
200865,COCOS ISLAND NTC AWS                    ,-12.1168,96.8919,,,,,4.142981963583952,2015-02-04 07:30:00,29.99979085,143441
027045,WEIPA AERO                              ,-12.6778,141.9208,6.013942,31.22222222222222,0.016459822153116144,1.894465853787822,3.174478839408576,1995-11-02 13:30:00,29.935531366666666,482095
027054,COCONUT ISLAND                          ,-10.0511,143.0686,8.057411,23.303797468354432,0.12001359931925926,3.608319266539627,2.2330094979579513,2003-07-13 00:00:00,29.878720666666666,346308
027058,HORN ISLAND                             ,-10.5844,142.29,7.685066,7.4,0.03592868248859826,1.4673314360755083,5.237443998132308,1995-10-17 21:30:00,29.9820784,482100
027073,COEN AIRPORT                            ,-13.7606,143.1183,4.6395698,2.4,0.007512414921336363,1.5757824994536174,2.9442957774804634,2002-04-17 17:00:00,29.92134715,368836
027075,SCHERGER RAAF                           ,-12.6167,142.0869,5.8297615,43.65,0.04668196775152622,2.578289408606799,2.261096634716859,2005-12-14 10:00:00,29.999901216666668,303708
028004,PALMERVILLE                             ,-15.9999,144.0754,4.628964,9.0,0.011824306203709445,2.198070630928185,2.1059213849472425,2001-07-16 11:00:00,29.999921266666668,381082
028008,LOCKHART RIVER AIRPORT                  ,-12.785,143.3047,5.7626348,5.8,0.026028896515259192,1.5664049323622704,3.678892114755008,2001-06-26 11:00:00,29.999921466666667,382042
029038,KOWANYAMA AIRPORT                       ,-15.4818,141.7483,5.3420243,7.25,0.012599625822794502,2.010159459437424,2.6575127168366612,1999-06-23 16:00:00,29.999928099999998,417264
029039,MORNINGTON ISLAND                       ,-16.664,139.1837,5.4709964,22.75,0.024645298948030914,1.9004082888214564,2.8788531454181086,1995-10-12 00:00:00,29.999914866666664,352448
029058,JULIA CREEK AIRPORT                     ,-20.6672,141.7214,6.41938,7.285714285714286,0.004134515172959263,1.414191824978146,4.539257033314757,2001-08-31 17:00:00,29.999920799999998,378862
029063,NORMANTON AIRPORT                       ,-17.6872,141.0733,5.5416284,4.333333333333333,0.0023865388251782527,1.4727161196807335,3.762862568483088,2001-04-09 19:00:00,29.999922233333333,385770
029077,BURKETOWN AIRPORT                       ,-17.7483,139.5356,6.119577,3.75,0.004153416531669785,1.381320106382113,4.430238076406385,2001-10-10 19:00:00,29.999840816666666,376939
029127,MOUNT ISA AERO                          ,-20.6778,139.4875,6.055494,20.7,0.015701591989524588,1.6833426314623274,3.5973031980863492,1995-10-16 21:00:00,29.985749533333333,482090
029141,CLONCURRY AIRPORT                       ,-20.6664,140.505,6.374381,9.125,0.006484601989947603,1.5273359914654694,4.173529008016418,2001-03-23 11:00:00,29.9999224,386602
029167,CENTURY MINE                            ,-18.7569,138.7056,6.0982304,31.363636363636363,0.02104788762968346,2.094361082970072,2.911737814231348,2003-04-07 10:00:00,29.999914483333335,350844
029181,LAKE JULIUS AWS                         ,-20.1167,139.7256,5.397233,40.75,0.028872697047633622,2.3083787610804496,2.338105470530397,2013-08-19 08:30:00,29.999822549999998,169071
029182,MORNINGTON ISLAND AIRPORT               ,-16.662,139.1655,5.56237,4.25,0.005072974408444897,1.3625058167202238,4.0824558362953285,2013-10-24 09:00:00,29.99981916666667,165902
030022,HUGHENDEN AIRPORT                       ,-20.8192,144.2333,6.97717,12.88888888888889,0.01617502275022209,1.718936524385234,4.059003861724847,2001-02-23 11:00:00,29.999922666666667,387946
030024,HUGHENDEN POST OFFICE                   ,-20.8447,144.1986,6.97508,,0.014644757735776337,2.0831764174937892,3.348290598290599,2001-02-21 17:00:00,29.638554216666666,83
030124,GEORGETOWN AIRPORT                      ,-18.3039,143.5306,5.753821,12.5,0.015235768329282862,1.9295987351214547,2.9818743096276537,2004-06-01 18:00:00,29.999909249999998,330620
030161,RICHMOND AIRPORT                        ,-20.7001,143.1137,6.192665,7.4,0.004388433320459573,1.4433878309572388,4.290368096002825,1998-11-07 19:00:00,29.99992993333333,428202
031011,CAIRNS AERO                             ,-16.8736,145.7458,5.5744467,2.6,0.006992335744873679,1.369150118523286,4.071464920277705,1985-03-27 13:00:00,29.817318250000003,671003
031037,LOW ISLES LIGHTHOUSE                    ,-16.3842,145.5592,6.7347097,1.3333333333333333,0.0018024739531393719,1.0191514129223735,6.608154249007577,1998-11-07 19:00:00,29.99992993333333,428202
031192,GREEN ISLAND                            ,-16.7614,145.9719,8.389779,2.4,0.009435911571624156,1.0076501668270703,8.326083165648079,1997-03-24 00:00:00,29.997930783333334,231972
031209,COOKTOWN AIRPORT                        ,-15.4461,145.1861,6.8821993,9.727272727272727,0.042824967262613756,1.6621987871114505,4.1404189082428315,2000-07-24 13:00:00,29.99992465,398214
031210,MAREEBA AIRPORT                         ,-17.0704,145.4293,7.0785985,21.533333333333335,0.038398472173173936,2.077098162806968,3.4079268019438014,2000-07-24 13:00:00,29.99789056666667,398214
031213,CAPE FLATTERY                           ,-14.9672,145.3106,9.06652,9.875,0.055001650350555154,1.4393157009902044,6.299187684123899,2003-06-20 11:00:00,29.999913616666667,347290
031222,CAIRNS RACECOURSE                       ,-16.9463,145.7474,6.042963,25.153846153846153,0.02199130824894513,2.122439420715446,2.847178095625975,2013-08-02 10:00:00,29.9998234,169884
032037,SOUTH JOHNSTONE EXP STN                 ,-17.6053,145.9972,3.976634,2.3333333333333335,0.003390147691989087,1.7502830717216953,2.2719947931976785,1999-11-04 16:00:00,29.999926966666667,410832
032040,TOWNSVILLE AERO                         ,-19.2483,146.7661,4.715243,1.0,0.0014275066124734836,1.0960419979607243,4.302064037212544,1995-10-16 13:00:00,29.986372,482096
032141,LUCINDA POINT                           ,-18.5203,146.3861,5.588445,2.3333333333333335,0.0006531236931415219,1.0456386416397356,5.344528180262521,1996-10-22 00:00:00,29.999935349999998,464048
032182,CAPE FERGUSON NTC AWS                   ,-19.2774,147.0586,6.481217,2.0,0.0052945886008032295,1.4264382128916153,4.543636625075243,2013-05-16 10:00:00,29.999827216666667,173628
032194,COWLEY BEACH (DEFENCE)                  ,-17.6905,146.1126,5.4761376,14.1875,0.023487906619957255,2.911579878562704,1.8808131208803813,2017-04-03 13:30:00,29.999715783333333,105557
032195,MOUNT STUART (DEFENCE)                  ,-19.4082,146.762,4.9605384,6.142857142857143,0.008729939766181416,1.755090579603482,2.826371724027652,2017-10-03 09:30:00,29.999690016666666,96781
032196,TOWNSVILLE- AIR WEAPONS RANGE (DEFENCE) ,-19.3048,146.2438,4.7159257,,0.003480593674380028,1.564941552120856,3.013483594400569,2017-10-03 09:30:00,29.999690016666666,96781
032197,INNISFAIL AERODROME                     ,-17.5581,146.0119,4.3555098,1.0,0.002398229239617744,1.4474626365986663,3.009065414103152,2016-06-21 13:30:00,29.9997485,119285
033002,AYR DPI RESEARCH STN                    ,-19.6169,147.3758,6.0373373,15.375,0.022725518476349182,2.0508080237806103,2.9438822323466187,2003-08-17 03:00:00,26.182325283333334,394756
033045,MACKAY AERO                             ,-21.1706,149.1794,6.210302,2.875,0.003951231567759672,1.2741685422897033,4.874003453976421,1995-11-14 01:00:00,29.901243733333335,482096
033106,HAMILTON ISLAND AIRPORT                 ,-20.3658,148.9536,7.59709,3.076923076923077,0.008531242470265044,1.0055191502232237,7.55539043266308,2002-07-19 12:00:00,29.999917433333334,363416
033119,MACKAY M.O                              ,-21.1172,149.2169,6.8704095,11.785714285714286,0.008835471758072422,1.5267455910976442,4.500035584670358,1995-10-15 13:00:00,29.98935895,482096
033195,WILLIAMSON                              ,-22.4703,150.1786,5.7563014,15.083333333333334,0.03806801777523128,2.196392265925895,2.6207984303837777,2005-06-01 18:00:00,29.999904183333335,313100
033208,ROSSLYN BAY NTC AWS                     ,-23.161,150.7901,7.0841346,32.6271186440678,0.06648448948564634,2.319296447728698,3.0544325567533086,2012-07-11 11:30:00,29.9998408,188457
033210,ST LAWRENCE                             ,-22.3472,149.5242,4.921065,2.4,0.00639696774213161,1.6807667823722192,2.9278689377253553,2004-08-09 18:00:00,29.999908333333334,327308
033247,PROSERPINE AIRPORT                      ,-20.4925,148.555,6.4205017,14.941176470588236,0.02056856745313862,1.7244078631044184,3.7233080678637527,1996-03-22 08:00:00,29.999936733333335,474304
033255,HAMILTON ISLAND                         ,-20.3528,148.9511,7.22885,,0.007725665735562548,0.9308736380382983,7.765661839002996,2002-03-14 17:00:00,29.985214383333336,6087
033294,YEPPOON THE ESPLANADE                   ,-23.1364,150.7506,6.531303,4.5,0.005652376642172663,1.429845009316873,4.567839791282675,1995-10-15 08:00:00,29.98998123333333,482096
033295,ALVA BEACH                              ,-19.4569,147.4833,6.9345994,2.4444444444444446,0.005676772709909961,1.3703216940807013,5.06056309954198,1997-03-24 00:00:00,29.9999343,456704
033298,DOTSWOOD                                ,-19.6264,146.2939,5.2020316,,0.012155512002613222,1.8285030928997337,2.8449673575047623,1996-12-17 02:30:00,27.5694907,160633
033307,WOOLSHED                                ,-19.4168,146.5362,5.982709,14.0,0.041944777872375494,2.563448069876678,2.3338522052670463,1998-11-07 19:00:00,29.99992993333333,428202
033308,SAMUEL HILL AERO                        ,-22.7433,150.6578,4.478383,8.333333333333334,0.01258803827082089,1.6912593177053177,2.647957659353056,2000-11-08 10:00:00,29.999923666666668,393084
033317,HAY POINT                               ,-21.2894,149.3008,7.2941017,4.5,0.005069693673366071,1.1716012807277512,6.225754303167961,2005-11-24 14:00:00,29.999901516666668,304660
033327,BOWEN AIRPORT AWS                       ,-20.0153,148.2138,7.54576,7.7,0.020451226468726547,1.7126144890198138,4.405988740082895,2015-03-19 12:30:00,29.999787783333332,141367
033328,TOWNSVILLE- FANNING RIVER (DEFENCE)     ,-19.783,146.5,6.373766,50.5,0.07005513745769532,3.2913692653811464,1.9365089212183784,2017-10-03 09:30:00,29.999690016666666,96781
033329,OORALEA RACECOURSE (MACKAY TURF CLUB)   ,-21.17,149.1515,5.663748,9.416666666666666,0.02258923439288174,1.924783236641518,2.942537985398318,2016-06-27 10:00:00,29.9997479,119004
034035,MORANBAH AIRPORT                        ,-22.0644,148.0758,5.8115926,3.0,0.0049829685433070425,1.433005461354931,4.055527166932762,2012-02-27 09:00:00,29.9998461,194942
035124,CLERMONT AIRPORT                        ,-22.7756,147.6217,5.030926,20.88235294117647,0.02335944230268605,2.423662305148796,2.0757537949416247,2010-04-15 11:00:00,29.999868250000002,227722
035129,ROLLESTON AIRPORT                       ,-24.4617,148.6264,5.2263927,18.181818181818183,0.009699895514564627,2.1504448258015714,2.4303775122542652,2010-07-12 15:00:00,29.99986575,223490
035134,BLACKWATER AIRPORT                      ,-23.6015,148.8074,6.0975394,4.285714285714286,0.0051535656822706555,1.529542654665593,3.9865115276758054,2013-05-29 11:00:00,29.999826583333334,173002
035139,LOCHINGTON                              ,-23.9424,147.525,5.0824065,19.533333333333335,0.013894001663424027,2.2649059096358526,2.2439813058992133,2010-10-29 10:00:00,29.99986255,218268
035264,EMERALD AIRPORT                         ,-23.5694,148.1756,5.6529646,5.2,0.0032067759064228207,1.47443826122276,3.8339784992366823,1998-11-07 19:00:00,29.99992993333333,428202
036031,LONGREACH AERO                          ,-23.4397,144.2828,6.8744073,8.25,0.007356220186603757,1.5621741388290498,4.400538403846043,1995-12-11 16:00:00,29.819100166666665,482090
036034,BLACKALL AIRPORT                        ,-24.4303,145.4306,6.916158,20.333333333333332,0.015839519496232524,1.9055553149914388,3.6294712333456327,2001-03-13 11:00:00,29.999922483333332,387082
037010,CAMOOWEAL TOWNSHIP                      ,-19.9225,138.1214,6.5459895,7.333333333333333,0.013146586436206475,1.6784714013884543,3.8999708353578653,1999-06-24 09:30:00,29.997843049999997,417258
037034,THE MONUMENT AIRPORT                    ,-21.8125,139.9267,6.7238216,13.071428571428571,0.017555920813768444,1.7394838833078614,3.86541186413777,2000-12-14 14:00:00,29.999923333333335,391348
037036,TREPELL AIRPORT                         ,-21.84,140.8925,6.4832687,11.5,0.006725682719727288,1.5814199110199394,4.099650379140335,2001-08-19 17:00:00,29.999920933333332,379438
037039,WINTON AIRPORT                          ,-22.3617,143.0836,6.6207323,9.857142857142858,0.007637971578653535,1.5716528057066956,4.212592172644047,2002-10-17 14:00:00,29.99991645,359092
037053,CARTERS BORE                            ,-20.9358,139.2964,7.2164125,23.5,0.034389712410976436,2.1908572512899576,3.293876193896945,2014-07-29 14:00:00,29.999803333333332,152548
037058,URANDANGI AERODROME                     ,-21.5979,138.3665,6.712587,16.9375,0.01716032417941249,1.8084447740048468,3.711800866810564,2012-09-11 11:30:00,29.99983825,185481
037059,NEW MAY DOWNS                           ,-20.59,139.3411,6.8670926,30.75,0.02799678537012762,2.260758065596635,3.037517686614215,2013-08-19 08:30:00,29.999822549999998,169071
038026,BIRDSVILLE AIRPORT                      ,-25.8975,139.3472,7.1079936,14.8,0.009927760975367295,1.534740230963023,4.631398499466286,2000-07-24 13:00:00,29.99992465,398214
038076,WINDORAH AIRPORT                        ,-25.4117,142.6647,6.504609,7.444444444444445,0.006113829852002706,1.6296796852682496,3.991342081987428,2016-08-18 18:30:00,29.9997422,116373
039039,GAYNDAH POST OFFICE                     ,-25.6258,151.6094,5.5911803,,0.006465605031736876,1.4534197891171707,3.8469135802469094,2003-01-24 15:00:00,29.83425413333333,181
039059,LADY ELLIOT ISLAND                      ,-24.1116,152.7161,7.827855,4.0,0.015649478952082796,1.3122608367144863,5.965167054567516,1998-12-22 02:30:00,29.872887,427887
039066,GAYNDAH AIRPORT                         ,-25.6167,151.6156,5.511694,33.0,0.024791801470685493,2.2972142637971493,2.3992946767435153,2003-01-28 10:00:00,29.999915283333333,354156
039083,ROCKHAMPTON AERO                        ,-23.3753,150.4775,4.8656754,1.8,0.0042025720866247784,1.5029830730411269,3.2373454742415424,1995-10-31 20:00:00,29.94069645,482096
039089,THANGOOL AIRPORT                        ,-24.4935,150.5709,5.087457,6.555555555555555,0.00919215110203453,1.8944362328674862,2.6854729083821614,2009-10-01 14:30:00,29.99987348333333,237123
039122,HERON ISLAND RES STN                    ,-23.4417,151.9125,7.675639,3.5,0.014297394709686495,1.2713610142732532,6.037340351288397,1999-02-16 14:00:00,29.999929133333335,423364
039123,GLADSTONE RADAR                         ,-23.8553,151.2628,6.699093,12.555555555555555,0.010261144063068106,1.4503142726620082,4.619062910202388,1994-08-10 15:00:00,29.929554250000002,503792
039128,BUNDABERG AERO                          ,-24.9069,152.323,6.6078773,10.909090909090908,0.011485844112073762,1.6041665099901339,4.119196612904433,1998-11-07 19:00:00,29.99992993333333,428202
039304,HERON ISLAND                            ,-23.4483,151.9178,7.637577,,0.023971204367849386,1.2429937914183509,6.144501372102355,1995-10-11 22:00:00,29.999489216666667,58735
039322,RUNDLE ISLAND                           ,-23.5322,151.2771,7.608096,2.5555555555555554,0.004669928906565812,1.0415430937292145,7.3046388272818685,1996-01-20 04:00:00,29.99503525,477366
039326,GLADSTONE AIRPORT                       ,-23.8697,151.2214,5.8156376,4.4,0.00646159994402018,1.5117323606629898,3.847002114812475,1996-01-09 08:30:00,29.974780833333334,478208
040004,AMBERLEY AMO                            ,-27.6297,152.7111,4.7296977,12.333333333333334,0.006789171700383068,1.6295827109941268,2.9023980632623636,1995-10-14 14:00:00,29.9928436,482086
040043,CAPE MORETON LIGHTHOUSE                 ,-27.0314,153.4661,8.288787,11.36,0.009776631304521444,1.0618297855313694,7.806135221545529,1996-03-22 06:00:00,29.999936733333335,474308
040068,DOUBLE ISLAND POINT LIGHTHOUSE          ,-25.9319,153.1906,7.680221,8.947368421052632,0.007423998718906311,1.0275406355382544,7.474372122282945,1995-10-11 22:00:00,29.99993776666667,482100
040082,UNIVERSITY OF QUEENSLAND GATTON         ,-27.5436,152.3375,5.0312443,9.6875,0.00573157064927754,1.6565431176465837,3.0371948815325047,2002-07-16 12:00:00,29.999917466666666,363560
040093,GYMPIE                                  ,-26.1831,152.6414,4.9575768,81.29166666666667,0.044975217969868475,3.0827467032723397,1.6081686978844256,2000-07-24 13:00:00,29.99992465,398214
040126,MARYBOROUGH                             ,-25.5132,152.7152,5.6644917,12.166666666666666,0.011774519932782446,1.6981447448454754,3.3356942455207665,2007-12-19 13:30:00,29.999888233333333,268421
040211,ARCHERFIELD AIRPORT                     ,-27.5716,153.0071,4.8365245,6.888888888888889,0.0028827583707876636,1.4150685673587293,3.4178728848237196,1994-09-21 12:30:00,29.80980245,503792
040223,BRISBANE AERO                           ,-27.4178,153.1142,5.7996655,17.166666666666668,0.013635749857908053,1.6329744111567952,3.5515960393655743,1985-01-06 16:30:00,29.971252,265062
040282,NAMBOUR DPI                             ,-26.6431,152.9392,4.5757565,2.3333333333333335,0.10986265215501234,3.56037041111594,1.285191151895066,1997-07-14 14:00:00,29.9998359,182833
040284,BEERBURRUM FOREST STATION               ,-26.9586,152.9619,4.767545,96.81481481481481,0.05436981888299297,3.6546134464258486,1.30452790510544,1999-06-23 16:00:00,29.999928099999998,417264
040405,HERVEY BAY AIRPORT                      ,-25.322,152.8817,5.8742266,5.857142857142857,0.011518238073223053,1.5808213429936897,3.71593323696215,1999-06-23 16:00:00,29.999928099999998,417264
040555,TOOLARA (KELLY)                         ,-25.9713,152.8609,5.1647787,1.0,0.001174104089093686,1.5162442212352834,3.4062973741815012,1998-11-07 20:00:00,28.772763750000003,284004
040651,JIMNA FORESTRY                          ,-26.6644,152.4606,5.4292564,7.75,0.04198816053980925,2.545194038638082,2.133140482332006,2000-07-24 13:00:00,19.830322833333334,293086
040717,COOLANGATTA                             ,-28.1681,153.5053,6.196159,9.181818181818182,0.006445450813735709,1.4649390591612228,4.229635934141542,1994-07-17 00:00:00,29.99994045,503792
040764,GOLD COAST SEAWAY                       ,-27.939,153.4283,7.0408583,18.391304347826086,0.00766533267042302,1.4058989034287366,5.00808290807141,1994-07-17 00:00:00,29.99994045,503792
040842,BRISBANE AERO                           ,-27.3917,153.1292,6.2941155,13.166666666666666,0.005879431063129381,1.5047858658206443,4.1827317004555615,1995-10-11 22:00:00,29.99993776666667,482100
040861,SUNSHINE COAST AIRPORT                  ,-26.599,153.0912,6.060612,5.5,0.0037941507129686247,1.3194882868491074,4.593153468730827,1995-12-23 15:00:00,29.783010016666665,482096
040908,TEWANTIN RSL PARK                       ,-26.3911,153.0403,5.5303464,18.6,0.02340623733489311,1.9855227228507824,2.7853352318450533,1996-03-21 00:00:00,29.99993675,474368
040913,BRISBANE                                ,-27.4808,153.0389,4.860663,46.583333333333336,0.020412335213347843,2.5142311896869662,1.9332601381695065,1999-12-10 14:30:00,29.999926666666667,409107
040922,KINGAROY AIRPORT                        ,-26.5737,151.8398,6.441113,40.54545454545455,0.039082727789313654,2.2170521548393682,2.9052600233549226,2001-01-19 12:00:00,29.999845999999998,389625
040925,BANANA BANK NORTH BEACON                ,-27.5327,153.3333,7.2326503,10.307692307692308,0.00840589188834484,1.3641762833691145,5.301844320395499,2002-08-23 12:00:00,29.984582266666667,361921
040926,INNER RECIPROCAL MARKER                 ,-27.2633,153.2419,7.549843,10.7,0.008241833873899429,1.2255615493432999,6.160313073234172,2002-03-20 09:00:00,29.999918733333335,369230
040927,SPITFIRE CHANNEL BEACON                 ,-27.0481,153.2664,7.3743234,6.285714285714286,0.005594595102234812,1.2273710499098753,6.008226582021793,2002-07-23 10:00:00,29.99990551666667,317569
040958,REDCLIFFE                               ,-27.2169,153.0922,6.241101,3.0,0.0017121039945579009,1.1561160637349437,5.398334115308441,2004-02-27 12:00:00,29.999910483333334,335192
040959,REDCLIFFE JETTY                         ,-27.2261,153.1172,7.0661044,,0.002032427247170121,1.1597489725926167,6.092787817938389,2004-11-04 10:30:00,29.910714283333334,336
040983,BEAUDESERT DRUMLEY STREET               ,-27.9707,152.9898,4.631388,58.30769230769231,0.024870612581396334,2.923624988619214,1.58412525732166,2007-08-13 10:00:00,29.999672216666667,274574
040988,NAMBOUR DAFF - HILLSIDE                 ,-26.6442,152.9383,4.614295,117.58333333333333,0.04661460650425031,3.642642470023378,1.2667438662375026,2007-12-19 08:00:00,29.999888233333333,268432
041097,INGLEWOOD FOREST                        ,-28.3661,150.9539,5.4786572,4.0,0.0013683773662764853,1.5576189466811239,3.517328328157258,2000-07-24 13:00:00,29.999881016666667,252150
041175,APPLETHORPE                             ,-28.6217,151.9533,7.269514,64.16666666666667,0.11712920191549758,3.2082747919807186,2.265863916031415,1997-03-24 00:00:00,29.9999343,456704
041359,OAKEY AERO                              ,-27.4034,151.7413,5.9872656,5.625,0.005120430989490443,1.3649214962005625,4.386527432910511,1995-11-06 15:00:00,29.9240177,482086
041522,DALBY AIRPORT                           ,-27.1605,151.2633,6.016582,3.6666666666666665,0.005503789189231001,1.3951794144423542,4.312407386387155,2006-07-06 15:00:00,29.999897916666665,293906
041525,WARWICK                                 ,-28.2061,152.1003,5.808574,39.43478260869565,0.04004081673008464,2.203790477023505,2.6357198019667103,1998-11-13 00:30:00,29.982974966666667,428193
041529,TOOWOOMBA AIRPORT                       ,-27.5425,151.9134,7.552426,8.8125,0.010922028804431494,1.3576384864531905,5.56291379238168,1996-06-25 15:00:00,29.999936133333332,469730
041560,GOONDIWINDI AIRPORT                     ,-28.5226,150.3223,5.778338,3.75,0.011126175507208513,1.9281413746511094,2.996843505067373,2021-09-29 11:30:00,19.826652216666666,40612
042112,MILES CONSTANCE STREET                  ,-26.6569,150.1819,5.759771,39.05882352941177,0.048628828021032966,2.548750731285982,2.259840791611122,1998-11-10 13:00:00,29.990962116666665,428198
043091,ROMA AIRPORT                            ,-26.5477,148.771,6.437793,18.466666666666665,0.01878311121986187,1.8258790080459624,3.525859462563622,1997-03-24 00:00:00,29.9999343,456704
043109,ST GEORGE AIRPORT                       ,-28.0478,148.5957,6.4078445,19.0625,0.0188453579993334,1.8539931194811536,3.4562396570545464,1998-11-09 07:00:00,29.99502568333333,428200
044021,CHARLEVILLE AERO                        ,-26.4139,146.2558,5.9635735,21.466666666666665,0.013792281135208362,1.820148791950466,3.2764208520667144,1995-10-13 21:00:00,29.994088350000002,482100
045009,BALLERA GAS FIELD                       ,-27.4008,141.8114,7.179987,6.7,0.0036653928730451257,1.3942681658414708,5.149645620290036,2002-08-15 17:00:00,29.999917149999998,362110
045025,THARGOMINDAH AIRPORT                    ,-27.9867,143.815,6.581221,16.357142857142858,0.008255818677870952,1.6884752491005284,3.89773027894493,1999-09-14 09:00:00,29.98447425,413507
140007,REDLAND (ALEXANDRA HILLS)               ,-27.5433,153.2394,5.814766,29.294117647058822,0.024814736467829612,2.2568851756082497,2.5764562561800037,2015-08-19 15:30:00,29.999776133333334,134017
140008,CANUNGRA (DEFENCE)                      ,-28.0437,153.1871,4.423792,69.78125,0.06829919064670165,4.979548621162336,0.8883921459418076,2018-03-21 10:00:00,29.99966165,88668
140009,GREENBANK (DEFENCE)                     ,-27.6932,152.9935,4.908845,66.18518518518519,0.07048620369244296,4.074592874455024,1.204744890855261,2018-03-21 10:00:00,29.99966165,88668
140010,TIN CAN BAY (DEFENCE)                   ,-25.9351,152.9647,5.0545983,16.333333333333332,0.025933931072098182,2.5170895849116985,2.008112210924243,2018-03-21 10:00:00,29.99966165,88668
200001,MIDDLE PERCY ISLAND                     ,-21.6628,150.2711,8.471742,15.0,0.032267657024050544,1.4536700820201158,5.827829698852765,2004-07-19 15:00:00,29.99990861666667,328322
200283,WILLIS ISLAND                           ,-16.2878,149.9652,8.290417,3.5,0.0068813414944809415,1.045418786738718,7.930235062440412,1996-02-25 14:00:00,29.591969233333334,482096
200601,CATO ISLAND                             ,-23.2503,155.542,7.3083787,2.2,0.0065918051957029045,0.9507163968703285,7.687233249053204,2011-08-19 08:30:00,29.999853050000002,204159
200701,FREDERICK REEF                          ,-20.9375,154.4019,7.7917237,2.0,0.01558441423154544,1.0227308220619267,7.618547872128313,2008-10-16 14:30:00,29.99988185,253923
200704,MARION REEF                             ,-19.0964,152.3892,,,,,7.762682330750516,2009-03-06 14:00:00,29.182688700000003,254077
200732,HOLMES REEF                             ,-16.4683,147.8734,7.975161,1.0,0.009476338112533567,1.0315795259409257,7.731019155617426,2004-03-04 08:00:00,29.7681779,334912
200736,CREAL REEF                              ,-20.5303,150.3773,7.5786285,2.2,0.004979704590518219,0.9909561276118132,7.647794214970368,2008-04-10 15:00:00,29.999885916666663,262994
200783,FLINDERS REEF                           ,-17.7195,148.4478,7.5321856,1.625,0.006748224816305215,0.988629581699004,7.618814664194043,2006-03-18 00:00:00,29.999899733333333,299216
200831,GANNET CAY                              ,-21.9769,152.4707,7.768302,1.5,0.00885973086012759,1.032899623639483,7.520868229609844,2004-03-04 09:00:00,29.919151666666668,335814
200840,BOUGAINVILLE REEF                       ,-15.4877,147.1183,8.515772,3.0,0.01514243196692866,1.070848517820645,7.952359016358111,2009-02-01 11:00:00,29.45528823333333,253345
200869,WILLIS ISLAND COMPARISON                ,-16.2878,149.965,8.290417,,0.0,2.0165878502098287,4.111111111111112,2005-10-25 15:00:00,0.0,15464
200879,ARLINGTON REEF                          ,-16.7226,146.1124,7.972325,1.6666666666666667,0.010898032248162881,1.1132412926101694,7.161362860950549,2010-05-04 11:00:00,29.999867716666664,226810
200880,LIHOU REEF LIGHTHOUSE                   ,-17.133,152.145,,,,,6.855449254416246,2013-09-30 09:30:00,29.999820399999997,167053
200892,TORRES STRAIT NTC AWS                   ,-10.5865,142.2219,7.4860168,4.285714285714286,0.018729077952229667,1.3655540546544493,5.482036192430343,2016-12-01 16:30:00,29.999730816666666,111455
200897,HOPE BANKS BEACON                       ,-27.4344,153.2904,7.476102,3.0,0.012881724101053926,1.5039172237468186,4.971086012752363,2021-04-16 14:00:00,29.999138016666667,34804
046012,WILCANNIA AERODROME AWS                 ,-31.5194,143.385,6.71817,16.857142857142858,0.005897019997245678,1.5532303593232322,4.325288986073413,2000-01-19 14:00:00,29.999778966666668,407190
046126,TIBOOBURRA AIRPORT                      ,-29.4448,142.0567,6.8355446,10.235294117647058,0.007484276447844662,1.4524444277105704,4.706234851929057,1997-09-21 16:00:00,29.999933016666667,447984
046128,FOWLERS GAP AWS                         ,-31.0863,141.7008,7.20423,20.571428571428573,0.03013373920551843,1.6738082462787303,4.304095076429606,2004-10-26 18:00:00,29.999907266666664,323564
046129,WHITE CLIFFS AWS                        ,-30.8522,143.0743,7.044349,9.266666666666667,0.007119889658584899,1.4696491699323984,4.793218230373326,2005-07-05 18:00:00,29.99990366666667,311468
047048,BROKEN HILL AIRPORT AWS                 ,-32.0012,141.4694,7.2803807,21.314285714285713,0.022944321964871284,1.5445224893671825,4.713677383126673,1989-01-01 13:30:00,29.99960056666667,600875
048027,COBAR MO                                ,-31.484,145.8294,7.035547,85.88461538461539,0.025143223367647294,2.1428345589845423,3.283289766880841,1989-01-18 16:30:00,29.95861035,600875
048237,COBAR AIRPORT AWS                       ,-31.5388,145.7964,6.9146757,48.27272727272727,0.036047379045801686,1.9921020996089185,3.471044839490361,1993-09-19 07:30:00,29.815431349999997,521432
048244,COBAR COMPARISON                        ,-31.4861,145.8281,7.022478,6.0,0.5406730103495636,2.2774671651173617,3.0834596481551535,2000-01-15 00:30:00,29.8514146,14739
048245,BOURKE AIRPORT AWS                      ,-30.0362,145.9521,6.5867133,16.533333333333335,0.010733033564901184,1.796495217492416,3.666424073897766,1999-02-04 14:00:00,29.999787700000002,423942
049000,IVANHOE AERODROME AWS                   ,-32.8833,144.3092,6.7661037,17.692307692307693,0.007693538620418217,1.6756585423996022,4.037877391665689,2000-07-24 13:00:00,29.99992465,398214
050017,WEST WYALONG AIRPORT AWS                ,-33.9382,147.1962,6.160394,21.5,0.01754808288615628,1.7269384336542903,3.567234402622121,1999-04-30 18:00:00,29.999928533333332,419852
050137,CONDOBOLIN AIRPORT AWS                  ,-33.0682,147.2133,6.2185802,36.1578947368421,0.020095836228871344,1.7069164935634131,3.6431660654878164,1993-06-15 00:00:00,29.999942616666665,522848
051049,TRANGIE RESEARCH STATION AWS            ,-31.9861,147.9489,6.804929,38.0,0.026091470589258536,1.9920243590164581,3.416087132067961,1997-10-10 10:00:00,29.999932883333333,447084
051161,COONAMBLE AIRPORT AWS                   ,-30.9776,148.3798,6.300622,13.727272727272727,0.008279740203281705,1.57010819067474,4.012858492051763,1997-09-17 10:00:00,29.99993305,448188
052088,WALGETT AIRPORT AWS                     ,-30.0372,148.1223,6.490273,24.0,0.013730450790178872,1.7436664019808326,3.7221988055953603,1997-05-23 10:00:00,29.99993388333333,453804
053000,MOREE AUTOSONDE                         ,-29.4917,149.8461,5.68134,4.25,0.009210963608216716,1.8875748678684954,3.0098621857610697,2000-06-30 11:00:00,29.144011433333333,23762
053115,MOREE AERO                              ,-29.4898,149.8471,5.6745696,11.4,0.0042410328064208525,1.4232009736515758,3.9871878335084943,1989-01-06 12:30:00,29.987767833333333,600875
054038,NARRABRI AIRPORT AWS                    ,-30.3154,149.8302,5.81251,12.733333333333333,0.007969511395706896,1.4783943792420005,3.9316369807632126,2001-07-13 15:00:00,29.9999213,381218
055024,GUNNEDAH RESOURCE CENTRE                ,-31.0261,150.2687,4.7722683,,,,,,,
055202,GUNNEDAH AIRPORT AWS                    ,-30.9537,150.2494,4.8859096,5.333333333333333,0.0035520353570931418,1.3852932624119463,3.526985722023674,2001-09-14 09:00:00,29.99936508333333,378009
055325,TAMWORTH AIRPORT AWS                    ,-31.0742,150.8362,4.44476,8.0,0.0010853666750153534,1.301401571906571,3.4153638213468644,1989-01-01 18:00:00,29.999151233333336,600876
056018,INVERELL RESEARCH CENTRE                ,-29.7752,151.082,4.4586205,2.6666666666666665,0.0021348097301253643,1.647498050667569,2.706297920317205,2002-12-18 10:30:00,29.999747266666667,356125
056238,ARMIDALE AIRPORT AWS                    ,-30.5273,151.6158,6.852955,26.136363636363637,0.010892737392487417,1.5396769978004834,4.450904231401645,1993-06-19 11:00:00,29.86184198333333,525051
056243,GLEN INNES AIRPORT AWS                  ,-29.678,151.694,6.608227,18.055555555555557,0.012347092835963469,1.5400354808758767,4.2909574864890105,1996-10-16 10:00:00,29.99993538333333,464316
058009,BYRON BAY (CAPE BYRON LIGHTHOUSE)       ,-28.6388,153.6361,7.9893312,3.5,0.017517865957995093,1.3220079541445278,6.043330692811349,1994-06-28 03:00:00,30.000203366666664,147515
058012,YAMBA PILOT STATION                     ,-29.4325,153.3632,7.1609964,19.675675675675677,0.010947937154996534,1.8328044611123353,3.90712516747516,2007-10-10 14:00:00,29.9998896,271780
058077,GRAFTON RESEARCH STN                    ,-29.6224,152.9605,4.9202986,25.785714285714285,0.006024195301331359,1.8536765321833508,2.6543458316104442,2002-08-30 09:00:00,29.999916983333332,361406
058161,GRAFTON AIRPORT AWS                     ,-29.7583,153.0297,4.696321,21.2,0.009457739504515006,2.017188145683267,2.3281521957382165,2006-04-07 12:00:00,29.9998994,298232
058198,BALLINA AIRPORT AWS                     ,-28.8353,153.5585,5.639257,10.5,0.01343609188659911,1.4959028083952293,3.769801702720769,1995-07-23 13:30:00,29.990619366666667,486108
058208,CASINO AIRPORT AWS                      ,-28.8824,153.0618,5.3796363,21.857142857142858,0.009262047165375153,1.8863823972316422,2.8518270185218473,1995-07-20 10:00:00,29.999938283333332,486108
058212,EVANS HEAD RAAF BOMBING RANGE AWS       ,-29.183,153.3964,6.419108,11.571428571428571,0.005729832047560279,1.4242780609786414,4.506920446110283,1998-03-01 11:00:00,29.999795566666666,440268
058214,LISMORE AIRPORT AWS                     ,-28.8305,153.2601,4.5676584,7.333333333333333,0.0035799287711717476,1.494814292130418,3.0556694891293743,2002-02-22 10:00:00,29.999757066666668,370478
058216,BYRON BAY (CAPE BYRON AWS)              ,-28.6399,153.6358,7.869695,11.444444444444445,0.013299677313272418,1.2729368688245817,6.182313812531642,2002-11-26 10:00:00,29.99974801666667,357182
059007,KEMPSEY AIRPORT AWS                     ,-31.0711,152.7717,4.549746,18.11111111111111,0.004784841258335004,1.6665573682589565,2.730026654457528,2001-02-16 10:00:00,29.999768200000002,388286
059040,COFFS HARBOUR MO                        ,-30.3107,153.1187,6.163791,28.875,0.009796543584656647,1.5172709852444033,4.062419462047588,1989-01-10 17:30:00,29.962056766666667,467277
059151,COFFS HARBOUR AIRPORT                   ,-30.3189,153.1162,6.177133,7.5,0.00879836737065609,1.4694295705093088,4.203762607827807,2015-02-06 13:30:00,25.361313600000003,169548
060139,PORT MACQUARIE AIRPORT AWS (COMPARISON) ,-31.4335,152.8655,5.4161415,16.25,0.008812194958624175,1.6517227684246896,3.2790863052492427,1995-07-20 10:00:00,30.000067783333336,442508
060141,TAREE AIRPORT AWS                       ,-31.8895,152.512,5.3712063,19.647058823529413,0.008781914660676682,1.7574059665897228,3.056326418415579,1997-06-19 10:00:00,29.9999337,452508
060168,PORT MAQUARIE (PORT MACQUARIE AIRPORT AW,-31.4343,152.8662,5.437029,5.5,0.01701079711256759,1.8559679078891784,2.929484320163334,2020-10-15 15:00:00,29.997935199999997,43588
061055,NEWCASTLE NOBBYS SIGNAL STATION AWS     ,-32.9184,151.7985,7.647431,23.838709677419356,0.011518868324215115,1.3864069844704605,5.516007191553479,2001-10-16 16:00:00,29.99992035,376656
061078,WILLIAMTOWN RAAF                        ,-32.7939,151.8364,6.0903215,34.464285714285715,0.012941931823231445,1.4656620348995335,4.155338267494929,1989-02-20 13:30:00,29.87982525,600875
061087,GOSFORD (NARARA RESEARCH STATION) AWS   ,-33.3949,151.3289,5.132375,49.310344827586206,0.08993302804415526,3.7400750243898586,1.3722651898743783,1999-04-30 18:00:00,29.999878483333337,246895
061250,PATERSON (TOCAL AWS)                    ,-32.6296,151.5919,5.5844955,33.27272727272727,0.02949406194588633,2.2581798422315975,2.4730074372264506,2002-07-18 10:00:00,29.99991745,363468
061260,CESSNOCK AIRPORT AWS                    ,-32.7914,151.3369,5.59944,38.45,0.018823750493007774,1.9023789693442033,2.943388351133372,1994-06-28 00:00:00,29.99994055,504704
061287,MERRIWA (ROSCOMMON)                     ,-32.1852,150.1737,6.1609936,27.529411764705884,0.014748223370325664,1.7091988372020288,3.6046090378433657,2007-08-02 16:00:00,29.999890933333333,275088
061363,SCONE AIRPORT AWS                       ,-32.0335,150.8264,4.981134,20.357142857142858,0.008890568688809886,1.5431526204178103,3.2278945529620042,1989-01-01 11:00:00,29.99985021666667,600876
061366,NORAH HEAD AWS                          ,-33.2814,151.5766,7.2648263,34.97142857142857,0.010173965721008704,1.3914269878460936,5.221133671559614,1989-10-25 10:00:00,29.99994885,586620
061375,MANGROVE MOUNTAIN AWS                   ,-33.2894,151.2107,5.8208604,49.785714285714285,0.03304655240614174,2.471090698011248,2.355583463844304,1994-06-28 00:00:00,29.99994055,504704
061379,WILLIAMTOWN COMPARISON AWS              ,-32.8081,151.8419,6.257231,5.0,0.016681457967552826,1.617160094314808,3.8692713587861225,1995-07-20 10:00:00,29.999579116666666,71279
061392,MURRURUNDI GAP AWS                      ,-31.7416,150.7937,7.8514023,20.82758620689655,0.0150495228421349,1.285319196728488,6.108523316775281,2003-06-20 11:00:00,29.999913616666667,347290
061412,COORANBONG (LAKE MACQUARIE AWS)         ,-33.0887,151.4636,4.5537534,104.22222222222223,0.047672489309450006,3.5015470005399676,1.3004975730169703,2008-07-31 09:00:00,29.99988355,257630
061425,GOSFORD AWS                             ,-33.4351,151.3614,5.557721,50.2,0.04821020290870792,2.709180359515095,2.051440066912061,2013-06-04 14:30:00,29.999826283333334,172707
061428,MAITLAND AIRPORT AWS                    ,-32.7023,151.4881,5.980704,15.607142857142858,0.024038403009474574,1.8685466648562392,3.200724896629292,2016-07-11 11:00:00,29.999746466666668,118330
061430,SINGLETON DEFENCE AWS                   ,-32.6976,151.1564,5.506022,11.411764705882353,0.00741661218227363,1.7111914693122363,3.2176539418373404,2017-04-03 13:30:00,29.999715783333333,105557
062100,NULLO MOUNTAIN AWS                      ,-32.7244,150.229,7.790032,90.36111111111111,0.05974700440289871,2.1173627836150137,3.679120068712343,1989-01-03 10:00:00,29.999850183333333,600782
062101,MUDGEE AIRPORT AWS                      ,-32.5628,149.6149,4.7964463,14.2,0.005892325954453881,1.5703694057959852,3.0543426952230797,1989-01-01 11:00:00,29.99985021666667,600876
063291,BATHURST AIRPORT AWS                    ,-33.4119,149.654,4.5955534,5.142857142857143,0.0028459980279704755,1.3808369884072549,3.3280926254974728,1989-01-01 11:00:00,29.99985021666667,600876
063292,MOUNT BOYCE AWS                         ,-33.6185,150.2741,7.1276574,53.267605633802816,0.03331403890565143,1.7670920251962017,4.033551910060415,1989-09-25 00:00:00,29.999948983333336,588080
063303,ORANGE AIRPORT AWS                      ,-33.3768,149.1263,6.7261634,31.80952380952381,0.01972435347232293,1.6336775706334612,4.117191487602112,1996-03-14 14:00:00,29.999810383333333,474678
063308,MARRANGAROO (DEFENCE)                   ,-33.4346,150.135,5.7547545,42.04545454545455,0.09971306702587512,3.49168426564864,1.6481314189601846,2017-12-07 12:00:00,29.99903905,93658
064017,COONABARABRAN AIRPORT AWS               ,-31.333,149.2699,6.5363307,13.0,0.003985872727240269,1.5274490461912844,4.279246313465635,2001-07-02 11:00:00,29.9999214,381754
065068,PARKES AIRPORT AWS                      ,-33.1281,148.2428,6.213931,27.41176470588235,0.016354946681236937,1.6982072354857252,3.6591123591001993,1997-09-25 10:00:00,29.999933,447804
065070,DUBBO AIRPORT AWS                       ,-32.2206,148.5753,6.046174,13.0,0.005710468250261114,1.4167291200977785,4.267699423697984,1989-01-02 09:00:00,29.997653416666665,600876
065091,COWRA AIRPORT COMPARISON                ,-33.8451,148.6534,4.434647,,0.0007257138646133976,1.7969350511671782,2.467895030709094,2004-07-06 09:00:00,29.924433233333332,397
065103,FORBES AIRPORT AWS                      ,-33.3627,147.9205,5.9218216,22.27777777777778,0.016416561493968418,1.774565106270724,3.3370551315995844,1996-01-10 11:00:00,29.999811616666666,477756
065111,COWRA AIRPORT AWS                       ,-33.8382,148.654,4.4077425,9.444444444444445,0.0035896578526647405,1.5671230908369373,2.8126332424539657,2004-07-14 16:00:00,29.999908683333334,328560
066022,FORT DENISON                            ,-33.8551,151.2254,6.0842576,33.06666666666667,0.009938110072020945,1.4447071315597648,4.211412451548458,1990-08-13 00:00:00,29.9999476,572624
066037,SYDNEY AIRPORT AMO                      ,-33.9465,151.1731,6.1535954,60.24,0.015246914649104548,1.3760145844884042,4.472042314746367,1970-01-02 04:30:00,21.451575966666667,1306139
066043,KURNELL AWS                             ,-34.0039,151.2111,6.999187,18.055555555555557,0.008319389370316732,1.239665180975076,5.646030153996867,2000-03-17 13:00:00,29.99977745,404408
066051,LITTLE BAY (THE COAST GOLF CLUB)        ,-33.9829,151.2502,7.291409,30.484848484848484,0.017965449303331327,1.5551270682365383,4.688625877963612,1999-04-30 18:00:00,29.999928533333332,419852
066059,TERREY HILLS AWS                        ,-33.6908,151.2253,6.041613,29.857142857142858,0.01880982800647868,2.0766294708079234,2.9093361078077677,2004-09-23 10:00:00,29.999907733333334,325164
066062,SYDNEY (OBSERVATORY HILL)               ,-33.8607,151.205,5.9411345,,0.388814408237669,208034.76399993896,2.8558373315055975e-05,1993-09-06 00:00:00,5.417133433333333,473110
066137,BANKSTOWN AIRPORT AWS                   ,-33.9176,150.9837,4.4226813,22.11111111111111,0.00558516449855706,1.4577809483283215,3.0338449248538573,1989-05-31 11:30:00,29.640423766666668,600874
066161,HOLSWORTHY AERODROME AWS                ,-33.9925,150.9489,4.692504,11.222222222222221,0.0029656203373435996,1.4904968860832073,3.1482816052500118,2012-08-31 10:00:00,29.999838716666666,186012
066193,MARSFIELD (MACQUARIE UNIVERSITY NO:2)   ,-33.7654,151.1176,4.9263644,,,,,,,
066194,CANTERBURY RACECOURSE AWS               ,-33.9057,151.1134,4.9800696,26.22222222222222,0.015694608078019145,1.6523255848250915,3.0139759881680668,1996-01-10 11:00:00,29.999811616666666,477756
066195,SYDNEY OLYMPIC PARK (SYDNEY OLYMPIC PK (,-33.8521,151.0646,4.6605263,12.4,0.004273345393593586,1.5691740361725537,2.970050592350148,1996-01-10 11:00:00,26.47612343333333,274181
066196,SYDNEY HARBOUR (WEDDING CAKE WEST)      ,-33.8405,151.2643,6.9473424,16.823529411764707,0.008727095171226829,1.2752691855522067,5.44774583632254,1996-02-28 19:30:00,29.99981066666667,475387
066197,MANLY (NORTH HEAD)                      ,-33.8152,151.2986,8.081692,64.54347826086956,0.036726287685934667,1.8266993357307986,4.424204675538548,1997-08-28 10:00:00,29.999933199999997,449148
066198,SYDNEY HARBOUR (SHARK ISLAND)           ,-33.8614,151.2569,6.568132,9.5,0.01103238493062908,1.398349841446182,4.697059154297708,1997-08-28 17:00:00,30.0004805,62434
066199,MIDDLE HEAD                             ,-33.8283,151.2636,6.8600187,63.92307692307692,0.04697873333573632,2.163946959415858,3.1701418097675496,1997-09-08 14:30:00,30.000484933333333,61863
066200,SYDNEY HARBOUR (CLARKE ISLAND)          ,-33.8642,151.2394,6.2827954,10.75,0.014974667450839196,1.5789897215580662,3.978997040607836,1997-08-28 10:00:00,30.0004804,62446
066201,SOUTH HEAD                              ,-33.8361,151.28,7.2493324,18.11111111111111,0.022006943347872565,1.5694781755587364,4.618944398763458,1997-08-28 17:00:00,30.0004809,62383
066202,SYDNEY HARBOUR (CANNAE POINT)           ,-33.8153,151.2842,7.2391496,49.608695652173914,0.11003547784810719,2.0337957788131313,3.5594279651271874,1997-08-28 14:00:00,30.0,62397
066203,SYDNEY HARBOUR (BOMBORA)                ,-33.8167,151.2722,6.909982,2.8,0.014251784645880505,1.5582629685632872,4.434413410214217,1998-10-30 16:00:00,29.9866978,33829
066208,WATTAMOLLA AWS                          ,-34.1407,151.1185,7.072532,17.77777777777778,0.009533091474784983,1.1598867103165906,6.097606011056882,2007-06-26 09:00:00,29.999891633333334,276878
066212,SYDNEY OLYMPIC PARK AWS (ARCHERY CENTRE),-33.8338,151.0718,4.684545,26.75,0.018194041414972828,2.0401649138028124,2.296159986105608,2011-08-31 15:00:00,29.999115800000002,203575
067033,RICHMOND RAAF                           ,-33.6022,150.7794,4.3324103,17.466666666666665,0.8476077967156327,2.2310992225720443,1.9418277285518053,1985-01-02 17:00:00,29.791491399999998,172367
067105,RICHMOND RAAF                           ,-33.6004,150.7761,4.3344035,43.05555555555556,0.007522669050571307,1.7036633424624394,2.544166682953455,1989-01-18 16:30:00,29.95861035,600875
067108,BADGERYS CREEK AWS                      ,-33.8969,150.7281,4.821594,39.22222222222222,0.0046578922691355995,1.7158164389976454,2.8100874479894564,1996-01-10 11:00:00,29.92910165,476880
067113,PENRITH LAKES AWS                       ,-33.7195,150.6783,3.816948,25.09090909090909,0.001345193910704423,1.5527230567560024,2.458228413884834,1996-01-10 11:00:00,29.999811616666666,477756
067117,HOLSWORTHY CONTROL RANGE                ,-33.9795,150.9254,4.415331,10.6,0.0007389737038565602,1.368027750061374,3.2275155870505805,1998-04-30 17:00:00,29.999895383333335,286792
067119,HORSLEY PARK EQUESTRIAN CENTRE AWS      ,-33.851,150.8567,4.9068336,33.666666666666664,0.00972208700678856,1.851661387334644,2.6499627211780523,1997-09-04 13:30:00,29.99993315,448805
068072,NOWRA RAN AIR STATION AWS               ,-34.9469,150.5353,5.3677278,38.3,0.005863230589267632,1.3748397679483102,3.9042569771680142,2000-11-29 10:00:00,29.999770450000003,392078
068076,NOWRA RAN AIR STATION                   ,-34.9449,150.545,5.51312,21.384615384615383,0.4549978082877062,1.5286423426092173,3.606546816567762,1989-06-10 16:00:00,28.946105816666666,208427
068151,JERVIS BAY (POINT PERPENDICULAR AWS)    ,-35.0936,150.8049,7.490162,19.54901960784314,0.03514536032147719,1.6800159510231925,4.458387368995018,2004-10-08 10:00:00,25.36296121666667,383760
068192,CAMDEN AIRPORT AWS                      ,-34.039,150.689,4.4065576,39.42857142857143,0.009761609425377515,1.814551797275582,2.4284550965054663,1994-09-19 15:00:00,27.62122361666667,543809
068228,BELLAMBI AWS                            ,-34.3691,150.9291,6.8187523,40.9,0.010731069692635042,1.381654537307996,4.935207828509693,1989-01-01 11:00:00,29.99985021666667,600876
068239,MOSS VALE AWS                           ,-34.5253,150.4217,7.361471,37.04761904761905,0.030225088964428215,1.5608614321708112,4.716287445138094,2001-02-26 16:00:00,29.99969055,387795
068241,ALBION PARK (SHELLHARBOUR AIRPORT)      ,-34.5639,150.7924,4.9378114,24.347826086956523,0.005853162426582292,1.3346668077496728,3.699658481047977,1999-06-04 15:00:00,29.99992825,418178
068242,KIAMA (BOMBO HEADLAND)                  ,-34.6532,150.8609,6.930965,25.21212121212121,0.018180724142317972,1.5147626608865479,4.575611167158245,2001-12-17 16:00:00,29.99975915,373682
068253,PORT KEMBLA NTC AWS                     ,-34.4734,150.9118,6.519816,21.5625,0.015592311322384589,1.6773477674771915,3.8869792229130584,2012-07-11 14:30:00,29.9998408,188451
068257,CAMPBELLTOWN (MOUNT ANNAN)              ,-34.0615,150.7735,4.621676,32.23809523809524,0.016096258734360713,2.2509173925054986,2.053241040101331,2006-11-14 12:00:00,29.999687083333335,287626
068262,HIGH RANGE AWS (WANGANDERRY)            ,-34.3335,150.267,7.0253158,17.925925925925927,0.009856885434574414,1.3149797437825474,5.342527742182399,2014-07-01 12:30:00,29.999805050000003,153895
068263,HOLSWORTHY DEFENCE AWS                  ,-34.081,150.9009,5.021655,21.846153846153847,0.015540656853976431,2.2124913163643436,2.2696835217208564,2017-12-13 11:00:00,29.9990361,93372
068264,JERVIS BAY NSW (JERVIS BAY AIRFIELD AWS),-35.144,150.6974,6.817914,6.857142857142857,0.01568563733991646,1.4377284049985501,4.742143220785231,2018-10-12 14:30:00,29.998858166666665,78821
069017,MONTAGUE ISLAND LIGHTHOUSE              ,-36.2519,150.2275,7.69899,14.290322580645162,0.012510635231690936,1.1643615986987086,6.612198372712101,1998-04-15 10:00:00,29.999931516666667,438108
069128,NERRIGA AWS                             ,-35.1103,150.0826,5.4236255,26.724137931034484,0.014052243352894789,1.5704430964193061,3.45356382639646,2013-06-25 13:00:00,29.99982526666667,171702
069132,BRAIDWOOD RACECOURSE AWS                ,-35.4253,149.7835,5.866378,67.2258064516129,0.03256604825342013,1.9112324332954067,3.06942145199492,1989-01-01 11:00:00,29.99985021666667,600876
069137,GREEN CAPE AWS                          ,-37.2622,150.0504,8.582402,15.774193548387096,0.02330085686213801,1.239009472560054,6.926825354753773,2000-07-28 14:30:00,29.999924616666664,398019
069138,ULLADULLA AWS                           ,-35.3635,150.4828,7.3889804,47.98148148148148,0.03854054807723628,2.035725839005952,3.629653977496993,1992-09-22 00:00:00,29.99994398333333,535616
069139,BEGA AWS                                ,-36.6722,149.8191,4.388587,44.57142857142857,0.009980353166773703,1.692481713970732,2.592989313715995,1992-04-03 00:00:00,29.999944833333334,543872
069147,MERIMBULA AIRPORT AWS                   ,-36.9077,149.8989,5.189962,51.0,0.022469953592724523,1.9502604391422556,2.661163507234142,1998-04-28 10:00:00,29.999931416666666,437484
069148,MORUYA AIRPORT AWS                      ,-35.9004,150.1437,5.545583,22.8,0.009524510330281455,1.7253800776634312,3.2141224087919733,1999-10-01 11:00:00,29.999927266666667,412474
070014,CANBERRA AIRPORT COMPARISON             ,-35.3049,149.2014,4.76841,40.8125,0.013438752363766127,1.6116288994647552,2.9587519852893687,1985-01-02 16:00:00,29.1219058,454359
070217,COOMA AIRPORT AWS                       ,-36.2939,148.9725,5.915596,32.526315789473685,0.012148852990445103,1.4531338423885425,4.07092301874768,1992-04-20 14:00:00,29.953389766666664,543872
070328,BOMBALA AWS                             ,-37.0016,149.2336,6.2685394,59.5,0.015372863752804777,1.6352103388543162,3.833475902007132,1989-02-20 21:00:00,29.9998496,598456
070330,GOULBURN AIRPORT AWS                    ,-34.8085,149.7311,6.5079293,46.21212121212121,0.02663408740927553,1.5725650163930052,4.138416699635737,1989-01-03 10:00:00,29.999850183333333,600782
070339,TUGGERANONG (ISABELLA PLAINS) AWS       ,-35.4184,149.0937,4.302654,27.666666666666668,0.00957315205774345,1.6934500496492244,2.54076215026921,1996-08-09 13:00:00,29.700752083333334,472284
070349,MOUNT GININI AWS                        ,-35.5293,148.7721,9.463778,79.45679012345678,0.1392784107328472,2.0914524240248866,4.524978638482119,2004-06-28 11:30:00,29.999908899999998,329337
070351,CANBERRA AIRPORT                        ,-35.3088,149.2004,4.7843604,11.428571428571429,0.0037724405234831337,1.3289790382115998,3.6000269915628227,2010-03-01 10:30:00,27.02099315,255226
071032,THREDBO AWS                             ,-36.4917,148.2859,10.605777,32.05825242718446,0.11699505437559965,1.4585382417923571,7.271510943567071,1998-04-27 10:00:00,29.999931433333334,437532
071075,PERISHER VALLEY AWS                     ,-36.4069,148.4055,7.636665,64.38636363636364,0.15542211872651257,2.324703903479754,3.285005396158243,2010-05-25 15:00:00,29.999867133333332,225794
072150,WAGGA WAGGA AMO                         ,-35.1583,147.4575,5.133038,30.357142857142858,0.005196472115331474,1.5803609117010304,3.248016327138119,1989-01-17 17:00:00,29.960956933333332,600875
072160,ALBURY AIRPORT AWS                      ,-36.069,146.9509,4.232577,25.0,0.005525689025598468,1.7215803315680918,2.458541590807556,1993-09-02 11:00:00,29.65586526666667,525056
072161,CABRAMURRA SMHEA AWS                    ,-35.9371,148.3779,6.377395,17.68421052631579,0.016745864611653172,1.2787195395815198,4.987329086355208,1996-12-12 11:00:00,29.999805016666667,461580
072162,KHANCOBAN AWS                           ,-36.2304,148.1405,2.0612864,2.0,6.877032526297899e-05,1.3182140454850386,1.5636963181301258,1996-12-21 11:00:00,29.999804833333332,461148
073138,YOUNG AIRPORT                           ,-34.2493,148.2475,5.8227196,43.78260869565217,0.019293803344896943,2.0028711678334186,2.9071862771249863,1989-01-01 11:00:00,29.99985021666667,600876
073151,TEMORA AIRPORT                          ,-34.4277,147.5117,6.0901575,19.22222222222222,0.018378274014270057,1.72625060105064,3.5279683640043182,2005-01-31 19:00:00,29.99971778333333,318908
074023,FINLEY AIRPORT AWS                      ,-35.6613,145.561,6.8267584,,0.013157816420676482,2.3501342683646507,2.9048375986853783,2001-03-15 16:00:00,29.76856895,44981
074037,YANCO AGRICULTURAL INSTITUTE            ,-34.6222,146.4326,6.437553,25.0,0.014163410369752438,1.7844198223261165,3.6076448201145617,1999-08-05 17:00:00,29.999927733333333,415198
074148,NARRANDERA AIRPORT AWS                  ,-34.705,146.514,6.2357206,43.63157894736842,0.026134428698570633,1.8079419066280946,3.4490713510205597,2007-03-13 09:00:00,29.99968075,281920
074253,FINLEY (CSIRO)                          ,-35.7111,145.6236,6.868836,1.0,0.019487073378557596,2.594296428425937,2.6476681117830103,1989-05-04 00:00:00,30.00014421666667,208013
074258,DENILIQUIN AIRPORT AWS                  ,-35.5575,144.9458,6.8295126,20.933333333333334,0.009815721030653868,1.5490406122579206,4.408866069802716,1997-05-23 10:00:00,29.99993388333333,453804
074272,KAPOOKA (DEFENCE)                       ,-35.1327,147.2512,5.4974,18.4375,0.02479131221279285,2.1131078930456293,2.601570807183394,2017-10-03 10:30:00,29.99907005,96781
075019,HAY AIRPORT AWS                         ,-34.5412,144.8345,6.8656693,15.444444444444445,0.01355486114554838,1.509991741388549,4.546825695996715,2007-06-26 09:00:00,29.999891633333334,276878
075041,GRIFFITH AIRPORT AWS                    ,-34.2487,146.0695,6.419528,24.933333333333334,0.017624551129749144,1.6156908430296522,3.9732403232971154,2000-06-13 18:00:00,29.99992501666667,400172
075174,GRIFFITH CSIRO                          ,-34.3229,146.0684,6.6753535,,0.022629795731009983,2.9657840479315456,2.2507888029557463,1989-03-01 12:00:00,29.67123636666667,258879
075175,HAY CSIRO AWS                           ,-34.5471,144.867,6.8976617,,0.020000064066522216,2.4244456730495365,2.8450469163400673,1996-09-13 12:00:00,17.95088775,321427
200288,NORFOLK ISLAND AERO                     ,-29.0389,167.9408,,,,,5.108979427193169,1994-07-25 05:00:00,29.9855849,503639
200839,LORD HOWE ISLAND AERO                   ,-31.5421,159.0786,7.7876163,32.644444444444446,0.036504474388158625,1.4433866086142901,5.395377930224528,1994-07-23 03:30:00,29.9910056,503647
091104,LAUNCESTON AIRPORT COMPARISON           ,-41.5397,147.2033,6.223383,25.5,0.012538121015510773,1.5696375904247835,3.9648534080691182,1990-10-05 17:00:00,29.98554825,327988
091107,WYNYARD AIRPORT                         ,-40.9964,145.7311,6.9946613,59.77272727272727,0.01745872824688388,1.5789141028226836,4.430045509551242,1990-10-02 11:00:00,29.999894766666667,570202
091126,DEVONPORT AIRPORT                       ,-41.1701,146.4289,6.906388,24.666666666666668,0.007146885311222428,1.3195410920251762,5.233931590064457,1990-10-20 11:00:00,29.95438473333333,570204
091219,SCOTTSDALE (WEST MINSTONE ROAD)         ,-41.1708,147.4883,5.9942064,38.916666666666664,0.010205526866187697,1.690954182097766,3.5448662607117667,2003-01-22 13:30:00,29.992384183333336,354526
091237,LAUNCESTON (TI TREE BEND)               ,-41.4194,147.1219,5.517305,38.44827586206897,0.020898806393271352,1.897646580783824,2.907445966587426,1999-10-15 13:00:00,29.999781433333332,411800
091245,CAPE GRIM BAPS (COMPARISON)             ,-40.6828,144.69,9.765862,29.083333333333332,0.04287862798979336,0.9852946418155258,9.911616333272644,1997-05-19 11:00:00,29.999933816666665,453368
091259,LUNCHEON HILL (FORESTRY)                ,-41.1492,145.1517,7.2476306,23.130434782608695,0.01345793061381595,1.2604384733807628,5.750086774740547,1997-11-05 12:00:00,29.999798116666668,445834
091291,SHEFFIELD SCHOOL FARM                   ,-41.389,146.3173,6.3933864,57.72727272727273,0.022867836070843972,1.8484440839084963,3.458793489962906,2003-04-15 13:00:00,28.534025583333335,368458
091292,SMITHTON AERODROME                      ,-40.8347,145.0847,7.9246025,42.72727272727273,0.03405708424047593,1.4961001834498773,5.296839473858947,1998-07-24 05:00:00,29.99993076666667,433318
091293,LOW HEAD                                ,-41.0547,146.7874,8.850545,22.764705882352942,0.020332643242790716,1.2536705780568227,7.059705383867789,2000-06-06 16:00:00,29.999925083333334,400512
091306,CRESSY RESEARCH STATION                 ,-41.7256,147.0794,6.325494,33.35,0.018707272916820727,1.5044056712162348,4.204646348778517,2000-06-30 12:00:00,28.713203866666667,408433
091311,LAUNCESTON AIRPORT                      ,-41.5476,147.2156,6.3953533,16.3125,0.009051734206608764,1.3490376282096412,4.740678231302011,2004-07-14 16:00:00,29.999908683333334,328560
091331,CAPE GRIM                               ,-40.6764,144.6922,10.401933,31.705882352941178,0.06824848466940747,1.2111714956711401,8.588323580555915,2010-12-17 12:00:00,29.999583166666664,215914
091344,BURNIE NTC AWS                          ,-41.05,145.9149,7.120767,17.857142857142858,0.02121380447596355,1.61945878562682,4.397004221253152,2013-05-16 10:00:00,29.999827216666667,173628
091375,CRESSY (BRUMBYS CREEK)                  ,-41.7114,147.082,6.2882853,1.8333333333333333,0.020312985409025375,1.6985833984625285,3.702076248433822,2022-12-16 06:30:00,29.98389693333333,5589
092012,FINGAL (LEGGE STREET)                   ,-41.6428,147.9664,4.9386673,54.8125,0.017717196224147025,1.9000806232172003,2.5991882854955763,2001-04-10 11:00:00,30.00008305,361197
092037,SWAN ISLAND LIGHTHOUSE                  ,-40.7314,148.1253,9.959597,,0.02152308698661498,1.768411732778301,5.631944444444448,2001-02-15 15:30:00,29.166666666666668,36
092045,LARAPUNA (EDDYSTONE POINT)              ,-40.9928,148.3467,8.358269,23.488372093023255,0.020131778420432345,1.2261202999209784,6.816842310115612,1994-06-27 17:30:00,29.99994055,504666
092100,STORYS CREEK (STORYS CREEK ROAD)        ,-41.635,147.7292,7.4738994,34.595238095238095,0.32001446350615104,3.864851461414929,1.9338128357810749,1992-05-27 10:00:00,30.00030355,98827
092114,FRIENDLY BEACHES                        ,-41.9953,148.2794,6.8681216,55.70967741935484,0.027981255095672286,1.7361313510105143,3.955991935745722,1997-11-02 17:00:00,29.999798183333333,445968
092120,ST HELENS AERODROME                     ,-41.3381,148.2792,6.887335,54.73170731707317,0.03250902670636857,1.9818905042788895,3.4751338728041152,2001-01-10 12:30:00,29.99976925,390057
092123,SWAN ISLAND                             ,-40.7292,148.125,9.807541,42.22077922077922,0.06831283880188399,1.4777695785207996,6.636718630635044,2003-12-09 10:30:00,28.860425449999997,352421
092124,MARIA ISLAND (POINT LESUEUR)            ,-42.6621,148.0179,7.994164,33.1,0.01836333557062686,1.2246667193549123,6.527624098605082,2004-10-08 17:00:00,29.999722583333334,324432
092133,SPRING BAY NTC AWS                      ,-42.5464,147.9308,6.9264793,7.111111111111111,0.026944623276871527,1.4634800330070903,4.732882706549405,2013-05-16 10:00:00,4.592750016666667,173628
092163,FINGAL (FLEMING ST)                     ,-41.643,147.98,4.9750752,4.8125,0.024115752216653408,2.1042445868260096,2.364304642174627,2022-07-22 16:00:00,29.997623566666668,12624
094008,HOBART AIRPORT WEST                     ,-42.8339,147.5033,7.273921,107.51851851851852,0.028245420466184723,1.6646923253822412,4.3695287723563,1984-12-02 01:00:00,29.994277333333333,660532
094029,HOBART (ELLERSLIE ROAD)                 ,-42.8897,147.3278,5.7155623,39.95454545454545,0.007217328277940305,1.3262294274717596,4.309633178999203,1994-10-20 11:00:00,29.9998197,499212
094041,MAATSUYKER ISLAND LIGHTHOUSE            ,-43.6578,146.2711,11.00239,36.70873786407767,0.0951884520518278,1.13272566397559,9.713199107029338,1997-11-17 01:00:00,29.999797866666665,445280
094087,KUNANYI (MOUNT WELLINGTON PINNACLE)     ,-42.895,147.2358,14.577116,150.87218045112783,0.26796231543788684,1.6098334733989161,9.05504591216873,1990-07-05 10:30:00,29.999947766666665,574475
094155,TASMAN ISLAND                           ,-43.2397,148.0025,13.24206,118.24137931034483,0.33640183485707664,2.1584171272415746,6.135079054234877,2001-12-14 15:30:00,29.999598733333336,373829
094191,HARTZ MOUNTAIN (KEOGHS PIMPLE)          ,-43.2006,146.7683,9.149965,144.2340425531915,0.08329020665044473,1.2717567496567932,7.194744819498044,1999-06-16 10:30:00,29.999928150000002,417611
094195,TUNNACK FIRE STATION                    ,-42.4543,147.4612,8.39643,98.48717948717949,0.06774648927838134,1.8382890276673725,4.567524414927449,1998-02-13 12:00:00,29.999591866666666,441037
094198,CAPE BRUNY (CAPE BRUNY)                 ,-43.4886,147.1444,9.06314,61.72222222222222,0.04352874634709325,1.397837547058354,6.483686129721597,1997-11-17 17:30:00,29.99979785,445247
094212,CAMPANIA (KINCORA)                      ,-42.6867,147.4258,6.586143,51.142857142857146,0.019077123304162336,1.6020751686937522,4.111007489233592,2001-05-23 14:00:00,29.887280116666666,385114
094220,GROVE (RESEARCH STATION)                ,-42.9844,147.0756,5.5539703,94.57142857142857,0.03289766258431159,2.1320042617188943,2.6050465454680953,2005-03-07 08:00:00,29.055914266666665,327555
094250,HOBART AIRPORT                          ,-42.8333,147.5119,7.2654095,4.0,0.02185536319712089,1.6310441141300036,4.454453074973911,2022-08-04 13:30:00,3.5156295666666666,102434
094254,DUNALLEY (STROUD POINT)                 ,-42.9017,147.7894,8.562824,37.53333333333333,0.04746356602546575,1.577612229781004,5.4277116313025955,2012-04-05 20:00:00,29.999844633333332,193096
094255,DENNES POINT                            ,-43.0639,147.3567,7.348834,45.166666666666664,0.025876781496766754,1.7469165639426627,4.2067458683859416,2012-09-28 10:30:00,29.999837533333334,184667
095003,BUSHY PARK (BUSHY PARK ESTATES)         ,-42.7097,146.8983,4.6503453,33.75,0.005586763618773749,1.5245715948372989,3.0502636551917734,1998-07-22 13:30:00,29.95341765,434070
095048,OUSE FIRE STATION                       ,-42.4842,146.7106,4.970779,38.40909090909091,0.01299715807907098,1.686243023034133,2.9478425554366465,1999-12-10 11:00:00,29.999779999999998,409116
096003,BUTLERS GORGE                           ,-42.2753,146.2758,6.9902415,131.44444444444446,0.11974354944399479,3.0388876986857203,2.300263195175183,2008-05-21 12:00:00,29.999885066666664,261032
096033,LIAWENEE                                ,-41.8997,146.6694,7.8315535,54.1025641025641,0.05065127821318682,1.5602924740737025,5.019285543767576,2001-01-11 15:00:00,29.99961538333333,390006
096075,BARREN TIER                             ,-42.0197,146.7533,9.670485,78.85714285714286,0.08147039880310591,1.6374895634365094,5.905677055157387,1997-01-31 12:30:00,29.99958581666667,72432
097000,CAPE SORELL                             ,-42.1986,145.17,9.040999,33.214285714285715,0.04169095504043119,1.326232612891281,6.8170540557184784,2011-06-02 13:00:00,29.999855683333333,207894
097024,WARRA                                   ,-43.0609,146.704,7.7259054,102.88888888888889,0.08947096548894395,2.1413799155775837,3.6079097231619106,2004-09-28 15:00:00,29.999723,324916
097072,STRAHAN AERODROME                       ,-42.155,145.2908,7.043267,42.432432432432435,0.022546523164073573,1.4730656314879396,4.781366575031346,1993-05-30 03:30:00,29.989690483333334,523788
097080,LOW ROCKY POINT                         ,-42.9831,145.5025,9.783088,25.5,0.049396425077370854,1.260640592235165,7.7604098984802,2012-03-28 17:30:00,29.99953485,193487
097083,SCOTTS PEAK DAM                         ,-43.0425,146.2722,6.941533,50.3,0.01519946016098428,1.0790267608558028,6.433142661984195,1998-10-15 14:00:00,26.184982016666666,491864
097085,MOUNT READ                              ,-41.8444,145.5417,10.757934,63.68181818181818,0.11439498291708117,1.3865418072968771,7.758823830643259,1998-01-12 11:00:00,29.999796633333336,442572
098017,KING ISLAND AIRPORT                     ,-39.8804,143.8857,8.519295,39.857142857142854,0.04483755553688307,1.3710709286565546,6.213606138609599,1990-11-21 15:00:00,29.87315065,570204
099005,FLINDERS ISLAND AIRPORT                 ,-40.0911,148.0024,8.648583,31.79245283018868,0.03980839338855913,1.317796701499147,6.562911716451893,1993-06-07 16:00:00,29.968839666666668,523743
200838,HOGAN ISLAND                            ,-39.2225,146.9841,10.713673,33.166666666666664,0.057307527322129626,1.0453035643690634,10.249340960016852,2003-05-09 10:00:00,29.9999141,349308
300000,DAVIS                                   ,-68.5744,77.9672,,,,,6.172717920603,2000-05-01 09:30:00,24.114696566666666,500416
300001,MAWSON                                  ,-67.6017,62.8753,,,,,12.049704269207725,2000-09-22 05:30:00,24.97859175,474817
300004,MACQUARIE ISLAND                        ,-54.4994,158.9369,13.210157,100.88888888888889,0.1484367057152648,1.302895097545306,10.139079822540985,1997-11-13 00:00:00,29.999797966666666,445474
300017,CASEY                                   ,-66.2825,110.5231,,,,,7.121766412810726,1998-04-16 15:00:00,29.69494765,442547
300050,WILKINS RUNWAY EAST                     ,-66.6831,111.5317,,,,,8.65696045413189,2007-11-09 20:00:00,29.988209066666666,269699
300055,DAVIS (WHOOP WHOOP)                     ,-68.4723,78.8735,,,,,10.634593079551564,2007-02-15 13:30:00,29.99989403333333,283151
300060,CASEY SKIWAY SOUTH                      ,-66.2803,110.7615,,,,,7.079892274871054,2010-01-05 15:30:00,29.99986953333333,229954
016001,WOOMERA AERODROME                       ,-31.1558,136.8054,7.554833,22.0,0.016704590856692736,1.4830828604910893,5.0940059632485,1992-04-07 16:00:00,29.996744550000003,543705
016090,COOBER PEDY AIRPORT                     ,-29.0347,134.7222,7.636268,13.4,0.007846191107334977,1.3592475403922821,5.61801137170471,1994-10-07 09:30:00,29.999939966666666,499836
016092,PORT AUGUSTA ARID LANDS                 ,-32.4783,137.7386,6.2530103,3.0,0.006665463643486413,1.308530413743961,4.778651078570388,1994-10-31 13:00:00,29.8509583,117551
016096,ROXBY DOWNS (OLYMPIC DAM AERODROME)     ,-30.4869,136.8739,7.5228577,32.84615384615385,0.03001153266401546,1.7660156945518062,4.259790945926354,1998-09-06 09:30:00,29.999930416666665,431196
016097,ERNABELLA (PUKATJA)                     ,-26.2635,132.1771,6.9297357,22.1875,0.021822719657131007,1.6453472390082002,4.211716223944411,1997-08-11 10:30:00,29.999933316666667,449962
016098,TARCOOLA AERO                           ,-30.7051,134.5786,7.225655,27.45,0.020936742432432487,1.6549341067172634,4.366128566424188,1997-09-29 09:30:00,29.999932966666666,447612
017043,OODNADATTA AIRPORT                      ,-27.5553,135.4456,6.5099835,12.222222222222221,0.008969178201352568,1.3220532828434666,4.924146117302969,1995-03-05 10:30:00,29.999817316666668,492684
017110,LEIGH CREEK AIRPORT                     ,-30.5963,138.4219,7.4333596,20.436363636363637,0.04167153845535587,1.6863160325095194,4.408046581810198,1992-07-29 09:30:00,29.99994425,538236
017123,MOOMBA AIRPORT                          ,-28.0997,140.1956,7.9937577,23.681818181818183,0.01870560444418312,1.702379033199988,4.695639201885595,1995-10-19 11:30:00,29.557921216666667,488940
017126,MARREE AERO                             ,-29.6587,138.0684,6.9300995,10.25,0.006695001953340607,1.387275479891592,4.995474646352314,1998-10-10 09:30:00,29.99993015,429564
018012,CEDUNA AMO                              ,-32.1297,133.6976,7.64024,21.458333333333332,0.018454012412903564,1.4281852505044466,5.349614267277117,1992-04-14 09:30:00,29.97859156666667,543711
018083,WUDINNA AERO                            ,-33.043,135.4519,7.041612,21.26086956521739,0.019616784420575017,1.5450176503084183,4.557625698890402,1999-07-13 17:30:00,29.999927933333332,416300
018106,NULLARBOR                               ,-31.4492,130.8976,8.068025,12.333333333333334,0.018644531844610568,1.4138462699569865,5.706436977451866,1992-04-06 10:00:00,29.999227533333332,543721
018115,NEPTUNE ISLAND                          ,-35.3365,136.1174,8.759283,16.928571428571427,0.01278397539614995,1.077553118642657,8.128864289149435,1995-08-15 13:00:00,29.999938116666666,484854
018116,CLEVE AERODROME                         ,-33.7081,136.5026,7.49255,18.375,0.01505443450896815,1.3874085132151588,5.400392043780326,1996-07-16 17:30:00,29.971289416666664,469165
018120,WHYALLA AERO                            ,-33.0539,137.5206,6.8054705,20.0,0.017014577946876552,1.4297595056802246,4.7598707611851045,1992-04-06 10:30:00,29.999944816666666,543707
018191,COULTA (COLES POINT)                    ,-34.3749,135.3741,7.9129443,24.0,0.01941124924485227,1.52133001379407,5.201333205232566,1992-04-06 10:30:00,29.9999319,440547
018192,NORTH SHIELDS (PORT LINCOLN AWS)        ,-34.5993,135.8784,6.7399406,23.8,0.010488062324511938,1.3068510119918522,5.157390231528985,1992-04-06 10:30:00,29.999944816666666,543707
018195,MINNIPA PIRSA                           ,-32.8427,135.1515,7.5427666,12.777777777777779,0.01148521656348489,1.4952031586181076,5.044643283134899,1996-07-19 04:30:00,29.96374408333333,469165
018200,THEVENARD WIND                          ,-32.1803,133.6343,8.405201,16.333333333333332,0.01839029921252444,1.3408946222184832,6.268353097237214,2002-07-12 12:00:00,29.999893633333333,282045
018201,PORT AUGUSTA AERO                       ,-32.5073,137.7169,6.0209565,4.571428571428571,0.005187784780868121,1.1716760496702099,5.138755305240369,2001-07-02 17:30:00,29.9999214,381741
018207,CEDUNA (THEVENARD NTC AWS)              ,-32.149,133.6416,8.236557,8.782608695652174,0.044829847683738766,1.7267910444609875,4.769863170912467,2021-06-04 14:00:00,29.99907555,32452
018217,CUMMINS AERO                            ,-34.2524,135.7135,6.980287,25.333333333333332,0.02323104317257285,1.5766915929439487,4.4271733966750935,2007-05-25 08:30:00,29.999892233333334,278415
018229,CULTANA (DEFENCE)                       ,-32.6845,137.3689,7.730015,11.375,0.012465472624355378,1.3640825654507631,5.6668232530858536,2017-12-06 14:30:00,29.999039483333334,93701
018230,COFFIN BAY (POINT AVOID)                ,-34.675,135.3362,8.706226,15.464285714285714,0.028790952054042918,1.5834438882047457,5.498285359986942,2017-06-13 08:30:00,29.999706333333332,102159
